time,field.header.seq,field.header.stamp,field.pose.pose.position.x,field.pose.pose.position.y,field.pose.pose.position.z,field.pose.pose.orientation.x,field.pose.pose.orientation.y,field.pose.pose.orientation.z,field.pose.pose.orientation.w,field.twist.twist.linear.x,field.twist.twist.linear.y,field.twist.twist.linear.z,field.twist.twist.angular.x,field.twist.twist.angular.y,field.twist.twist.angular.z,gbx,gby,gbz,abx,aby,abz
1609059608451182848,0,1609059608451182848,0.000463235,-0.000393876,0.000019766,-0.005309963,-0.018893367,-0.000087907,0.999807400,0.007555138,-0.008818809,-0.000129523,0.020974135,-0.006545946,-0.005334925,0.007001004,-0.003579139,-0.001870608,-0.008017573,0.002956154,-0.180704682
1609059608546182400,1,1609059608546182400,0.002229690,-0.002263031,-0.000209269,-0.004139223,-0.017604277,-0.000074832,0.999836462,0.020201357,-0.022022849,-0.002008664,0.021267934,-0.001186980,-0.005842039,0.007001007,-0.003579132,-0.001870607,-0.007917669,0.002923275,-0.178297384
1609059608640260352,2,1609059608640260352,0.004418883,-0.007363197,-0.000048395,-0.001949950,-0.017593461,0.000008998,0.999843322,0.027982160,-0.048233303,-0.000708787,0.016215185,0.000316071,-0.007863033,0.007001015,-0.003579119,-0.001870608,-0.008064728,0.002967934,-0.182003028
1609059608751183872,3,1609059608751183872,0.008558171,-0.018005759,0.001942610,-0.000018910,-0.017425980,-0.000037477,0.999848155,0.039918615,-0.082938403,0.009724515,0.021009078,-0.004080346,-0.005475815,0.007001025,-0.003579102,-0.001870607,-0.008525613,0.003085084,-0.193980807
1609059608844347648,4,1609059608844347648,0.012446226,-0.025855280,0.002807342,-0.000158900,-0.017451537,-0.000024444,0.999847697,0.047705983,-0.097607195,0.010371819,0.019036785,-0.002127285,-0.007008181,0.007001025,-0.003579103,-0.001870607,-0.008523221,0.003084584,-0.193917504
1609059608940175872,5,1609059608940175872,0.016201749,-0.034685026,0.007879732,-0.000475135,-0.017737498,-0.000029912,0.999842565,0.051979075,-0.108839409,0.024440283,0.017975150,-0.003624970,-0.007652229,0.007001032,-0.003579106,-0.001870607,-0.009014600,0.003171816,-0.207081013
1609059609051267584,6,1609059609051267584,0.022321182,-0.044731156,0.010867267,-0.000776050,-0.017755649,-0.000056483,0.999842053,0.061075698,-0.117649997,0.027622326,0.023715628,-0.004961047,-0.006647055,0.007001031,-0.003579111,-0.001870607,-0.009032245,0.003174471,-0.207557904
1609059609145016576,7,1609059609145016576,0.025709400,-0.040566767,0.015653372,-0.002590103,-0.018060236,-0.000081692,0.999833542,0.062098988,-0.092095317,0.034754375,0.018824769,-0.002988581,-0.006865279,0.007001029,-0.003579139,-0.001870607,-0.009189561,0.003195702,-0.211833754
1609059609240235264,8,1609059609240235264,0.029685496,-0.039500696,0.025696073,-0.003630355,-0.018255535,-0.000112131,0.999826757,0.063727058,-0.079909778,0.051862731,0.017826442,-0.001586546,-0.008094353,0.007001038,-0.003579159,-0.001870606,-0.009598580,0.003250388,-0.222985218
1609059609351190272,9,1609059609351190272,0.031192282,-0.042673610,0.038693300,-0.004079849,-0.018637525,-0.000165210,0.999817969,0.060243246,-0.077027252,0.070545407,0.021455340,-0.003225640,-0.005489458,0.007001062,-0.003579175,-0.001870606,-0.009975238,0.003303101,-0.233271746
1609059609445044992,10,1609059609445044992,0.026374019,-0.047214791,0.049346730,-0.004352071,-0.019266539,-0.000162206,0.999804898,0.047023233,-0.079483457,0.081299117,0.020031516,-0.003657915,-0.007210908,0.007001086,-0.003579187,-0.001870607,-0.010154924,0.003329663,-0.238172316
1609059609540071424,11,1609059609540071424,0.018562953,-0.052660573,0.056392924,-0.004525064,-0.019918266,-0.000121882,0.999791364,0.030621607,-0.082678701,0.084384115,0.014839605,-0.001251709,-0.007501271,0.007001107,-0.003579193,-0.001870609,-0.010121517,0.003324488,-0.237265825
1609059609651515648,12,1609059609651515648,0.015363601,-0.062485318,0.050983838,-0.004478772,-0.020157186,-0.000136481,0.999786782,0.024683276,-0.090150309,0.066112895,0.020149779,-0.003721958,-0.004553084,0.007001127,-0.003579214,-0.001870612,-0.009575619,0.003234329,-0.222633466
1609059609745394944,13,1609059609745394944,0.017649671,-0.070414198,0.056907639,-0.004527710,-0.020150975,-0.000122721,0.999786689,0.028106285,-0.096026956,0.069359479,0.018371560,-0.000663182,-0.008071193,0.007001128,-0.003579214,-0.001870612,-0.009562431,0.003232073,-0.222283881
1609059609840183808,14,1609059609840183808,0.015030461,-0.059143443,0.050611815,-0.005370736,-0.020262252,-0.000117293,0.999780267,0.023894161,-0.072590761,0.054204925,0.015342072,-0.000434172,-0.007118464,0.007001181,-0.003579258,-0.001870613,-0.009167724,0.003161240,-0.211940323
1609059609951174656,15,1609059609951174656,0.013574387,-0.046990917,0.058195807,-0.005960775,-0.020332612,-0.000151106,0.999775490,0.021771182,-0.050006877,0.059468122,0.021658737,-0.007834054,-0.006278057,0.007001218,-0.003579297,-0.001870614,-0.009205211,0.003168634,-0.212906048
1609059610045047296,16,1609059610045047296,0.012409461,-0.042553531,0.061427533,-0.006280337,-0.020411187,-0.000158085,0.999771932,0.020814806,-0.043043023,0.058939686,0.017801125,-0.001929943,-0.008241147,0.007001236,-0.003579308,-0.001870613,-0.009147711,0.003156404,-0.211438128
1609059610140227328,17,1609059610140227328,0.012831938,-0.043324461,0.052170195,-0.006375677,-0.020344130,-0.000139846,0.999772698,0.022348453,-0.042291149,0.042052919,0.017540647,-0.002867216,-0.007444651,0.007001239,-0.003579354,-0.001870615,-0.008794375,0.003073117,-0.202552899
1609059610251176448,18,1609059610251176448,0.015324320,-0.047736821,0.040279162,-0.006302757,-0.020225656,-0.000154455,0.999775562,0.026425871,-0.045578170,0.024393409,0.022468027,-0.004407915,-0.004080734,0.007001238,-0.003579405,-0.001870618,-0.008431793,0.002978080,-0.193577188
1609059610344976128,19,1609059610344976128,0.016096888,-0.045795804,0.040820853,-0.006494968,-0.020165377,-0.000140531,0.999775551,0.028031629,-0.041772965,0.022330447,0.017993834,-0.003200366,-0.007656962,0.007001254,-0.003579452,-0.001870619,-0.008396614,0.002968087,-0.192716687
1609059610440017152,20,1609059610440017152,0.012919476,-0.048473382,0.043067289,-0.006562170,-0.020277524,-0.000108798,0.999772848,0.024118786,-0.044452622,0.021906864,0.013132682,-0.003385822,-0.009004907,0.007001260,-0.003579443,-0.001870621,-0.008400007,0.002969187,-0.192797734
1609059610551044352,21,1609059610551044352,0.006884627,-0.053130610,0.033721881,-0.006487611,-0.020383527,-0.000130384,0.999771177,0.017972700,-0.047150718,0.010173522,0.020721715,-0.002940653,-0.005016712,0.007001263,-0.003579450,-0.001870622,-0.008177236,0.002893417,-0.187505903
1609059610645067776,22,1609059610645067776,0.003189990,-0.057311185,0.018226813,-0.006521257,-0.020449173,-0.000096202,0.999769621,0.015121905,-0.050369089,-0.008683060,0.019296043,-0.001721120,-0.007016084,0.007001267,-0.003579454,-0.001870624,-0.007881220,0.002785199,-0.180584859
1609059610739526912,23,1609059610739526912,0.004908205,-0.057907120,-0.002504732,-0.006642151,-0.020378878,-0.000075298,0.999770262,0.019101231,-0.049341337,-0.032154622,0.014625648,-0.002179881,-0.007312852,0.007001286,-0.003579494,-0.001870627,-0.007532753,0.002649236,-0.172571043
1609059610850683648,24,1609059610850683648,0.011717369,-0.050956398,-0.031277063,-0.006935904,-0.020183434,-0.000106085,0.999772230,0.029020348,-0.037187356,-0.061834292,0.019040860,0.000282533,-0.007771139,0.007001377,-0.003579574,-0.001870626,-0.007104501,0.002469751,-0.162889117
1609059610946766080,25,1609059610946766080,0.011932635,-0.047173956,-0.046629279,-0.007236452,-0.020162052,-0.000090617,0.999770532,0.029699931,-0.031896344,-0.074927929,0.020844290,-0.002241609,-0.006270986,0.007001443,-0.003579589,-0.001870627,-0.006942318,0.002396969,-0.159263978
1609059611040043776,26,1609059611040043776,0.010397585,-0.045534186,-0.053642770,-0.007370176,-0.020218320,-0.000067837,0.999768421,0.028698302,-0.027726502,-0.078316894,0.015559083,0.001174301,-0.006865027,0.007001488,-0.003579583,-0.001870626,-0.006943901,0.002398019,-0.159294852
1609059611153014016,27,1609059611153014016,0.010428383,-0.046145906,-0.059136390,-0.007342405,-0.020236324,-0.000089476,0.999768259,0.028949757,-0.024770298,-0.076447492,0.020109244,-0.000878917,-0.005433313,0.007001521,-0.003579583,-0.001870626,-0.006997509,0.002426150,-0.160461294
1609059611246251776,28,1609059611246251776,0.013000014,-0.047462712,-0.066327488,-0.007410794,-0.020239217,-0.000082964,0.999767697,0.032290660,-0.025497114,-0.079261669,0.018352222,-0.001971167,-0.007652904,0.007001531,-0.003579582,-0.001870626,-0.006999029,0.002427172,-0.160491768
1609059611340208640,29,1609059611340208640,0.013064779,-0.047131485,-0.061946727,-0.007492936,-0.020268385,-0.000074298,0.999766494,0.032593312,-0.023506774,-0.068437107,0.017020920,-0.002506885,-0.007677455,0.007001566,-0.003579582,-0.001870626,-0.007185378,0.002538782,-0.164436284
1609059611451697152,30,1609059611451697152,0.010939539,-0.044903516,-0.058682823,-0.007585531,-0.020346274,-0.000101922,0.999764211,0.029499088,-0.019938335,-0.059002453,0.021725856,-0.005706436,-0.006583653,0.007001622,-0.003579553,-0.001870625,-0.007340833,0.002637738,-0.167684773
1609059611545896704,31,1609059611545896704,0.010945955,-0.044792593,-0.059537383,-0.007678850,-0.020350379,-0.000101372,0.999763416,0.030062404,-0.018357017,-0.055435127,0.020516803,-0.002349369,-0.005433494,0.007001652,-0.003579553,-0.001870624,-0.007415401,0.002687953,-0.169221348
1609059611639676928,32,1609059611639676928,0.010489404,-0.043521770,-0.054539499,-0.007770051,-0.020421036,-0.000091699,0.999761271,0.028938447,-0.016164896,-0.046642396,0.015915316,-0.001411914,-0.008273659,0.007001682,-0.003579531,-0.001870624,-0.007565308,0.002794028,-0.172270838
1609059611750478080,33,1609059611750478080,0.011691113,-0.044087281,-0.052902323,-0.007697290,-0.020454508,-0.000129523,0.999761145,0.030406109,-0.015506579,-0.039874449,0.021923898,-0.001137245,-0.005270896,0.007001688,-0.003579519,-0.001870624,-0.007665384,0.002868338,-0.174279677
1609059611844249856,34,1609059611844249856,0.012477586,-0.044929391,-0.057703833,-0.007770292,-0.020442713,-0.000107974,0.999760825,0.031235310,-0.015503616,-0.042624886,0.018453186,-0.003347876,-0.008382767,0.007001703,-0.003579529,-0.001870624,-0.007651461,0.002857668,-0.174002917
1609059611939869440,35,1609059611939869440,0.013625982,-0.041833451,-0.062180903,-0.007917681,-0.020486180,-0.000074971,0.999758781,0.032058294,-0.009971524,-0.044207437,0.013500271,-0.002084983,-0.009171513,0.007001758,-0.003579523,-0.001870624,-0.007642731,0.002850863,-0.173830074
1609059612050566912,36,1609059612050566912,0.013114035,-0.040769707,-0.059376131,-0.007881120,-0.020544503,-0.000105445,0.999757871,0.030633198,-0.008094432,-0.036833520,0.021029562,-0.004812643,-0.004893825,0.007001769,-0.003579493,-0.001870624,-0.007747111,0.002938156,-0.175843974
1609059612144885760,37,1609059612144885760,0.012369070,-0.041952340,-0.059743454,-0.007861109,-0.020574951,-0.000107176,0.999757402,0.028536487,-0.009783677,-0.033830287,0.020145085,-0.004121485,-0.006359276,0.007001756,-0.003579474,-0.001870623,-0.007790988,0.002976125,-0.176678943
1609059612239547136,38,1609059612239547136,0.012817035,-0.043066781,-0.057782464,-0.007872409,-0.020558492,-0.000088862,0.999757653,0.028876832,-0.011815048,-0.028851104,0.016194459,-0.001365833,-0.007789878,0.007001743,-0.003579491,-0.001870622,-0.007862974,0.003040116,-0.178031722
1609059612350526976,39,1609059612350526976,0.014724572,-0.043260952,-0.060455835,-0.007799392,-0.020586257,-0.000134564,0.999757649,0.029660615,-0.011144794,-0.027400604,0.021115106,-0.004110109,-0.005076018,0.007001752,-0.003579479,-0.001870620,-0.007869475,0.003046000,-0.178152930
1609059612444316160,40,1609059612444316160,0.013248880,-0.042818091,-0.060482526,-0.007832118,-0.020670288,-0.000125620,0.999755661,0.027326490,-0.010546424,-0.024886657,0.020708643,-0.003461582,-0.007068481,0.007001765,-0.003579438,-0.001870619,-0.007904676,0.003078918,-0.178797923
1609059612539931648,41,1609059612539931648,0.014138605,-0.042183192,-0.057492791,-0.007873795,-0.020706517,-0.000117074,0.999754585,0.027718003,-0.009093719,-0.019909013,0.015847316,-0.000479019,-0.008047433,0.007001783,-0.003579426,-0.001870618,-0.007977795,0.003148383,-0.180121882
1609059612650884352,42,1609059612650884352,0.012749550,-0.041658071,-0.060420541,-0.007832878,-0.020753807,-0.000139303,0.999753923,0.024956609,-0.006978680,-0.021010598,0.021711169,-0.003117083,-0.004643951,0.007001808,-0.003579402,-0.001870618,-0.007966370,0.003137392,-0.179917361
1609059612745012480,43,1609059612745012480,0.010027868,-0.041718598,-0.052986737,-0.007843859,-0.020854461,-0.000123356,0.999751744,0.020813263,-0.007437079,-0.010610297,0.019598767,-0.001005359,-0.006582765,0.007001807,-0.003579353,-0.001870617,-0.008093996,0.003262239,-0.182168794
1609059612840616704,44,1609059612840616704,0.010546254,-0.040205187,-0.049592945,-0.007930601,-0.020835681,-0.000100792,0.999751454,0.021894239,-0.006054684,-0.006570962,0.013570466,-0.000691564,-0.007096749,0.007001828,-0.003579365,-0.001870616,-0.008153652,0.003321175,-0.183206004
1609059612950987520,45,1609059612950987520,0.010992319,-0.041076387,-0.052313729,-0.007812312,-0.020845949,-0.000119983,0.999752169,0.022084524,-0.005948459,-0.007356222,0.020991474,-0.001701622,-0.004994972,0.007001820,-0.003579355,-0.001870614,-0.008125539,0.003293137,-0.182724040
1609059613044886272,46,1609059613044886272,0.008485085,-0.040444144,-0.053544911,-0.007862681,-0.020938632,-0.000114220,0.999749838,0.017937315,-0.005032584,-0.008126551,0.017678384,-0.001391358,-0.006751388,0.007001836,-0.003579308,-0.001870614,-0.008118447,0.003286054,-0.182603533
1609059613140023040,47,1609059613140023040,0.013598958,-0.041760211,-0.050530976,-0.007801009,-0.020741644,-0.000103245,0.999754429,0.025532755,-0.007173229,-0.003901184,0.016192447,-0.000875328,-0.007581978,0.007001810,-0.003579410,-0.001870614,-0.008169206,0.003337178,-0.183451229
1609059613251049216,48,1609059613251049216,0.011059870,-0.043813378,-0.055314848,-0.007700987,-0.020797403,-0.000134525,0.999754042,0.021781796,-0.009794201,-0.007859650,0.021200495,-0.006066449,-0.006614974,0.007001795,-0.003579374,-0.001870615,-0.008110979,0.003278158,-0.182487558
1609059613345152256,49,1609059613345152256,0.009865458,-0.044486384,-0.055267896,-0.007679469,-0.020869330,-0.000122219,0.999752710,0.020228880,-0.010265438,-0.007273688,0.020470291,-0.002070095,-0.006808157,0.007001796,-0.003579337,-0.001870614,-0.008122171,0.003289544,-0.182670869
1609059613439872512,50,1609059613439872512,0.011727163,-0.045177898,-0.055951441,-0.007705162,-0.020871309,-0.000105792,0.999752473,0.022592119,-0.010822526,-0.007819940,0.015766885,-0.001594289,-0.008067087,0.007001799,-0.003579334,-0.001870614,-0.008122614,0.003290001,-0.182677947
1609059613550514688,51,1609059613550514688,0.013313308,-0.046207130,-0.058439056,-0.007618070,-0.020836856,-0.000132647,0.999753856,0.024018743,-0.011555706,-0.008391501,0.024343662,-0.003784790,-0.005161170,0.007001793,-0.003579355,-0.001870610,-0.008100632,0.003267702,-0.182325035
1609059613645120512,52,1609059613645120512,0.013981322,-0.043852901,-0.057434219,-0.007742107,-0.020795452,-0.000114962,0.999753768,0.024939630,-0.009076950,-0.006367422,0.018626684,-0.003149279,-0.007516002,0.007001843,-0.003579381,-0.001870610,-0.008123606,0.003290964,-0.182690959
1609059613739439360,53,1609059613739439360,0.011755963,-0.042551752,-0.057036713,-0.007790602,-0.020882319,-0.000110252,0.999751581,0.021087889,-0.007172538,-0.005176783,0.013559734,-0.002969599,-0.009330045,0.007001868,-0.003579338,-0.001870609,-0.008135614,0.003303140,-0.182880824
1609059613850419456,54,1609059613850419456,0.011792362,-0.042823997,-0.059039839,-0.007729678,-0.020924066,-0.000149834,0.999751176,0.020815618,-0.007387391,-0.006030002,0.020336626,-0.003623258,-0.006545261,0.007001870,-0.003579317,-0.001870608,-0.008117149,0.003284466,-0.182591006
1609059613944536832,55,1609059613944536832,0.011533611,-0.043508402,-0.057751150,-0.007782217,-0.020922432,-0.000141703,0.999750803,0.020227650,-0.009519711,-0.004687516,0.019527748,-0.001078587,-0.007490079,0.007001863,-0.003579303,-0.001870608,-0.008140854,0.003308425,-0.182960083
1609059614039515648,56,1609059614039515648,0.012505064,-0.042716560,-0.056133398,-0.007834979,-0.020909284,-0.000124825,0.999750669,0.021636231,-0.008004318,-0.003623108,0.016023198,0.001516602,-0.008094101,0.007001875,-0.003579317,-0.001870608,-0.008166403,0.003334186,-0.183354695
1609059614150661376,57,1609059614150661376,0.012991326,-0.043998179,-0.053912507,-0.007760396,-0.020886214,-0.000160058,0.999751728,0.022322834,-0.008841763,-0.000539910,0.020673072,-0.003283020,-0.006054716,0.007001868,-0.003579322,-0.001870608,-0.008198328,0.003366304,-0.183844584
1609059614244650240,58,1609059614244650240,0.009872701,-0.042468280,-0.052803837,-0.007863743,-0.020986994,-0.000133491,0.999748813,0.018254091,-0.007034065,-0.000012310,0.017129784,-0.001636518,-0.007391702,0.007001896,-0.003579272,-0.001870606,-0.008212990,0.003381032,-0.184068125
1609059614341736704,59,1609059614341736704,0.010854706,-0.041168569,-0.051315427,-0.007888463,-0.020954606,-0.000137932,0.999749297,0.019330556,-0.005462388,0.001489593,0.014981264,-0.000026555,-0.007277101,0.007001917,-0.003579283,-0.001870607,-0.008230210,0.003398269,-0.184328654
1609059614451108608,60,1609059614451108608,0.011031903,-0.041276212,-0.053565128,-0.007818769,-0.020946149,-0.000156454,0.999750019,0.019602377,-0.005105947,0.000079264,0.021940880,-0.006475011,-0.005977376,0.007001918,-0.003579296,-0.001870609,-0.008200910,0.003369006,-0.183888445
1609059614545197312,61,1609059614545197312,0.009667177,-0.040443118,-0.053795040,-0.007847478,-0.020945903,-0.000159513,0.999749799,0.017981842,-0.004754094,-0.001023786,0.019901874,-0.003086060,-0.007142872,0.007001936,-0.003579291,-0.001870610,-0.008198988,0.003367087,-0.183859729
1609059614639674368,62,1609059614639674368,0.011038299,-0.040931337,-0.057096862,-0.007879877,-0.020869761,-0.000117645,0.999751142,0.020390335,-0.006232470,-0.005602818,0.012285070,-0.002110373,-0.009572993,0.007001933,-0.003579334,-0.001870611,-0.008161616,0.003329967,-0.183304447
1609059614750735616,63,1609059614750735616,0.009549604,-0.043063294,-0.056693767,-0.007772983,-0.020887013,-0.000145550,0.999751615,0.018309869,-0.008597586,-0.004711121,0.021153329,-0.001985130,-0.006333143,0.007001915,-0.003579321,-0.001870612,-0.008173353,0.003341629,-0.183478417
1609059614845012736,64,1609059614845012736,0.011565210,-0.043123815,-0.056153328,-0.007830279,-0.020860607,-0.000115892,0.999751723,0.020754412,-0.008897268,-0.003533519,0.016836463,-0.003582345,-0.006845712,0.007001923,-0.003579345,-0.001870612,-0.008184479,0.003352659,-0.183642814
1609059614939806720,65,1609059614939806720,0.010986412,-0.042931887,-0.053067283,-0.007839820,-0.020884216,-0.000101519,0.999751157,0.019861759,-0.008663929,-0.000268519,0.015593180,-0.000673475,-0.007612386,0.007001928,-0.003579335,-0.001870611,-0.008223301,0.003391089,-0.184215371
1609059615050611968,66,1609059615050611968,0.011383650,-0.041306796,-0.051962272,-0.007814868,-0.020922766,-0.000124769,0.999750544,0.019904240,-0.005074336,0.001989417,0.019683888,-0.006188425,-0.007534464,0.007001961,-0.003579325,-0.001870611,-0.008235110,0.003402739,-0.184389233
1609059615144959488,67,1609059615144959488,0.008119156,-0.042764694,-0.053322296,-0.007810350,-0.020976535,-0.000100189,0.999749455,0.015250181,-0.006430420,-0.000563605,0.018433377,-0.002410297,-0.006585520,0.007001947,-0.003579293,-0.001870613,-0.008218751,0.003386624,-0.184149151
1609059615239545088,68,1609059615239545088,0.009647479,-0.042350279,-0.051083866,-0.007806732,-0.020923273,-0.000096952,0.999750600,0.017834846,-0.005843941,0.002818913,0.016109772,-0.002646884,-0.007627096,0.007001948,-0.003579325,-0.001870612,-0.008242871,0.003410244,-0.184501673
1609059615350768896,69,1609059615350768896,0.008962715,-0.041501235,-0.054054262,-0.007795143,-0.020907731,-0.000115597,0.999751014,0.017401278,-0.004355848,-0.000612009,0.020404270,-0.005633349,-0.005845241,0.007001966,-0.003579333,-0.001870611,-0.008207311,0.003375572,-0.183983026
1609059615444312320,70,1609059615444312320,0.009268376,-0.042439693,-0.053870072,-0.007820533,-0.020874790,-0.000099206,0.999751505,0.018379348,-0.006947734,-0.001245722,0.016884524,-0.001147633,-0.008035928,0.007001940,-0.003579342,-0.001870610,-0.008210548,0.003378722,-0.184030170
1609059615539756800,71,1609059615539756800,0.008777469,-0.042581659,-0.054992855,-0.007817894,-0.020857861,-0.000099985,0.999751879,0.018274675,-0.007198397,-0.002618302,0.016487433,0.001049024,-0.008721719,0.007001948,-0.003579353,-0.001870609,-0.008199696,0.003368185,-0.183872131
1609059615651205120,72,1609059615651205120,0.008648600,-0.043243094,-0.054928018,-0.007717864,-0.020840952,-0.000125732,0.999753006,0.018658093,-0.008242331,-0.001281720,0.022715472,-0.003632292,-0.006516528,0.007001947,-0.003579360,-0.001870609,-0.008202803,0.003371188,-0.183917495
1609059615744613632,73,1609059615744613632,0.009758982,-0.043328984,-0.057252617,-0.007753974,-0.020765937,-0.000109761,0.999754290,0.020910932,-0.008451561,-0.004259270,0.018122097,-0.002784973,-0.008010390,0.007001958,-0.003579395,-0.001870609,-0.008180961,0.003350113,-0.183598634
1609059615840117504,74,1609059615840117504,0.010565321,-0.042807826,-0.056189003,-0.007797123,-0.020745188,-0.000095974,0.999754386,0.021944352,-0.007940573,-0.003113220,0.015374115,-0.000042310,-0.007720164,0.007001975,-0.003579409,-0.001870608,-0.008195849,0.003364451,-0.183816830
1609059615950735872,75,1609059615950735872,0.009261935,-0.042124407,-0.054320654,-0.007754776,-0.020827867,-0.000108429,0.999752995,0.019553584,-0.005972917,0.000570925,0.022002304,-0.004580381,-0.005029808,0.007001991,-0.003579374,-0.001870608,-0.008216624,0.003384481,-0.184123028
1609059616044845568,76,1609059616044845568,0.009589725,-0.044531404,-0.051320719,-0.007730699,-0.020819722,-0.000076279,0.999753354,0.019536729,-0.009689349,0.003095278,0.020867057,-0.003672478,-0.005528671,0.007001958,-0.003579372,-0.001870607,-0.008246072,0.003412874,-0.184557830
1609059616139888128,77,1609059616139888128,0.011552787,-0.043267161,-0.051186338,-0.007804734,-0.020757460,-0.000056415,0.999754075,0.022843446,-0.007580093,0.003149294,0.015499949,0.000013079,-0.007989038,0.007001986,-0.003579416,-0.001870605,-0.008244328,0.003411195,-0.184532079
1609059616250955008,78,1609059616250955008,0.014166755,-0.043324677,-0.053377059,-0.007701304,-0.020668015,-0.000106924,0.999756726,0.026168424,-0.006375944,0.000941372,0.020762552,-0.007467554,-0.004877710,0.007001988,-0.003579463,-0.001870601,-0.008220256,0.003388043,-0.184173908
1609059616344603904,79,1609059616344603904,0.016589067,-0.043702782,-0.053363507,-0.007763810,-0.020675228,-0.000077417,0.999756096,0.028927796,-0.008038432,0.000424287,0.018212134,-0.000844454,-0.008044885,0.007001990,-0.003579460,-0.001870601,-0.008220078,0.003387872,-0.184171248
1609059616439706624,80,1609059616439706624,0.015062332,-0.044036194,-0.058261229,-0.007775233,-0.020733854,-0.000086204,0.999754793,0.025565891,-0.008434769,-0.004539663,0.017401710,-0.001761044,-0.007728935,0.007002007,-0.003579436,-0.001870601,-0.008175097,0.003344377,-0.183491894
1609059616550727680,81,1609059616550727680,0.012302493,-0.044326218,-0.059129239,-0.007748071,-0.020825563,-0.000117143,0.999753094,0.020868561,-0.008491355,-0.003841133,0.021400385,-0.006513744,-0.006803290,0.007002025,-0.003579390,-0.001870601,-0.008171018,0.003340426,-0.183429962
1609059616644537600,82,1609059616644537600,0.010470418,-0.045761080,-0.057557553,-0.007752871,-0.020858442,-0.000106114,0.999752373,0.018457596,-0.010673409,-0.002870351,0.016960397,-0.002518913,-0.007549809,0.007002016,-0.003579372,-0.001870603,-0.008188571,0.003357368,-0.183697180
1609059616740008192,83,1609059616740008192,0.008341676,-0.045253456,-0.055419884,-0.007789307,-0.020894716,-0.000085403,0.999751334,0.015939600,-0.009778221,-0.000044571,0.013293974,0.000443815,-0.007680471,0.007002031,-0.003579365,-0.001870602,-0.008208929,0.003376924,-0.184007135
1609059616850827776,84,1609059616850827776,0.007966935,-0.042743958,-0.054296076,-0.007793344,-0.020917701,-0.000132157,0.999750817,0.015536981,-0.004677542,0.001680931,0.019419836,-0.004413463,-0.005073443,0.007002084,-0.003579349,-0.001870598,-0.008218226,0.003385800,-0.184148603
1609059616944585728,85,1609059616944585728,0.009146569,-0.043077045,-0.055423436,-0.007835904,-0.020796292,-0.000114613,0.999753019,0.018338009,-0.006143630,-0.000084993,0.016001033,-0.000850660,-0.006963097,0.007002080,-0.003579403,-0.001870595,-0.008207782,0.003375849,-0.183989977
1609059617039831552,86,1609059617039831552,0.008871249,-0.042944587,-0.055700776,-0.007855087,-0.020830454,-0.000079914,0.999752161,0.018072102,-0.006046106,-0.000526474,0.014242774,-0.001613669,-0.007280987,0.007002089,-0.003579391,-0.001870594,-0.008205157,0.003373343,-0.183949997
1609059617152528896,87,1609059617152528896,0.010077473,-0.042625909,-0.055437454,-0.007777097,-0.020766132,-0.000109181,0.999754106,0.020829555,-0.004779507,0.001010607,0.020415785,-0.001717786,-0.004692837,0.007002105,-0.003579421,-0.001870594,-0.008207113,0.003375208,-0.183979890
1609059617244947456,88,1609059617244947456,0.007840547,-0.042482820,-0.050298794,-0.007814831,-0.020792525,-0.000086188,0.999753266,0.018477051,-0.005694896,0.005980808,0.017134450,-0.001770196,-0.006911892,0.007002106,-0.003579407,-0.001870594,-0.008248309,0.003414564,-0.184611496
1609059617340040448,89,1609059617340040448,0.009609723,-0.042722820,-0.052890965,-0.007840175,-0.020726659,-0.000076211,0.999754436,0.021641275,-0.005979989,0.002969455,0.015985008,-0.002310975,-0.008042911,0.007002107,-0.003579449,-0.001870592,-0.008222361,0.003389760,-0.184212611
1609059617451854336,90,1609059617451854336,0.010536057,-0.041139137,-0.053215985,-0.007834381,-0.020688276,-0.000099094,0.999755274,0.023502318,-0.004057015,0.002727321,0.020687774,-0.005795240,-0.005387245,0.007002133,-0.003579471,-0.001870591,-0.008217244,0.003384838,-0.184133459
1609059617544720896,91,1609059617544720896,0.010288472,-0.042198831,-0.051032895,-0.007795831,-0.020675481,-0.000077254,0.999755842,0.023102685,-0.005535426,0.005047386,0.020845518,-0.005137730,-0.007402649,0.007002118,-0.003579480,-0.001870591,-0.008232332,0.003399450,-0.184368567
1609059617640109312,92,1609059617640109312,0.013988684,-0.040839223,-0.054352287,-0.007845911,-0.020546425,-0.000047011,0.999758113,0.028465582,-0.004186794,-0.000247107,0.015495883,-0.001661388,-0.009049330,0.007002136,-0.003579548,-0.001870590,-0.008203926,0.003371805,-0.183922536
1609059617751121408,93,1609059617751121408,0.013527308,-0.042137818,-0.056234540,-0.007705976,-0.020577166,-0.000105569,0.999758564,0.027021210,-0.005068516,-0.000971290,0.021722514,-0.003251034,-0.006011399,0.007002129,-0.003579530,-0.001870588,-0.008189586,0.003357662,-0.183693810
1609059617844768000,94,1609059617844768000,0.012087587,-0.041781640,-0.060370499,-0.007768555,-0.020650528,-0.000104799,0.999756568,0.024575849,-0.005112272,-0.005281992,0.018256348,-0.003324478,-0.006330499,0.007002138,-0.003579483,-0.001870587,-0.008160492,0.003328754,-0.183224115
1609059617940230144,95,1609059617940230144,0.009848644,-0.040670239,-0.058959813,-0.007813076,-0.020746949,-0.000096731,0.999754225,0.020837207,-0.004233913,-0.003026757,0.014403643,-0.001734713,-0.008498161,0.007002160,-0.003579430,-0.001870586,-0.008173811,0.003342045,-0.183440980
1609059618051217408,96,1609059618051217408,0.008548792,-0.041878626,-0.058354827,-0.007673177,-0.020812585,-0.000110654,0.999753943,0.018467436,-0.005287924,-0.000511730,0.021073159,-0.007777024,-0.004275658,0.007002146,-0.003579397,-0.001870584,-0.008179548,0.003347772,-0.183534713
1609059618145310464,97,1609059618145310464,0.011036325,-0.043086462,-0.058133458,-0.007689705,-0.020691153,-0.000088394,0.999756339,0.023093629,-0.007657591,-0.001206718,0.018578123,-0.001654703,-0.006611166,0.007002132,-0.003579457,-0.001870584,-0.008182111,0.003350315,-0.183576551
1609059618241776384,98,1609059618241776384,0.012175169,-0.044876533,-0.059154486,-0.007714862,-0.020626777,-0.000053583,0.999757478,0.024990132,-0.010301772,-0.002537422,0.013318386,-0.001677541,-0.007801914,0.007002132,-0.003579488,-0.001870582,-0.008176092,0.003344350,-0.183477739
1609059618351482112,99,1609059618351482112,0.012718057,-0.044218069,-0.059626395,-0.007661722,-0.020633484,-0.000100467,0.999757744,0.024996531,-0.008240272,-0.001687418,0.021451579,-0.005629816,-0.004795755,0.007002163,-0.003579492,-0.001870580,-0.008174479,0.003342749,-0.183450977
1609059618445366272,100,1609059618445366272,0.011196707,-0.042690210,-0.057006770,-0.007758465,-0.020677462,-0.000087847,0.999756091,0.023077164,-0.006823247,0.000988523,0.018569164,-0.005920761,-0.007238377,0.007002198,-0.003579475,-0.001870580,-0.008192953,0.003361128,-0.183759895
1609059618540445440,101,1609059618540445440,0.008481522,-0.043658255,-0.057673186,-0.007754985,-0.020727825,-0.000073881,0.999755076,0.019740656,-0.008488453,0.000681317,0.015002625,-0.001747871,-0.008344594,0.007002197,-0.003579444,-0.001870578,-0.008187756,0.003355946,-0.183672580
1609059618651310336,102,1609059618651310336,0.010443600,-0.042730151,-0.054852740,-0.007753295,-0.020704965,-0.000093888,0.999755561,0.023033911,-0.007968011,0.003925560,0.021420421,-0.004978500,-0.005650807,0.007002214,-0.003579455,-0.001870577,-0.008205467,0.003373609,-0.183971052
1609059618745106944,103,1609059618745106944,0.007320076,-0.042506428,-0.051601753,-0.007767255,-0.020818550,-0.000097429,0.999753094,0.018522994,-0.007810706,0.007095860,0.019443192,-0.003116804,-0.006091379,0.007002222,-0.003579400,-0.001870576,-0.008223601,0.003391719,-0.184277640
1609059618840212736,104,1609059618840212736,0.006233706,-0.042728700,-0.053644541,-0.007820789,-0.020803397,-0.000087644,0.999752993,0.017320284,-0.008442001,0.004297245,0.015315380,-0.003015750,-0.008637622,0.007002236,-0.003579405,-0.001870575,-0.008206538,0.003374750,-0.183989955
1609059618951279872,105,1609059618951279872,0.006982074,-0.042689119,-0.052136101,-0.007755273,-0.020772286,-0.000128036,0.999754146,0.019049560,-0.007212195,0.006671801,0.020734422,-0.001446509,-0.006237033,0.007002252,-0.003579415,-0.001870575,-0.008212422,0.003380586,-0.184088955
1609059619046012416,106,1609059619046012416,0.005697164,-0.043074838,-0.050304374,-0.007758162,-0.020818651,-0.000125441,0.999753159,0.017877687,-0.008343419,0.008208520,0.018190660,-0.003669394,-0.006458628,0.007002248,-0.003579388,-0.001870576,-0.008220086,0.003388176,-0.184217837
1609059619140285184,107,1609059619140285184,0.003848209,-0.043860939,-0.056730468,-0.007732024,-0.020876212,-0.000102895,0.999752164,0.015531713,-0.009851235,0.000373851,0.015157299,-0.003345931,-0.006515907,0.007002238,-0.003579360,-0.001870577,-0.008175551,0.003344348,-0.183471620
1609059619252960000,108,1609059619252960000,0.004385502,-0.044315892,-0.060018048,-0.007672857,-0.020863414,-0.000129590,0.999752884,0.016629782,-0.009962300,-0.002160644,0.021948189,-0.005872936,-0.005328600,0.007002241,-0.003579368,-0.001870577,-0.008154967,0.003324304,-0.183129203
1609059619347090432,109,1609059619347090432,0.005553191,-0.044399103,-0.062044074,-0.007734012,-0.020837107,-0.000122938,0.999752962,0.018871143,-0.010409647,-0.004504693,0.018140320,-0.005446468,-0.005580904,0.007002245,-0.003579384,-0.001870577,-0.008144401,0.003314106,-0.182954426
1609059619440509952,110,1609059619440509952,0.008658593,-0.043124874,-0.057674304,-0.007810768,-0.020758823,-0.000099867,0.999753996,0.023617734,-0.008396606,0.000906336,0.015557451,-0.002481465,-0.008535089,0.007002271,-0.003579426,-0.001870577,-0.008173514,0.003341997,-0.183434018
1609059619554473728,111,1609059619554473728,0.011122574,-0.044631333,-0.054886954,-0.007636023,-0.020741869,-0.000138917,0.999755694,0.026284211,-0.009713579,0.005344758,0.021327857,-0.008851610,-0.003114665,0.007002246,-0.003579445,-0.001870578,-0.008189196,0.003357035,-0.183692562
1609059619649059584,112,1609059619649059584,0.006857326,-0.043239180,-0.052364789,-0.007724631,-0.020852386,-0.000131821,0.999752715,0.019741532,-0.007931303,0.007397209,0.020838918,-0.007200020,-0.005929425,0.007002278,-0.003579396,-0.001870577,-0.008201687,0.003368976,-0.183898779
1609059619743404032,113,1609059619743404032,0.009238718,-0.042354549,-0.050155606,-0.007780734,-0.020761442,-0.000102129,0.999754176,0.023467376,-0.007044383,0.009612884,0.016474668,-0.001995324,-0.007684323,0.007002296,-0.003579454,-0.001870578,-0.008210591,0.003377418,-0.184044934
1609059619854454272,114,1609059619854454272,0.010755631,-0.043112852,-0.050279775,-0.007710054,-0.020729399,-0.000127650,0.999755385,0.025076070,-0.007617212,0.009897355,0.022438483,-0.006913924,-0.005255638,0.007002291,-0.003579472,-0.001870577,-0.008203727,0.003370898,-0.183932190
1609059619948391936,115,1609059619948391936,0.008870329,-0.043897481,-0.055361426,-0.007724957,-0.020763402,-0.000116808,0.999754566,0.022239524,-0.009176375,0.001904045,0.019561205,0.000135792,-0.006341828,0.007002292,-0.003579456,-0.001870577,-0.008169267,0.003338148,-0.183365108
1609059620041976320,116,1609059620041976320,0.006247343,-0.043612645,-0.056641338,-0.007752316,-0.020826086,-0.000102461,0.999753052,0.019084659,-0.009284786,-0.000111278,0.016264604,-0.002511526,-0.006786909,0.007002310,-0.003579425,-0.001870578,-0.008160794,0.003330119,-0.183225659
1609059620154183168,117,1609059620154183168,0.008884815,-0.046617289,-0.057356763,-0.007589934,-0.020783276,-0.000124046,0.999755187,0.023116262,-0.012554128,0.000126023,0.022885779,-0.005999369,-0.005375698,0.007002271,-0.003579452,-0.001870575,-0.008156641,0.003326208,-0.183157623
1609059620248071936,118,1609059620248071936,0.011046840,-0.045740226,-0.057122108,-0.007706739,-0.020691609,-0.000104541,0.999756197,0.026185304,-0.011819420,-0.000559839,0.018338332,0.001665787,-0.008551846,0.007002297,-0.003579494,-0.001870575,-0.008158402,0.003327854,-0.183186459
1609059620341902592,119,1609059620341902592,0.008160218,-0.043802792,-0.054008210,-0.007795877,-0.020783976,-0.000082397,0.999753592,0.021589115,-0.008982198,0.002798214,0.015318081,0.000533101,-0.008759162,0.007002334,-0.003579445,-0.001870575,-0.008176299,0.003344594,-0.183480843
1609059620454445824,120,1609059620454445824,0.006964110,-0.044252657,-0.058779042,-0.007716395,-0.020820984,-0.000116067,0.999753435,0.019745192,-0.008682625,-0.001123718,0.022130661,-0.008596773,-0.004334685,0.007002344,-0.003579430,-0.001870575,-0.008147143,0.003317315,-0.183001892
1609059620548113664,121,1609059620548113664,0.005021236,-0.043588084,-0.060090434,-0.007796130,-0.020862555,-0.000118623,0.999751949,0.017371144,-0.008027923,-0.003578164,0.020008251,-0.005993445,-0.006831838,0.007002370,-0.003579414,-0.001870575,-0.008141053,0.003311626,-0.182902170
1609059620642411520,122,1609059620642411520,0.007098596,-0.043656708,-0.058152647,-0.007796536,-0.020833182,-0.000099757,0.999752561,0.020588445,-0.007200153,-0.001156597,0.018395726,-0.003472967,-0.005888296,0.007002372,-0.003579438,-0.001870572,-0.008153968,0.003323648,-0.183112302
1609059620755493376,123,1609059620755493376,0.010029236,-0.044889195,-0.057597944,-0.007724377,-0.020754572,-0.000124400,0.999754753,0.024857844,-0.007942006,-0.000303576,0.020491440,-0.004473596,-0.004661870,0.007002361,-0.003579482,-0.001870571,-0.008158021,0.003327420,-0.183177962
1609059620848266752,124,1609059620848266752,0.011991752,-0.044414663,-0.052666833,-0.007782853,-0.020654428,-0.000125338,0.999756373,0.027696479,-0.007893648,0.005298866,0.021686776,-0.001967824,-0.007491186,0.007002380,-0.003579524,-0.001870572,-0.008185745,0.003353282,-0.183627799
1609059620942099200,125,1609059620942099200,0.011000604,-0.045035341,-0.056918891,-0.007766879,-0.020675772,-0.000119278,0.999756057,0.026054714,-0.008508427,-0.000187470,0.017178085,-0.001656199,-0.007673032,0.007002380,-0.003579513,-0.001870573,-0.008159800,0.003328856,-0.183203326
1609059621054895360,126,1609059621054895360,0.010693228,-0.045413887,-0.057462841,-0.007717421,-0.020685104,-0.000137938,0.999756245,0.025407547,-0.008653599,0.000510922,0.022257030,-0.003845952,-0.004512696,0.007002386,-0.003579506,-0.001870574,-0.008156563,0.003325784,-0.183149983
1609059621148100352,127,1609059621148100352,0.008934968,-0.044064480,-0.058882762,-0.007802160,-0.020760808,-0.000117834,0.999754020,0.022425247,-0.007212586,-0.002078745,0.019665645,-0.002438700,-0.007057701,0.007002410,-0.003579468,-0.001870576,-0.008149107,0.003318674,-0.183026522
1609059621241881344,128,1609059621241881344,0.009685435,-0.043082825,-0.060462887,-0.007861369,-0.020708919,-0.000106038,0.999754634,0.023478756,-0.006841653,-0.003857096,0.015959309,-0.003316773,-0.006998495,0.007002428,-0.003579491,-0.001870577,-0.008141786,0.003311663,-0.182905228
1609059621354220288,129,1609059621354220288,0.011501449,-0.043268202,-0.064449477,-0.007737890,-0.020657935,-0.000139335,0.999756648,0.026023056,-0.006583586,-0.006707173,0.022881493,-0.007067227,-0.005181532,0.007002427,-0.003579522,-0.001870577,-0.008123261,0.003293712,-0.182596829
1609059621449510400,130,1609059621449510400,0.011247423,-0.042048873,-0.065918262,-0.007818475,-0.020645410,-0.000117847,0.999756283,0.025462302,-0.004827913,-0.008074600,0.019932708,-0.006748813,-0.006188424,0.007002456,-0.003579526,-0.001870578,-0.008119387,0.003289922,-0.182531869
1609059621543064832,131,1609059621543064832,0.010031025,-0.042965101,-0.062693475,-0.007842672,-0.020685743,-0.000088954,0.999755262,0.023648251,-0.007183004,-0.004355624,0.017627396,-0.003471283,-0.007692986,0.007002451,-0.003579511,-0.001870578,-0.008139363,0.003309684,-0.182868970
1609059621641418240,132,1609059621641418240,0.008593141,-0.044152467,-0.063898773,-0.007828882,-0.020730170,-0.000074817,0.999754451,0.021707793,-0.008855369,-0.005216966,0.016186617,-0.001564307,-0.007614137,0.007002456,-0.003579499,-0.001870578,-0.008135329,0.003305665,-0.182800638
1609059621749258240,133,1609059621749258240,0.009769352,-0.043638813,-0.059802291,-0.007838086,-0.020723529,-0.000103026,0.999754514,0.022602977,-0.008055665,0.000319593,0.019969448,-0.003772033,-0.007364117,0.007002470,-0.003579500,-0.001870576,-0.008158360,0.003328765,-0.183191456
1609059621843134720,134,1609059621843134720,0.007100317,-0.045290025,-0.059416884,-0.007780221,-0.020815318,-0.000094772,0.999753060,0.018994194,-0.010601502,0.000576877,0.018264377,-0.003009181,-0.006897501,0.007002446,-0.003579448,-0.001870574,-0.008160287,0.003330711,-0.183224222
1609059621939890176,135,1609059621939890176,0.005571676,-0.043016171,-0.058825005,-0.007853251,-0.020886735,-0.000100731,0.999750999,0.016570420,-0.007206518,0.001435408,0.015697859,-0.003497644,-0.006683143,0.007002488,-0.003579418,-0.001870575,-0.008162830,0.003333265,-0.183267229
1609059622050305792,136,1609059622050305792,0.012222262,-0.044424116,-0.061019276,-0.007800001,-0.020648533,-0.000115780,0.999756363,0.026234954,-0.008763146,-0.000884571,0.019757006,-0.001877781,-0.006747773,0.007002474,-0.003579541,-0.001870572,-0.008151182,0.003321659,-0.183072612
1609059622143744256,137,1609059622143744256,0.013800046,-0.044586956,-0.064144778,-0.007873571,-0.020592535,-0.000086963,0.999756944,0.028324609,-0.009057111,-0.004789652,0.016167978,-0.002485187,-0.007574799,0.007002489,-0.003579577,-0.001870572,-0.008136471,0.003306871,-0.182825132
1609059622241899520,138,1609059622241899520,0.014494232,-0.042425471,-0.061713450,-0.007918874,-0.020645208,-0.000093391,0.999755499,0.028212727,-0.005186192,-0.001681524,0.016321346,-0.003147745,-0.007947472,0.007002526,-0.003579559,-0.001870570,-0.008150220,0.003320914,-0.183059185
1609059622349622784,139,1609059622349622784,0.014152696,-0.043089063,-0.058211926,-0.007833210,-0.020648704,-0.000101259,0.999756101,0.027079000,-0.006291397,0.003066529,0.019771887,-0.000493159,-0.006395931,0.007002507,-0.003579551,-0.001870569,-0.008167179,0.003338545,-0.183350358
1609059622443579904,140,1609059622443579904,0.012861505,-0.044968523,-0.057755761,-0.007769390,-0.020723355,-0.000100428,0.999755055,0.024529020,-0.009579407,0.002823454,0.019057233,-0.001661375,-0.006118311,0.007002493,-0.003579506,-0.001870567,-0.008167985,0.003339393,-0.183364302
1609059622540438784,141,1609059622540438784,0.011335224,-0.042239187,-0.056658892,-0.007863684,-0.020828546,-0.000085029,0.999752133,0.021541359,-0.005163477,0.003178444,0.014893730,-0.001143927,-0.007854302,0.007002540,-0.003579470,-0.001870566,-0.008171779,0.003343364,-0.183429891
1609059622649741568,142,1609059622649741568,0.010670726,-0.042970775,-0.056892226,-0.007811543,-0.020833234,-0.000092543,0.999752443,0.020853774,-0.006172913,0.003292391,0.019722641,-0.004379080,-0.006606964,0.007002537,-0.003579466,-0.001870565,-0.008169092,0.003340560,-0.183383839
1609059622743291392,143,1609059622743291392,0.010614140,-0.041788723,-0.060942925,-0.007874522,-0.020854777,-0.000060658,0.999751502,0.020595172,-0.004990221,-0.001706208,0.016392052,-0.000132227,-0.007272210,0.007002552,-0.003579457,-0.001870564,-0.008149092,0.003319787,-0.183043548
1609059622840158720,144,1609059622840158720,0.010323367,-0.042347824,-0.060710927,-0.007831428,-0.020841416,-0.000070535,0.999752119,0.020217757,-0.006093380,-0.000786167,0.016357044,-0.002405418,-0.007332637,0.007002545,-0.003579467,-0.001870561,-0.008150685,0.003321430,-0.183070375
1609059622949543168,145,1609059622949543168,0.012086649,-0.042913213,-0.058056196,-0.007737551,-0.020821864,-0.000096129,0.999753255,0.022142012,-0.006274735,0.003463644,0.022236591,-0.006917617,-0.006554691,0.007002538,-0.003579477,-0.001870560,-0.008163100,0.003334127,-0.183277707
1609059623043590400,146,1609059623043590400,0.012714009,-0.043453809,-0.060643816,-0.007782540,-0.020767477,-0.000065134,0.999754040,0.023284688,-0.007549638,-0.000531230,0.018490415,-0.002883607,-0.006069187,0.007002543,-0.003579507,-0.001870560,-0.008149889,0.003320731,-0.183058455
1609059623141092608,147,1609059623141092608,0.014269813,-0.043534971,-0.062812206,-0.007776887,-0.020713955,-0.000072524,0.999755193,0.025542462,-0.007154754,-0.003810239,0.016029017,0.000156162,-0.008963589,0.007002550,-0.003579542,-0.001870558,-0.008140400,0.003311157,-0.182901252
1609059623249552384,148,1609059623249552384,0.013633507,-0.045428373,-0.064460784,-0.007678099,-0.020739048,-0.000091045,0.999755435,0.024005360,-0.009107250,-0.004475849,0.021624712,-0.005988241,-0.006198180,0.007002536,-0.003579533,-0.001870556,-0.008134480,0.003305193,-0.182802880
1609059623343284224,149,1609059623343284224,0.010966563,-0.044980268,-0.064654040,-0.007723691,-0.020796180,-0.000072930,0.999753899,0.020760211,-0.008801838,-0.005143049,0.015205512,-0.002734068,-0.008018722,0.007002549,-0.003579505,-0.001870555,-0.008135755,0.003306467,-0.182824079
1609059623440180480,150,1609059623440180480,0.010316228,-0.042213918,-0.062990966,-0.007801228,-0.020776274,-0.000085974,0.999753710,0.020234354,-0.005323795,-0.002524009,0.014382049,-0.001023270,-0.008296370,0.007002596,-0.003579511,-0.001870553,-0.008145382,0.003315965,-0.182983591
1609059623549568768,151,1609059623549568768,0.011006252,-0.043144960,-0.057468440,-0.007630539,-0.020800706,-0.000121705,0.999754515,0.020904884,-0.004175171,0.006150291,0.019451648,-0.006814470,-0.006419545,0.007002580,-0.003579507,-0.001870552,-0.008170598,0.003340676,-0.183400449
1609059623643646208,152,1609059623643646208,0.011197594,-0.042294895,-0.056868250,-0.007687459,-0.020795448,-0.000094695,0.999754191,0.021532366,-0.004265663,0.005955499,0.017391797,-0.001426666,-0.008056430,0.007002590,-0.003579507,-0.001870551,-0.008170794,0.003340865,-0.183403674
1609059623741259776,153,1609059623741259776,0.011563437,-0.040961908,-0.054647097,-0.007728758,-0.020816968,-0.000111047,0.999753423,0.021947492,-0.003774315,0.008002998,0.016645018,-0.001269579,-0.007777491,0.007002613,-0.003579496,-0.001870549,-0.008177952,0.003347683,-0.183521153
1609059623850082560,154,1609059623850082560,0.008338110,-0.042470967,-0.051029742,-0.007629140,-0.020909949,-0.000143290,0.999752244,0.017688800,-0.006003437,0.011842332,0.020478092,-0.006143390,-0.006286529,0.007002592,-0.003579452,-0.001870547,-0.008189999,0.003359032,-0.183717795
1609059623944103168,155,1609059623944103168,0.009277332,-0.041596830,-0.052056774,-0.007702236,-0.020893694,-0.000109617,0.999752028,0.019315557,-0.006058949,0.009526730,0.016140357,-0.001703363,-0.007307012,0.007002610,-0.003579458,-0.001870547,-0.008180466,0.003350256,-0.183564033
1609059624040393728,156,1609059624040393728,0.010394084,-0.043881610,-0.055966384,-0.007661330,-0.020820604,-0.000093284,0.999753869,0.021447887,-0.010403982,0.003961932,0.016804697,-0.002388377,-0.007958021,0.007002588,-0.003579491,-0.001870549,-0.008158688,0.003330555,-0.183216127
1609059624150386944,157,1609059624150386944,0.008996993,-0.044257952,-0.055267480,-0.007596368,-0.020863308,-0.000133253,0.999753470,0.019317380,-0.010211291,0.004838543,0.021886844,-0.006079249,-0.005553338,0.007002601,-0.003579474,-0.001870546,-0.008159808,0.003331550,-0.183233936
1609059624243723520,158,1609059624243723520,0.011118346,-0.044371883,-0.056746198,-0.007674153,-0.020772296,-0.000079628,0.999754776,0.022558551,-0.010440197,0.002665110,0.014215879,-0.000200791,-0.006584226,0.007002613,-0.003579524,-0.001870547,-0.008151291,0.003324122,-0.183099476
1609059624342013184,159,1609059624342013184,0.008074894,-0.043897535,-0.054793063,-0.007684548,-0.020845042,-0.000081649,0.999753182,0.018394722,-0.010113847,0.004788696,0.016183870,-0.001456067,-0.009340598,0.007002636,-0.003579483,-0.001870548,-0.008158772,0.003330584,-0.183217687
1609059624451016192,160,1609059624451016192,0.011715294,-0.042884399,-0.057749729,-0.007649426,-0.020717902,-0.000091405,0.999756093,0.023369165,-0.007455604,0.001411095,0.019812390,-0.006026967,-0.006621607,0.007002654,-0.003579556,-0.001870549,-0.008143128,0.003317277,-0.182971888
1609059624541338624,161,1609059624541338624,0.009632865,-0.042166427,-0.059471072,-0.007722527,-0.020776205,-0.000067711,0.999754323,0.020495306,-0.006481223,-0.001275412,0.016461058,-0.001150403,-0.007857451,0.007002679,-0.003579533,-0.001870548,-0.008135067,0.003310430,-0.182844640
1609059624646738432,162,1609059624646738432,0.007791327,-0.041901330,-0.061066679,-0.007745980,-0.020807787,-0.000066036,0.999753485,0.017972425,-0.006303935,-0.002203435,0.020355711,-0.000808271,-0.006183946,0.007002695,-0.003579520,-0.001870548,-0.008128270,0.003304667,-0.182737308
1609059624749919744,163,1609059624749919744,0.007375503,-0.041732743,-0.062058240,-0.007732454,-0.020787062,-0.000066136,0.999754021,0.018073184,-0.005590438,-0.003560702,0.019561054,-0.005208729,-0.004235449,0.007002710,-0.003579532,-0.001870547,-0.008125182,0.003302051,-0.182688653
1609059624853057024,164,1609059624853057024,0.004564145,-0.042023069,-0.063119521,-0.007671873,-0.020834572,-0.000062978,0.999753499,0.014737305,-0.006306025,-0.004437333,0.021491589,-0.005717474,-0.003650996,0.007002710,-0.003579501,-0.001870546,-0.008122492,0.003299764,-0.182646207
1609059624955962112,165,1609059624955962112,0.007097689,-0.044677835,-0.061390761,-0.007596821,-0.020721351,-0.000065050,0.999756425,0.019324518,-0.009780890,-0.001722493,0.022020239,-0.004701743,-0.002759667,0.007002677,-0.003579555,-0.001870545,-0.008132142,0.003307937,-0.182797851
1609059625059198464,166,1609059625059198464,0.008291525,-0.044241712,-0.061249658,-0.007608473,-0.020693763,-0.000068790,0.999756908,0.021770768,-0.008228279,-0.002250564,0.021892317,-0.009877134,-0.003417722,0.007002706,-0.003579584,-0.001870543,-0.008134089,0.003309584,-0.182828631
1609059625162179328,167,1609059625162179328,0.010700131,-0.044471935,-0.060066869,-0.007558987,-0.020662442,-0.000084645,0.999757930,0.025514116,-0.007789343,-0.000133978,0.021282217,-0.007779833,-0.002070476,0.007002704,-0.003579602,-0.001870541,-0.008140282,0.003314845,-0.182927468
1609059625266400000,168,1609059625266400000,0.013450460,-0.045185120,-0.060718237,-0.007525239,-0.020677620,-0.000097367,0.999757869,0.028541495,-0.008441941,-0.001329935,0.019288562,-0.008352254,-0.000628868,0.007002706,-0.003579602,-0.001870541,-0.008138220,0.003313084,-0.182894129
1609059625368346880,169,1609059625368346880,0.014206227,-0.045668789,-0.057316030,-0.007509055,-0.020692950,-0.000098108,0.999757674,0.028664490,-0.008550526,0.003285547,0.018705450,-0.008930906,-0.000456523,0.007002707,-0.003579596,-0.001870538,-0.008152729,0.003325529,-0.183131330
1609059625471310592,170,1609059625471310592,0.014864221,-0.042798211,-0.057038189,-0.007604660,-0.020725393,-0.000096623,0.999756279,0.028572553,-0.004911751,0.002451877,0.014640011,-0.005976728,0.000233168,0.007002753,-0.003579581,-0.001870536,-0.008152998,0.003325761,-0.183135785
1609059625542162944,171,1609059625542162944,0.011359577,-0.042468422,-0.057904636,-0.007804025,-0.020755930,-0.000094832,0.999754110,0.023254181,-0.006906991,0.000387818,0.018339720,-0.003622120,-0.009101725,0.007002782,-0.003579549,-0.001870535,-0.008149085,0.003322367,-0.183070838
1609059625644007424,172,1609059625644007424,0.010708465,-0.042881057,-0.058386300,-0.007767338,-0.020780524,-0.000106754,0.999753883,0.021471652,-0.007175480,-0.000159045,0.016419409,0.001598536,-0.009035726,0.007002772,-0.003579531,-0.001870531,-0.008146886,0.003320442,-0.183034274
1609059625749497088,173,1609059625749497088,0.010951743,-0.041426587,-0.056896328,-0.007763143,-0.020744856,-0.000116091,0.999754655,0.022135768,-0.005413517,0.002037940,0.021617401,-0.002453843,-0.005622223,0.007002804,-0.003579543,-0.001870533,-0.008152707,0.003325553,-0.183130992
1609059625850284032,174,1609059625850284032,0.012835047,-0.041903310,-0.059312282,-0.007737535,-0.020677090,-0.000113750,0.999756258,0.025196632,-0.006199654,-0.001369047,0.021290723,-0.003616803,-0.005775744,0.007002804,-0.003579577,-0.001870533,-0.008142639,0.003316632,-0.182963441
1609059625954215936,175,1609059625954215936,0.010066582,-0.043418077,-0.057038758,-0.007652169,-0.020790566,-0.000143817,0.999754558,0.020480724,-0.008297975,0.001520502,0.019709365,-0.004364937,-0.004738888,0.007002780,-0.003579520,-0.001870533,-0.008152097,0.003325137,-0.183122179
1609059626054726144,176,1609059626054726144,0.008718877,-0.044059928,-0.060280610,-0.007655934,-0.020831492,-0.000134011,0.999753678,0.018842625,-0.010046883,-0.002678798,0.021557808,-0.004723807,-0.004933503,0.007002780,-0.003579495,-0.001870535,-0.008139300,0.003313666,-0.182907901
1609059626158308608,177,1609059626158308608,0.010965863,-0.044068616,-0.059359230,-0.007629854,-0.020790928,-0.000157780,0.999754719,0.022199720,-0.009153773,0.000145257,0.021095628,-0.009755824,-0.004638105,0.007002789,-0.003579514,-0.001870534,-0.008143784,0.003317655,-0.182982483
1609059626261777664,178,1609059626261777664,0.011395966,-0.042455758,-0.060578366,-0.007674974,-0.020749132,-0.000157996,0.999755242,0.022288375,-0.006623851,-0.000621886,0.018508278,-0.007796040,-0.002399896,0.007002828,-0.003579534,-0.001870534,-0.008139284,0.003313654,-0.182907705
1609059626366475776,179,1609059626366475776,0.013767577,-0.043185954,-0.054037617,-0.007622572,-0.020716098,-0.000142419,0.999756330,0.025512133,-0.006738051,0.007036889,0.015990753,-0.005757986,0.000067806,0.007002815,-0.003579560,-0.001870532,-0.008164478,0.003336311,-0.183327694
1609059626468487168,180,1609059626468487168,0.012346325,-0.043657960,-0.054799236,-0.007650508,-0.020760756,-0.000148597,0.999755189,0.022932838,-0.007390375,0.005600645,0.017047120,-0.008185821,-0.001563310,0.007002819,-0.003579532,-0.001870532,-0.008159351,0.003331636,-0.183241566
1609059626571579648,181,1609059626571579648,0.012293119,-0.043296672,-0.058142980,-0.007670283,-0.020756984,-0.000137038,0.999755118,0.023324897,-0.006478716,0.000574877,0.015117776,-0.007688666,0.001079689,0.007002831,-0.003579534,-0.001870533,-0.008145379,0.003318741,-0.183006208
1609059626642094592,182,1609059626642094592,0.010467683,-0.043122726,-0.053687642,-0.007820551,-0.020740277,-0.000119667,0.999754303,0.020641194,-0.008629944,0.004494081,0.018018901,-0.002341254,-0.008522938,0.007002838,-0.003579520,-0.001870535,-0.008162044,0.003334293,-0.183287729
1609059626743574272,183,1609059626743574272,0.008346876,-0.040125094,-0.051708207,-0.007924180,-0.020816682,-0.000117999,0.999751899,0.017240946,-0.005199565,0.006536831,0.017424567,-0.002971018,-0.008645993,0.007002887,-0.003579479,-0.001870538,-0.008167524,0.003339467,-0.183380476
1609059626846412800,184,1609059626846412800,0.006388405,-0.040517716,-0.055585920,-0.007896481,-0.020841259,-0.000130917,0.999751604,0.015140734,-0.005655946,0.001710977,0.021074582,-0.002737554,-0.007649968,0.007002892,-0.003579466,-0.001870536,-0.008150828,0.003323488,-0.183099873
1609059626949452800,185,1609059626949452800,0.006433219,-0.040126147,-0.052965726,-0.007880254,-0.020846292,-0.000137436,0.999751627,0.015371530,-0.005216854,0.004324636,0.019979864,-0.002914784,-0.006609852,0.007002897,-0.003579465,-0.001870532,-0.008159993,0.003332323,-0.183252485
1609059627050997504,186,1609059627050997504,0.005985523,-0.040154421,-0.059037422,-0.007872263,-0.020854666,-0.000148969,0.999751513,0.015498070,-0.005262588,-0.003689710,0.017456019,-0.006092069,-0.007052550,0.007002897,-0.003579456,-0.001870532,-0.008136158,0.003309162,-0.182859071
1609059627154438144,187,1609059627154438144,0.005816943,-0.040334422,-0.057221001,-0.007807637,-0.020874496,-0.000141021,0.999751607,0.015597022,-0.004681377,-0.000392400,0.021538004,-0.005999940,-0.003032242,0.007002894,-0.003579453,-0.001870532,-0.008144345,0.003317165,-0.182992770
1609059627258007296,188,1609059627258007296,0.005395808,-0.045216767,-0.059583612,-0.007638737,-0.020864914,-0.000118362,0.999753115,0.015757884,-0.010957607,-0.002439098,0.022469273,-0.008910778,-0.003964780,0.007002836,-0.003579462,-0.001870535,-0.008135918,0.003308927,-0.182856766
1609059627361147904,189,1609059627361147904,0.008595099,-0.045179889,-0.060826412,-0.007648818,-0.020745110,-0.000115570,0.999755531,0.021240984,-0.010175844,-0.003429262,0.020608317,-0.008233333,-0.003035392,0.007002847,-0.003579524,-0.001870535,-0.008132592,0.003305710,-0.182803529
1609059627464278784,190,1609059627464278784,0.010925818,-0.046249394,-0.061293109,-0.007631851,-0.020748508,-0.000121691,0.999755590,0.024362147,-0.010717576,-0.002884246,0.017729411,-0.010811472,-0.001427450,0.007002847,-0.003579524,-0.001870535,-0.008132384,0.003305508,-0.182800196
1609059627567514368,191,1609059627567514368,0.009376277,-0.046625772,-0.061846969,-0.007650572,-0.020756856,-0.000114319,0.999755274,0.022177753,-0.010715438,-0.002649758,0.019488977,-0.010161440,-0.001061135,0.007002868,-0.003579519,-0.001870534,-0.008131854,0.003304990,-0.182791620
1609059627670237440,192,1609059627670237440,0.007795717,-0.049147360,-0.065050582,-0.007606625,-0.020792616,-0.000108759,0.999754867,0.020459692,-0.012816846,-0.005888485,0.015481561,-0.008692375,0.001542875,0.007002862,-0.003579509,-0.001870536,-0.008121705,0.003295023,-0.182626614
1609059627740649984,193,1609059627740649984,0.009256921,-0.045319660,-0.063202506,-0.007956669,-0.020686789,-0.000071910,0.999754341,0.022940627,-0.009420391,-0.005372733,0.012222066,-0.001104769,-0.007102703,0.007002935,-0.003579554,-0.001870537,-0.008130302,0.003303461,-0.182766294
1609059627842521088,194,1609059627842521088,0.008249575,-0.044256562,-0.062910707,-0.008006127,-0.020703320,-0.000069726,0.999753604,0.021833049,-0.007435384,-0.005076201,0.017207030,0.001173049,-0.008291804,0.007002960,-0.003579545,-0.001870538,-0.008133318,0.003306509,-0.182815810
1609059627946083072,195,1609059627946083072,0.006798557,-0.044856772,-0.062509829,-0.007968701,-0.020734991,-0.000081625,0.999753246,0.019186883,-0.007345996,-0.003713434,0.019703593,-0.002435657,-0.006200895,0.007002965,-0.003579532,-0.001870538,-0.008136478,0.003309796,-0.182868053
1609059628048667648,196,1609059628048667648,0.006350379,-0.043543329,-0.063866266,-0.007979854,-0.020727760,-0.000087174,0.999753307,0.019375462,-0.004554623,-0.003993659,0.021514280,-0.005037443,-0.005867884,0.007002990,-0.003579537,-0.001870538,-0.008132926,0.003306021,-0.182809144
1609059628151597824,197,1609059628151597824,0.007746532,-0.045069383,-0.062756421,-0.007892644,-0.020663553,-0.000085513,0.999755328,0.021478716,-0.006127864,-0.001846287,0.021623213,-0.002338610,-0.006084319,0.007002967,-0.003579574,-0.001870538,-0.008138256,0.003311821,-0.182897811
1609059628254879232,198,1609059628254879232,0.010408777,-0.043491826,-0.062034654,-0.007887612,-0.020643405,-0.000104768,0.999755782,0.025050712,-0.003784436,-0.000109813,0.022637898,-0.005529210,-0.003992096,0.007002986,-0.003579590,-0.001870535,-0.008141349,0.003315261,-0.182949847
1609059628358010624,199,1609059628358010624,0.010418853,-0.042960908,-0.059929563,-0.007836603,-0.020685135,-0.000112596,0.999755320,0.024862160,-0.003127954,0.002769188,0.023401216,-0.006074125,-0.003110201,0.007002991,-0.003579573,-0.001870535,-0.008148545,0.003323456,-0.183072525
1609059628461334272,200,1609059628461334272,0.011955536,-0.043301663,-0.059684651,-0.007786640,-0.020674792,-0.000118270,0.999755924,0.026752658,-0.003711210,0.002342688,0.021736136,-0.006234995,-0.003440665,0.007002984,-0.003579585,-0.001870530,-0.008148826,0.003323780,-0.183077348
1609059628564254976,201,1609059628564254976,0.010575341,-0.043746799,-0.060484198,-0.007770445,-0.020694585,-0.000130533,0.999755639,0.024867077,-0.003604981,0.001612085,0.018952921,-0.006012680,-0.001531071,0.007002997,-0.003579581,-0.001870530,-0.008145697,0.003320093,-0.183022986
1609059628667524864,202,1609059628667524864,0.008587419,-0.044835866,-0.059307571,-0.007694707,-0.020792943,-0.000133577,0.999754183,0.022175762,-0.005320523,0.003483400,0.019390620,-0.007597014,-0.000382574,0.007002984,-0.003579548,-0.001870531,-0.008149118,0.003324174,-0.183082831
1609059628770237184,203,1609059628770237184,0.011039623,-0.043833676,-0.059337976,-0.007709678,-0.020710679,-0.000126891,0.999755776,0.025669193,-0.003376967,0.003139879,0.017358178,-0.005645203,0.000126644,0.007003005,-0.003579591,-0.001870532,-0.008148193,0.003323073,-0.183066682
1609059628840472576,204,1609059628840472576,0.008971224,-0.044464149,-0.059039161,-0.007838264,-0.020752952,-0.000099803,0.999753903,0.022459604,-0.007038356,0.001364280,0.017151251,-0.002443958,-0.007462470,0.007002990,-0.003579551,-0.001870531,-0.008148760,0.003323754,-0.183076638
1609059628942599424,205,1609059628942599424,0.012808024,-0.043105142,-0.059488560,-0.007835947,-0.020674343,-0.000127216,0.999755547,0.027584459,-0.005422114,0.000861142,0.020339806,-0.002586455,-0.008650237,0.007003011,-0.003579586,-0.001870530,-0.008146708,0.003321313,-0.183040701
1609059629045954304,206,1609059629045954304,0.015161749,-0.043780733,-0.060519007,-0.007784213,-0.020688603,-0.000128683,0.999755656,0.030192611,-0.005851945,-0.000430950,0.020481013,-0.004474537,-0.006066930,0.007003006,-0.003579578,-0.001870529,-0.008143186,0.003317107,-0.182978526
1609059629148390912,207,1609059629148390912,0.016923752,-0.043925202,-0.059902577,-0.007729687,-0.020716106,-0.000123118,0.999755510,0.031233855,-0.006199689,0.000032716,0.020648059,-0.004580867,-0.005900027,0.007002998,-0.003579573,-0.001870530,-0.008145337,0.003319671,-0.183016710
1609059629251374080,208,1609059629251374080,0.013965222,-0.043451915,-0.058119382,-0.007722521,-0.020814342,-0.000146022,0.999753522,0.025826462,-0.005134225,0.002290876,0.021910276,-0.006310139,-0.006402404,0.007003021,-0.003579519,-0.001870529,-0.008150858,0.003326193,-0.183114956
