time,field.header.seq,field.header.stamp,field.pose.pose.position.x,field.pose.pose.position.y,field.pose.pose.position.z,field.pose.pose.orientation.x,field.pose.pose.orientation.y,field.pose.pose.orientation.z,field.pose.pose.orientation.w,field.twist.twist.linear.x,field.twist.twist.linear.y,field.twist.twist.linear.z,field.twist.twist.angular.x,field.twist.twist.angular.y,field.twist.twist.angular.z,gbx,gby,gbz,abx,aby,abz
1609060336871572992,0,1609060336871572992,0.000728859,-0.000337431,0.000099860,0.006261591,-0.037085211,0.000177545,0.999292474,0.013503423,0.001565336,0.002653239,0.024785075,-0.004027860,0.012432165,0.007025705,-0.003412901,-0.001976592,-0.015096592,-0.002468938,-0.175578268
1609060336974601984,1,1609060336974601984,0.003843903,-0.001293188,0.000591378,0.007560184,-0.035124731,0.000248611,0.999354309,0.035625664,-0.004929600,0.005499928,0.024256706,-0.007364984,0.013728120,0.007025702,-0.003412892,-0.001976592,-0.015417309,-0.002522396,-0.179580324
1609060337077686784,2,1609060337077686784,0.011858722,-0.002075417,0.003567868,0.007454552,-0.032273915,0.000044211,0.999451260,0.073882273,-0.004230273,0.021779960,0.026361614,-0.005933622,0.012952902,0.007025687,-0.003412891,-0.001976590,-0.017178479,-0.002842428,-0.202493062
1609060337149609472,3,1609060337149609472,0.025838212,-0.003164627,0.020569146,0.007455521,-0.028091807,-0.000207809,0.999577522,0.129600263,-0.010416821,0.102134099,0.008611734,-0.002540275,0.001296221,0.007025668,-0.003412897,-0.001976587,-0.024836652,-0.004301905,-0.305457936
1609060337249248768,4,1609060337249248768,0.043731286,-0.005558263,0.043107979,0.007458104,-0.026190936,-0.000220265,0.999629113,0.173941968,-0.018128182,0.163937528,0.003605970,-0.002560469,-0.002902952,0.007025699,-0.003412932,-0.001976588,-0.028844252,-0.005119325,-0.362244107
1609060337352544256,5,1609060337352544256,0.062194398,-0.007761031,0.073811772,0.007162841,-0.026019843,-0.000176865,0.999635749,0.203911781,-0.018749547,0.226172373,0.006881883,-0.000946146,0.000141874,0.007025749,-0.003412970,-0.001976591,-0.031861651,-0.005773019,-0.407175884
1609060337455909632,6,1609060337455909632,0.078905370,-0.007494347,0.113803873,0.006534348,-0.026557142,-0.000156534,0.999625928,0.220599531,-0.010748266,0.295438911,0.011716564,-0.002711436,0.004867349,0.007025813,-0.003413025,-0.001976592,-0.034558954,-0.006381295,-0.448932994
1609060337558484736,7,1609060337558484736,0.089938934,-0.005743693,0.153007135,0.005830301,-0.027476707,-0.000218622,0.999605417,0.222576246,-0.003900834,0.348466582,0.015673187,-0.004471190,0.007265354,0.007025885,-0.003413093,-0.001976594,-0.036023736,-0.006716245,-0.472211365
1609060337661578240,8,1609060337661578240,0.101196423,-0.003967876,0.232908711,0.005587812,-0.028630600,-0.000193656,0.999574423,0.222870066,0.004277835,0.476958409,0.016892351,-0.001188453,0.008825864,0.007025922,-0.003413125,-0.001976595,-0.040753157,-0.007794020,-0.548995623
1609060337764630528,9,1609060337764630528,0.122411300,-0.004889849,0.301323590,0.005697461,-0.028880866,-0.000200806,0.999566603,0.244584123,0.004284349,0.551463540,0.020353947,-0.001628963,0.009155172,0.007025928,-0.003413131,-0.001976594,-0.042331070,-0.008148682,-0.574959985
1609060337867722496,10,1609060337867722496,0.150953543,-0.004829057,0.364733239,0.005758634,-0.028877774,-0.000146200,0.999566351,0.275359207,0.006924887,0.598663736,0.023998663,-0.003514258,0.013660870,0.007025927,-0.003413130,-0.001976594,-0.042421595,-0.008168843,-0.576476914
1609060337970884352,11,1609060337970884352,0.159444681,-0.005006980,0.418876022,0.005787975,-0.030058532,-0.000142150,0.999531372,0.266050850,0.008760756,0.623566412,0.024905186,-0.004682522,0.012903896,0.007025954,-0.003413111,-0.001976594,-0.041756183,-0.008022672,-0.565280793
1609060338074067200,12,1609060338074067200,0.178997079,0.001136150,0.460696074,0.005550229,-0.030521158,-0.000137891,0.999518702,0.276785832,0.019645259,0.624628493,0.024610525,-0.005701159,0.013262085,0.007025972,-0.003413103,-0.001976591,-0.040341470,-0.007716675,-0.541326712
1609060338177569024,13,1609060338177569024,0.191871042,0.009752657,0.496249943,0.005290488,-0.031288323,-0.000143646,0.999496389,0.275292775,0.032403892,0.614901114,0.025174493,-0.007720700,0.013430748,0.007025998,-0.003413077,-0.001976587,-0.038777705,-0.007386456,-0.514760194
1609060338249769984,14,1609060338249769984,0.153806583,0.003890616,0.451329665,0.005465598,-0.033584577,-0.000255122,0.999420901,0.204027916,0.018290490,0.506307072,0.004221858,0.000132340,-0.002365238,0.007026047,-0.003412968,-0.001976591,-0.034531776,-0.006512391,-0.442499042
1609060338349504768,15,1609060338349504768,0.149401986,0.000145807,0.471333926,0.005670070,-0.034522148,-0.000241829,0.999387819,0.185266717,0.014741115,0.487722491,0.005669245,-0.002146814,0.000176174,0.007026064,-0.003412909,-0.001976594,-0.033076973,-0.006225291,-0.418100463
1609060338453515264,16,1609060338453515264,0.148804295,-0.005090825,0.481841794,0.005817817,-0.035087297,-0.000300159,0.999367272,0.175060195,0.007773400,0.461464266,0.006494339,-0.000774236,-0.000795277,0.007026067,-0.003412866,-0.001976596,-0.031642413,-0.005953855,-0.394431127
1609060338555536384,17,1609060338555536384,0.163136686,-0.005585123,0.483669999,0.005813681,-0.035227062,-0.000313951,0.999362375,0.184342156,0.009937323,0.423649474,0.008110973,-0.002073391,0.001069380,0.007026079,-0.003412849,-0.001976596,-0.029893466,-0.005637117,-0.366243138
1609060338660170496,18,1609060338660170496,0.162213955,-0.007613446,0.469832912,0.005902797,-0.035811877,-0.000261463,0.999341082,0.173276250,0.011416503,0.372061515,0.018310051,-0.002745454,0.007835677,0.007026108,-0.003412773,-0.001976600,-0.027861082,-0.005285285,-0.334247861
1609060338749192448,19,1609060338749192448,0.172962825,-0.005735805,0.492442969,0.005795370,-0.035937725,-0.000334392,0.999337171,0.180431641,0.010294482,0.374024610,0.006054488,-0.000420665,-0.003846260,0.007026117,-0.003412757,-0.001976600,-0.027560758,-0.005235985,-0.329629312
1609060338849263872,20,1609060338849263872,0.182536363,-0.005557976,0.484029381,0.005778328,-0.036203500,-0.000339287,0.999327675,0.182313483,0.011509999,0.334019530,0.004181798,-0.000384287,-0.003137846,0.007026142,-0.003412713,-0.001976598,-0.025991080,-0.004989371,-0.306207961
1609060338952213504,21,1609060338952213504,0.186980809,-0.004324377,0.469791671,0.005740931,-0.036540832,-0.000338173,0.999315613,0.177412300,0.013088008,0.290860073,0.007689546,-0.000026832,0.000429655,0.007026178,-0.003412650,-0.001976597,-0.024473342,-0.004764119,-0.284253814
1609060339058030848,22,1609060339058030848,0.206509148,-0.003130327,0.501594131,0.005755708,-0.036549280,-0.000325840,0.999315223,0.190085477,0.015130464,0.302951248,0.014531486,-0.006060591,0.006874892,0.007026177,-0.003412650,-0.001976597,-0.024487300,-0.004765937,-0.284445812
1609060339159605760,23,1609060339159605760,0.223554157,-0.002043635,0.528384340,0.005776875,-0.036592830,-0.000303867,0.999313514,0.200408931,0.016715434,0.311998368,0.016570562,-0.004422427,0.006033244,0.007026177,-0.003412641,-0.001976597,-0.024427826,-0.004758456,-0.283649692
1609060339262257408,24,1609060339262257408,0.243318604,-0.000715359,0.558761817,0.005853039,-0.036597378,-0.000243707,0.999312921,0.211792856,0.019901789,0.323374024,0.017225508,-0.001774290,0.008449510,0.007026175,-0.003412637,-0.001976597,-0.024402571,-0.004755492,-0.283323785
1609060339365221632,25,1609060339365221632,0.203533937,-0.000134482,0.515654263,0.005857134,-0.038115853,-0.000225215,0.999256136,0.148615225,0.020952935,0.250723811,0.018450357,-0.000080340,0.011173353,0.007026228,-0.003412178,-0.001976602,-0.022130961,-0.004492450,-0.254608955
1609060339469941248,26,1609060339469941248,0.199892216,-0.002850621,0.523034393,0.006066747,-0.038665855,-0.000153548,0.999233768,0.133769060,0.017738624,0.238291848,0.025301408,-0.006578589,0.011725559,0.007026207,-0.003411999,-0.001976599,-0.021498865,-0.004424328,-0.246991170
1609060339571170560,27,1609060339571170560,0.212915684,-0.001767751,0.545997338,0.006070077,-0.038693650,-0.000172805,0.999232668,0.141049082,0.018712234,0.245015552,0.024786903,-0.003368149,0.011831421,0.007026205,-0.003411994,-0.001976599,-0.021475699,-0.004422104,-0.246729714
1609060339674696704,28,1609060339674696704,0.208798034,-0.010507085,0.534406703,0.006385402,-0.039197123,-0.000109760,0.999211089,0.126022378,0.007061652,0.212987231,0.023267986,-0.007657209,0.012706162,0.007026129,-0.003411805,-0.001976594,-0.020347359,-0.004315764,-0.234407464
1609060339777890048,29,1609060339777890048,0.202304806,-0.002585947,0.532202393,0.006234715,-0.039665919,-0.000106711,0.999193541,0.109497933,0.018643073,0.194897343,0.025053058,-0.007198280,0.013190098,0.007026219,-0.003411627,-0.001976589,-0.019644913,-0.004251928,-0.227089825
1609060339849735168,30,1609060339849735168,0.188829177,0.001889847,0.526478879,0.005979464,-0.040224835,-0.000311589,0.999172714,0.086390310,0.020031622,0.176472276,0.005597204,-0.001126581,-0.003158890,0.007026259,-0.003411402,-0.001976583,-0.019005796,-0.004196784,-0.220711555
1609060339949380608,31,1609060339949380608,0.190178900,0.004527531,0.542141117,0.005954631,-0.040448713,-0.000331025,0.999163818,0.081900827,0.023612034,0.178052095,0.006852810,-0.002893782,0.000098019,0.007026265,-0.003411307,-0.001976579,-0.018911160,-0.004188893,-0.219805290
1609060340052584448,32,1609060340052584448,0.185032537,0.000074880,0.552336634,0.006131727,-0.040817684,-0.000315506,0.999147746,0.069653932,0.017256106,0.175632713,0.008409583,-0.003015898,0.001701247,0.007026199,-0.003411154,-0.001976582,-0.018682390,-0.004171313,-0.217741428
1609060340155597312,33,1609060340155597312,0.190595674,0.002636558,0.565903005,0.006122298,-0.040878080,-0.000339486,0.999145327,0.070953633,0.020118557,0.175187331,0.012307966,-0.003059480,0.004784975,0.007026202,-0.003411127,-0.001976573,-0.018515537,-0.004159063,-0.216317676
1609060340258954496,34,1609060340258954496,0.197618361,0.003991568,0.582959736,0.006172695,-0.040895384,-0.000314584,0.999144317,0.073991085,0.022421608,0.178169464,0.014243761,-0.006092328,0.005671753,0.007026191,-0.003411118,-0.001976572,-0.018471554,-0.004155931,-0.215959246
1609060340361977088,35,1609060340361977088,0.204776220,0.005625685,0.600644559,0.006183252,-0.040919227,-0.000329718,0.999143271,0.076789962,0.024434482,0.182431779,0.017634973,-0.006779900,0.009074980,0.007026184,-0.003411106,-0.001976571,-0.018437179,-0.004153554,-0.215691501
1609060340464877312,36,1609060340464877312,0.212779945,0.007630233,0.619831208,0.006235759,-0.040944066,-0.000289384,0.999141939,0.081000369,0.025860938,0.186688886,0.019367799,-0.000930764,0.010884484,0.007026180,-0.003411103,-0.001976571,-0.018443579,-0.004153946,-0.215736554
1609060340567844352,37,1609060340567844352,0.205116989,0.005349030,0.604386992,0.006399184,-0.041435388,-0.000295404,0.999120649,0.062402361,0.021273057,0.152858606,0.020703707,-0.002829156,0.012411689,0.007026113,-0.003410857,-0.001976560,-0.017123014,-0.004067748,-0.206358243
1609060340671374848,38,1609060340671374848,0.211624834,0.006924246,0.620338819,0.006488746,-0.041440278,-0.000222902,0.999119888,0.064548896,0.023217505,0.156582315,0.023805181,-0.002773462,0.013231780,0.007026107,-0.003410856,-0.001976560,-0.017124941,-0.004067856,-0.206369944
1609060340773963520,39,1609060340773963520,0.212135933,0.006930292,0.633217976,0.006648421,-0.041598484,-0.000131135,0.999112280,0.059573728,0.023522508,0.158406435,0.026235005,-0.006142310,0.014036165,0.007026084,-0.003410773,-0.001976556,-0.017050405,-0.004062988,-0.205882545
1609060340876789248,40,1609060340876789248,0.210553183,0.006083384,0.604079809,0.006718636,-0.041883618,-0.000166473,0.999099892,0.050528671,0.020672428,0.110905341,0.022905622,-0.007341553,0.013131231,0.007026051,-0.003410634,-0.001976543,-0.015233651,-0.003941750,-0.194413004
1609060340948875264,41,1609060340948875264,0.202506913,0.004158239,0.575284397,0.006698032,-0.042249601,-0.000342466,0.999084576,0.035462041,0.012634371,0.070341342,0.004022378,-0.000516275,-0.002658389,0.007025989,-0.003410445,-0.001976528,-0.013717957,-0.003839136,-0.185144201
1609060341048787712,42,1609060341048787712,0.198134600,0.003923537,0.576738632,0.006751133,-0.042471494,-0.000341823,0.999074811,0.025420172,0.009893691,0.065468407,0.002006162,-0.000488611,-0.004735137,0.007025970,-0.003410326,-0.001976523,-0.013485282,-0.003822762,-0.183766314
1609060341152105728,43,1609060341152105728,0.201008524,0.005047385,0.584221593,0.006728928,-0.042460984,-0.000350126,0.999075404,0.026382336,0.012071955,0.067480331,0.008925125,-0.001668603,0.003405424,0.007025969,-0.003410326,-0.001976523,-0.013496027,-0.003823527,-0.183825247
1609060341255239680,44,1609060341255239680,0.195214154,0.002877611,0.582705304,0.006825533,-0.042723218,-0.000355678,0.999063568,0.014749141,0.008120742,0.059709638,0.012092473,-0.002546410,0.004136853,0.007025921,-0.003410187,-0.001976518,-0.013127829,-0.003795840,-0.181795414
1609060341358510080,45,1609060341358510080,0.194586377,0.003989025,0.579742501,0.006805986,-0.042819495,-0.000386019,0.999059568,0.011290735,0.009993815,0.050939956,0.014378877,-0.004590678,0.006892179,0.007025926,-0.003410151,-0.001976511,-0.012736236,-0.003765445,-0.179710885
1609060341461435648,46,1609060341461435648,0.193714569,0.002186653,0.579696276,0.006926001,-0.042902060,-0.000363946,0.999055209,0.008134503,0.007726982,0.046079397,0.016498443,-0.004889065,0.007528383,0.007025875,-0.003410115,-0.001976504,-0.012500927,-0.003746627,-0.178495509
1609060341564483584,47,1609060341564483584,0.194605155,0.002516679,0.584482601,0.006942233,-0.042894411,-0.000347884,0.999055431,0.007673327,0.008061154,0.046935181,0.022791777,-0.001898130,0.011201204,0.007025872,-0.003410115,-0.001976504,-0.012502437,-0.003746751,-0.178502846
1609060341667694336,48,1609060341667694336,0.195465656,0.002800052,0.589420412,0.006989426,-0.042894870,-0.000317722,0.999055092,0.007321106,0.007702671,0.048337667,0.023206202,-0.006133201,0.011817927,0.007025869,-0.003410116,-0.001976504,-0.012504137,-0.003746895,-0.178510893
1609060341770805248,49,1609060341770805248,0.196227790,0.002905572,0.594048800,0.006953394,-0.042893388,-0.000355486,0.999055394,0.006734926,0.007276815,0.048904045,0.024184661,-0.004708089,0.012447642,0.007025865,-0.003410116,-0.001976504,-0.012499845,-0.003746520,-0.178491042
1609060341873924608,50,1609060341873924608,0.197023944,0.003182447,0.599464620,0.007020750,-0.042900062,-0.000290527,0.999054658,0.006153392,0.008255127,0.049637686,0.023673881,-0.007548731,0.013071865,0.007025862,-0.003410117,-0.001976504,-0.012507265,-0.003747187,-0.178524576
1609060341977236992,51,1609060341977236992,0.192644104,0.001989768,0.594957116,0.007112155,-0.043056488,-0.000292030,0.999047282,-0.000942223,0.006253789,0.039680044,0.023246929,-0.003802329,0.013542764,0.007025829,-0.003410035,-0.001976496,-0.012077025,-0.003707510,-0.176564847
1609060342049193984,52,1609060342049193984,0.197508974,-0.001025033,0.587022736,0.007037880,-0.042943623,-0.000493083,0.999052586,0.005177992,-0.001892960,0.027228813,0.006926547,-0.002519691,-0.001207095,0.007025755,-0.003410097,-0.001976485,-0.011583533,-0.003661070,-0.174362518
1609060342149164800,53,1609060342149164800,0.197994501,-0.001218472,0.589640724,0.007018159,-0.042951176,-0.000518079,0.999052388,0.004695390,-0.002614304,0.027416967,0.002746137,-0.001409373,-0.002322185,0.007025756,-0.003410097,-0.001976485,-0.011577768,-0.003660509,-0.174337234
1609060342252700928,54,1609060342252700928,0.198432154,-0.001323696,0.592209714,0.007086560,-0.042971804,-0.000448495,0.999051052,0.004086905,-0.003624275,0.027893464,0.010062600,-0.000799401,0.001229426,0.007025757,-0.003410097,-0.001976485,-0.011574220,-0.003660153,-0.174322300
1609060342355244288,55,1609060342355244288,0.194025463,-0.000278261,0.593958739,0.007037287,-0.043127435,-0.000498873,0.999044670,-0.002844806,-0.001948007,0.027061327,0.009580718,-0.003517731,0.002364466,0.007025773,-0.003410014,-0.001976476,-0.011526584,-0.003655253,-0.174119270
1609060342458437632,56,1609060342458437632,0.193141279,-0.001614322,0.592107152,0.007089900,-0.043152954,-0.000515385,0.999043187,-0.005105520,-0.003073270,0.022136827,0.011796067,-0.002416925,0.004390647,0.007025742,-0.003409998,-0.001976468,-0.011314281,-0.003632826,-0.173229331
1609060342561306368,57,1609060342561306368,0.188510661,-0.001536838,0.594424646,0.007127061,-0.043285313,-0.000493950,0.999037208,-0.012207822,-0.002690139,0.022871611,0.016582981,-0.004301953,0.008685237,0.007025742,-0.003409926,-0.001976466,-0.011312935,-0.003632690,-0.173223466
1609060342664904448,58,1609060342664904448,0.190044910,-0.000649193,0.595004710,0.007136983,-0.043228881,-0.000480003,0.999039587,-0.009706077,-0.001701821,0.021962817,0.017787967,-0.001904801,0.008603085,0.007025751,-0.003409961,-0.001976458,-0.011230288,-0.003623489,-0.172886844
1609060342767347456,59,1609060342767347456,0.186301836,-0.002284926,0.594468804,0.007262722,-0.043320307,-0.000408579,0.999034753,-0.014989824,-0.003125781,0.018636107,0.023152582,-0.002584135,0.013215676,0.007025728,-0.003409911,-0.001976451,-0.011101693,-0.003608850,-0.172369102
1609060342870456064,60,1609060342870456064,0.184677483,-0.003314703,0.596401396,0.007299372,-0.043319494,-0.000395424,0.999034526,-0.015895887,-0.004192843,0.018599488,0.024611300,-0.003580817,0.014152838,0.007025725,-0.003409911,-0.001976451,-0.011102827,-0.003608984,-0.172373513
1609060342973705472,61,1609060342973705472,0.183008701,-0.004382627,0.598267709,0.007301766,-0.043310573,-0.000395137,0.999034895,-0.017175326,-0.004292596,0.018683765,0.022574984,-0.006167578,0.012865199,0.007025721,-0.003409911,-0.001976451,-0.011102860,-0.003608988,-0.172373642
1609060343077748224,62,1609060343077748224,0.181200195,-0.005505048,0.600149195,0.007344538,-0.043326990,-0.000349719,0.999033887,-0.018452765,-0.006185731,0.018917252,0.023443457,-0.006253064,0.013009101,0.007025718,-0.003409911,-0.001976451,-0.011102701,-0.003608968,-0.172373029
1609060343148822784,63,1609060343148822784,0.182063733,-0.003569174,0.593455225,0.007098724,-0.043278117,-0.000541980,0.999037696,-0.016463651,-0.006140318,0.009017152,0.003854956,0.000911810,-0.001603472,0.007025742,-0.003409938,-0.001976446,-0.010751263,-0.003565453,-0.171017229
1609060343248710144,64,1609060343248710144,0.180701385,-0.004216555,0.594034717,0.007127974,-0.043271615,-0.000521168,0.999037781,-0.016900011,-0.005625831,0.009411801,0.007728105,-0.001081618,0.000630567,0.007025738,-0.003409942,-0.001976444,-0.010732572,-0.003563102,-0.170945586
1609060343351909888,65,1609060343351909888,0.183048046,-0.002977311,0.593927562,0.007130065,-0.043191510,-0.000515746,0.999041235,-0.012400827,-0.003031221,0.008444301,0.009510161,-0.001076938,0.000671074,0.007025742,-0.003409995,-0.001976437,-0.010684725,-0.003556978,-0.170763285
1609060343455102208,66,1609060343455102208,0.182915161,-0.001994960,0.590701779,0.007093151,-0.043177534,-0.000536779,0.999042091,-0.012148659,-0.000650183,0.003342336,0.013716578,-0.005072021,0.004535533,0.007025753,-0.003410007,-0.001976433,-0.010510392,-0.003534369,-0.170103592
1609060343558024704,67,1609060343558024704,0.187250473,-0.002833355,0.589881105,0.007114168,-0.043030926,-0.000546325,0.999048262,-0.005190419,-0.001221100,0.002264195,0.013834071,-0.005398803,0.008015483,0.007025728,-0.003410092,-0.001976427,-0.010460983,-0.003527881,-0.169917155
1609060343662369792,68,1609060343662369792,0.187228889,-0.001998487,0.583526305,0.007087210,-0.043025959,-0.000559361,0.999048660,-0.005213045,0.001194397,-0.005907455,0.017537689,-0.004925588,0.008965355,0.007025741,-0.003410096,-0.001976418,-0.010187189,-0.003491550,-0.168888982
1609060343764807168,69,1609060343764807168,0.183663951,-0.003104373,0.580987039,0.007125148,-0.043107583,-0.000552445,0.999044876,-0.010649536,-0.000053840,-0.007932759,0.019593226,-0.001397106,0.009294329,0.007025724,-0.003410051,-0.001976418,-0.010107388,-0.003480869,-0.168590217
1609060343867611648,70,1609060343867611648,0.179409023,-0.000525163,0.583901165,0.007146307,-0.043233604,-0.000478743,0.999039317,-0.016064149,0.003855780,-0.003802285,0.025929973,-0.004819484,0.012996524,0.007025760,-0.003409997,-0.001976419,-0.010262449,-0.003501854,-0.169170211
1609060343970663424,71,1609060343970663424,0.180591144,0.001200561,0.586014485,0.007159000,-0.043159638,-0.000454872,0.999042435,-0.013117568,0.005148115,-0.000524034,0.024477806,-0.004209841,0.013133135,0.007025767,-0.003410039,-0.001976416,-0.010364180,-0.003515696,-0.169549262
1609060344073735680,72,1609060344073735680,0.189329157,0.002399728,0.587698922,0.007180161,-0.042891342,-0.000469114,0.999053831,0.000429744,0.005384927,0.000907259,0.025516380,-0.006766311,0.012905703,0.007025756,-0.003410188,-0.001976402,-0.010436851,-0.003525631,-0.169818938
1609060344176668160,73,1609060344176668160,0.189365217,0.002301207,0.587752146,0.007209133,-0.042907248,-0.000456081,0.999052946,-0.000300672,0.004144307,0.001722526,0.022447994,-0.004982387,0.010690874,0.007025753,-0.003410189,-0.001976402,-0.010435254,-0.003525409,-0.169813052
1609060344248834560,74,1609060344248834560,0.193046483,-0.001935357,0.579867818,0.007147014,-0.042805707,-0.000622784,0.999057658,0.004224531,-0.006387374,-0.008304217,0.003013745,0.002163214,-0.002447115,0.007025684,-0.003410233,-0.001976405,-0.010123463,-0.003482097,-0.168651921
1609060344348703744,75,1609060344348703744,0.193477752,-0.002589742,0.579105174,0.007148897,-0.042802489,-0.000634758,0.999057775,0.003679314,-0.005535783,-0.008256454,0.007296046,-0.000091089,0.000008649,0.007025683,-0.003410233,-0.001976405,-0.010124013,-0.003482175,-0.168653941
1609060344452110336,76,1609060344452110336,0.192698795,-0.004614189,0.576287203,0.007179243,-0.042824784,-0.000634171,0.999056602,0.001675028,-0.006669159,-0.010099202,0.009467127,-0.000554084,0.002667218,0.007025659,-0.003410217,-0.001976404,-0.010046928,-0.003471158,-0.168365364
1609060344555062016,77,1609060344555062016,0.190101710,-0.000609066,0.573944085,0.007112606,-0.042914892,-0.000607708,0.999053229,-0.003268402,0.000050527,-0.010376467,0.015506529,-0.001995335,0.007444136,0.007025725,-0.003410184,-0.001976403,-0.009994726,-0.003463574,-0.168169489
1609060344658273024,78,1609060344658273024,0.186114452,-0.000524244,0.572209529,0.007095859,-0.043029776,-0.000606456,0.999048407,-0.009153516,-0.000581242,-0.011874734,0.014687817,-0.003100634,0.007135106,0.007025733,-0.003410131,-0.001976401,-0.009971826,-0.003460222,-0.168083505
1609060344761461760,79,1609060344761461760,0.189270645,-0.000111049,0.571773696,0.007089599,-0.042920634,-0.000606605,0.999053146,-0.004056910,0.000682522,-0.010936146,0.018526826,-0.002027445,0.009824992,0.007025732,-0.003410193,-0.001976399,-0.010001118,-0.003464524,-0.168193692
1609060344864367616,80,1609060344864367616,0.185540684,-0.002098253,0.571491678,0.007143159,-0.043015643,-0.000595409,0.999048685,-0.009578342,-0.001506886,-0.009672287,0.023964383,-0.004141130,0.011016643,0.007025708,-0.003410143,-0.001976399,-0.010030890,-0.003468908,-0.168306349
1609060344967698176,81,1609060344967698176,0.184688778,-0.002653925,0.570527240,0.007183289,-0.043013379,-0.000557014,0.999048517,-0.010152515,0.000469363,-0.009244682,0.022053730,-0.007427386,0.012592415,0.007025704,-0.003410143,-0.001976399,-0.010030144,-0.003468797,-0.168303535
1609060345070574336,82,1609060345070574336,0.186608561,-0.002604507,0.569520988,0.007164474,-0.042935143,-0.000549830,0.999052021,-0.006721761,0.001074950,-0.009737749,0.025202636,-0.004981124,0.012780992,0.007025707,-0.003410187,-0.001976399,-0.010031530,-0.003469002,-0.168308679
1609060345173685504,83,1609060345173685504,0.184859415,-0.001980199,0.570661539,0.007192140,-0.042959598,-0.000514066,0.999050790,-0.008919158,0.001908692,-0.007100046,0.022324374,-0.005494233,0.013797612,0.007025713,-0.003410178,-0.001976394,-0.010105213,-0.003479985,-0.168588772
1609060345276948480,84,1609060345276948480,0.184399808,-0.001186379,0.571266043,0.007210342,-0.042957728,-0.000488272,0.999050753,-0.008473852,0.002630692,-0.005347584,0.025228666,-0.008090327,0.012935007,0.007025725,-0.003410186,-0.001976392,-0.010150771,-0.003486802,-0.168762374
1609060345348872448,85,1609060345348872448,0.185600673,-0.002118791,0.573379078,0.007086314,-0.042916444,-0.000629494,0.999053335,-0.006161607,-0.003915082,-0.003922500,0.004559410,-0.000519400,-0.002451429,0.007025707,-0.003410214,-0.001976393,-0.010236572,-0.003499703,-0.169089717
1609060345448993024,86,1609060345448993024,0.184914539,-0.002540049,0.573000800,0.007088200,-0.042911410,-0.000636728,0.999053534,-0.006864754,-0.003328060,-0.004396343,0.006395223,-0.001245883,-0.000789361,0.007025707,-0.003410214,-0.001976393,-0.010237234,-0.003499804,-0.169092247
1609060345552400640,87,1609060345552400640,0.187608583,-0.000418299,0.572949326,0.007070139,-0.042803160,-0.000616651,0.999058318,-0.002737649,0.000688461,-0.003851228,0.010510726,-0.002853247,0.003032054,0.007025728,-0.003410271,-0.001976389,-0.010248886,-0.003501575,-0.169136926
1609060345655209984,88,1609060345655209984,0.187377756,-0.000528560,0.572588447,0.007111369,-0.042797469,-0.000594408,0.999058282,-0.002921124,0.000935762,-0.003396710,0.013667981,-0.001131819,0.004909852,0.007025727,-0.003410271,-0.001976389,-0.010248582,-0.003501528,-0.169135751
1609060345758053632,89,1609060345758053632,0.187101844,-0.000698020,0.572264835,0.007121755,-0.042798450,-0.000603185,0.999058161,-0.003463632,0.000181222,-0.003826336,0.012600553,-0.003089605,0.003919851,0.007025726,-0.003410272,-0.001976389,-0.010249190,-0.003501622,-0.169138108
1609060345861208064,90,1609060345861208064,0.186743929,-0.001082437,0.571919595,0.007144549,-0.042811910,-0.000584771,0.999057433,-0.004035494,0.000869152,-0.002967428,0.016504209,-0.001535312,0.007947772,0.007025723,-0.003410271,-0.001976389,-0.010249072,-0.003501603,-0.169137650
1609060345964406272,91,1609060345964406272,0.181658394,-0.000211704,0.572861713,0.007101413,-0.042952058,-0.000603244,0.999051714,-0.010808048,0.002696685,-0.001591871,0.021914374,-0.004092468,0.011895931,0.007025736,-0.003410205,-0.001976391,-0.010288076,-0.003507645,-0.169290309
1609060346067427072,92,1609060346067427072,0.183622130,-0.001844551,0.573838739,0.007195294,-0.042865291,-0.000545742,0.999054802,-0.007770041,0.000463307,-0.000058843,0.022955354,-0.005948268,0.012924719,0.007025709,-0.003410247,-0.001976394,-0.010322863,-0.003513032,-0.169426732
1609060346171197696,93,1609060346171197696,0.184702275,-0.004707611,0.574347329,0.007369679,-0.042822122,-0.000468155,0.999055421,-0.005899606,-0.004239544,0.000869947,0.025051020,-0.005352044,0.013435382,0.007025668,-0.003410271,-0.001976390,-0.010339250,-0.003515586,-0.169491222
1609060346273771520,94,1609060346273771520,0.183546151,-0.005780898,0.574645558,0.007369341,-0.042841682,-0.000478863,0.999054580,-0.007471573,-0.005134919,0.000681705,0.025858512,-0.004329433,0.013788497,0.007025659,-0.003410262,-0.001976389,-0.010347207,-0.003516845,-0.169522666
1609060346376943360,95,1609060346376943360,0.182868901,-0.005902727,0.575029782,0.007364548,-0.042850321,-0.000461790,0.999054253,-0.007373267,-0.005138080,0.001515391,0.022511184,-0.005762193,0.012602628,0.007025669,-0.003410265,-0.001976388,-0.010356995,-0.003518415,-0.169561480
1609060346448893184,96,1609060346448893184,0.181741467,-0.006163327,0.573391663,0.007207278,-0.042863881,-0.000618569,0.999054733,-0.008405053,-0.008941986,-0.001944306,0.008299133,0.000684509,-0.000531192,0.007025667,-0.003410260,-0.001976386,-0.010308389,-0.003510529,-0.169368205
1609060346548856320,97,1609060346548856320,0.184912053,-0.002773938,0.573687989,0.007087359,-0.042768230,-0.000649550,0.999059671,-0.002967188,-0.004274654,-0.001201475,0.003720560,-0.002138595,-0.002171019,0.007025720,-0.003410322,-0.001976384,-0.010320559,-0.003512527,-0.169416728
1609060346652072192,98,1609060346652072192,0.184597693,-0.003226657,0.573631364,0.007120850,-0.042786375,-0.000629919,0.999058668,-0.003351425,-0.003530413,-0.000928244,0.007454934,0.000159621,0.000087372,0.007025719,-0.003410322,-0.001976385,-0.010320390,-0.003512500,-0.169416053
1609060346755150592,99,1609060346755150592,0.183870339,-0.003863794,0.573970431,0.007137082,-0.042801411,-0.000631279,0.999057908,-0.003720860,-0.003263150,0.000173744,0.010515581,-0.003464298,0.001427439,0.007025715,-0.003410315,-0.001976384,-0.010330100,-0.003514102,-0.169455113
1609060346858361088,100,1609060346858361088,0.183496088,-0.004469698,0.574063389,0.007183911,-0.042781036,-0.000587874,0.999058471,-0.004407997,-0.001327715,0.001008700,0.017462472,-0.001472266,0.008250959,0.007025712,-0.003410315,-0.001976384,-0.010330154,-0.003514111,-0.169455330
1609060346961341696,101,1609060346961341696,0.185284440,-0.004365895,0.573476955,0.007197105,-0.042704947,-0.000557287,0.999061649,-0.001602633,-0.000306675,0.000268874,0.021079101,-0.002397627,0.011154460,0.007025711,-0.003410350,-0.001976380,-0.010312311,-0.003511140,-0.169382996
1609060347064414464,102,1609060347064414464,0.186037468,-0.004134315,0.572194250,0.007239294,-0.042695060,-0.000524347,0.999061785,-0.000438441,0.000530941,-0.001302359,0.020850362,-0.002464854,0.010652099,0.007025712,-0.003410364,-0.001976377,-0.010278854,-0.003505528,-0.169246731
1609060347167480832,103,1609060347167480832,0.185866330,-0.003433166,0.571975359,0.007225879,-0.042703229,-0.000541170,0.999061524,-0.001779140,0.001916208,-0.001036902,0.022323066,-0.005339039,0.011743411,0.007025726,-0.003410363,-0.001976373,-0.010277150,-0.003505240,-0.169239752
1609060347270663168,104,1609060347270663168,0.182384361,-0.001377255,0.571778280,0.007162867,-0.042801889,-0.000562069,0.999057744,-0.006596265,0.003608500,-0.002048372,0.023863170,-0.007296669,0.012712938,0.007025756,-0.003410319,-0.001976367,-0.010276766,-0.003505174,-0.169238158
1609060347373665024,105,1609060347373665024,0.180632875,-0.000975326,0.573029472,0.007162964,-0.042817903,-0.000566548,0.999057055,-0.008550751,0.003906049,-0.000027901,0.025516447,-0.005864328,0.014482314,0.007025754,-0.003410310,-0.001976368,-0.010314339,-0.003511493,-0.169392965
1609060347476710656,106,1609060347476710656,0.179766963,-0.001249261,0.572950234,0.007174567,-0.042825326,-0.000549069,0.999056663,-0.009267398,0.003136400,0.000338354,0.025015678,-0.005375480,0.012672621,0.007025751,-0.003410310,-0.001976368,-0.010313367,-0.003511330,-0.169388943
1609060347548683008,107,1609060347548683008,0.179266837,-0.001432489,0.572963862,0.007008583,-0.042814806,-0.000702560,0.999058196,-0.008972572,-0.002350163,-0.000676886,0.004081283,0.001145208,-0.003614358,0.007025751,-0.003410313,-0.001976368,-0.010314019,-0.003511439,-0.169391647
1609060347648681216,108,1609060347648681216,0.181229523,-0.001468289,0.571669675,0.007041264,-0.042733469,-0.000678767,0.999061465,-0.004955623,-0.002426014,-0.001318421,0.008189466,-0.000357949,0.001115231,0.007025742,-0.003410356,-0.001976366,-0.010281650,-0.003506101,-0.169257420
1609060347751874560,109,1609060347751874560,0.182419407,-0.002992666,0.569899117,0.007083396,-0.042691507,-0.000653542,0.999062978,-0.003113413,-0.003929781,-0.002675780,0.005726212,-0.002783197,-0.000782128,0.007025719,-0.003410378,-0.001976372,-0.010240641,-0.003499368,-0.169086769
1609060347860090880,110,1609060347860090880,0.180937404,-0.002848525,0.570028770,0.007078976,-0.042720111,-0.000649335,0.999061789,-0.004578279,-0.001168528,-0.002066254,0.014886767,-0.001312761,0.006439722,0.007025726,-0.003410362,-0.001976368,-0.010249994,-0.003500901,-0.169125836
1609060347963306240,111,1609060347963306240,0.182565074,-0.001126665,0.573028000,0.007046517,-0.042670364,-0.000622294,0.999064162,-0.001819154,0.001917479,0.000843626,0.018885210,-0.001621072,0.010483234,0.007025750,-0.003410392,-0.001976368,-0.010325649,-0.003513272,-0.169442941
1609060348066298368,112,1609060348066298368,0.182421024,-0.001436597,0.573111061,0.007100710,-0.042671058,-0.000573652,0.999063778,-0.002042445,0.001664493,0.000648515,0.022469349,-0.002810996,0.011390974,0.007025747,-0.003410392,-0.001976368,-0.010325786,-0.003513295,-0.169443517
1609060348169837568,113,1609060348169837568,0.182258895,-0.001857502,0.573148687,0.007158318,-0.042688849,-0.000542432,0.999062624,-0.002225014,0.001454659,0.001067465,0.024127433,-0.004998020,0.013319198,0.007025744,-0.003410392,-0.001976368,-0.010325277,-0.003513212,-0.169441362
1609060348272389632,114,1609060348272389632,0.180645569,-0.003753272,0.573165081,0.007206876,-0.042738282,-0.000554697,0.999060155,-0.004296198,-0.001149361,0.001441841,0.025845908,-0.005986909,0.013497408,0.007025717,-0.003410372,-0.001976362,-0.010324446,-0.003513078,-0.169437822
1609060348375344640,115,1609060348375344640,0.180226489,-0.004547290,0.573243409,0.007227866,-0.042733036,-0.000540848,0.999060235,-0.004638487,-0.001795981,0.001510679,0.023747070,-0.006939186,0.013738561,0.007025713,-0.003410372,-0.001976362,-0.010323924,-0.003512995,-0.169435597
1609060348478895872,116,1609060348478895872,0.181806246,-0.003856529,0.574590768,0.007256190,-0.042680912,-0.000505461,0.999062276,-0.001510489,-0.001261287,0.003225546,0.025534550,-0.004820973,0.012528102,0.007025721,-0.003410403,-0.001976363,-0.010350421,-0.003517245,-0.169548316
1609060348548520960,117,1609060348548520960,0.182965875,-0.004412807,0.570921303,0.007107185,-0.042661585,-0.000634818,0.999064099,0.000469035,-0.007225769,-0.002470742,0.007829708,-0.000677351,-0.000223126,0.007025718,-0.003410418,-0.001976367,-0.010266008,-0.003503659,-0.169188450
1609060348650807808,118,1609060348650807808,0.184967477,-0.006040795,0.570796767,0.007147814,-0.042598543,-0.000653496,0.999066487,0.003734017,-0.009285701,-0.002687296,0.007058387,-0.000697405,-0.000119022,0.007025695,-0.003410445,-0.001976364,-0.010268010,-0.003503983,-0.169197028
1609060348753650176,119,1609060348753650176,0.186732111,-0.004617182,0.567543872,0.007056833,-0.042571032,-0.000670965,0.999068295,0.005356608,-0.005901938,-0.005099273,0.008745566,-0.003759925,0.001751014,0.007025730,-0.003410465,-0.001976365,-0.010202290,-0.003493287,-0.168914839
1609060348856770560,120,1609060348856770560,0.187312724,-0.005398231,0.567053201,0.007076560,-0.042563400,-0.000652734,0.999068493,0.004775108,-0.004845551,-0.005007600,0.012168166,-0.001705369,0.004431063,0.007025728,-0.003410466,-0.001976365,-0.010202358,-0.003493298,-0.168915135
1609060348960122624,121,1609060348960122624,0.187832570,-0.006124491,0.566537973,0.007072840,-0.042562190,-0.000643637,0.999068577,0.004685605,-0.004293367,-0.004778871,0.015464338,-0.001264077,0.006597798,0.007025727,-0.003410466,-0.001976365,-0.010202425,-0.003493309,-0.168915420
1609060349062848000,122,1609060349062848000,0.191418429,-0.006789042,0.568529417,0.007091947,-0.042470261,-0.000638551,0.999072356,0.008645679,-0.003476732,-0.001708844,0.017807266,0.000258718,0.007641862,0.007025720,-0.003410512,-0.001976366,-0.010253330,-0.003501572,-0.169136794
1609060349165938944,123,1609060349165938944,0.191084607,-0.004325212,0.567543977,0.007023768,-0.042516851,-0.000642617,0.999070854,0.007004612,0.000910622,-0.002916566,0.021913586,-0.000746142,0.011409903,0.007025760,-0.003410492,-0.001976363,-0.010237519,-0.003499006,-0.169067658
1609060349269558016,124,1609060349269558016,0.185639950,-0.003198127,0.568861165,0.007056435,-0.042690012,-0.000580288,0.999063278,-0.001066952,0.002262360,-0.000942577,0.022671727,-0.003723716,0.012672811,0.007025784,-0.003410403,-0.001976367,-0.010270454,-0.003504292,-0.169212293
1609060349372140288,125,1609060349372140288,0.184295780,-0.006315887,0.569558621,0.007149229,-0.042732270,-0.000569382,0.999060818,-0.003183173,-0.001835086,0.000474779,0.024127824,-0.004913360,0.014164512,0.007025736,-0.003410383,-0.001976370,-0.010286856,-0.003506879,-0.169284386
1609060349475540224,126,1609060349475540224,0.186207348,-0.005426497,0.568282493,0.007122221,-0.042677406,-0.000544208,0.999063370,0.000059525,0.000656611,-0.001198779,0.024657873,-0.003967119,0.013415647,0.007025752,-0.003410417,-0.001976368,-0.010261767,-0.003502958,-0.169174099
1609060349578554112,127,1609060349578554112,0.186222701,-0.005903543,0.568053332,0.007089936,-0.042682358,-0.000580785,0.999063367,0.000177524,0.001313288,-0.001723204,0.026147731,-0.004782892,0.013087924,0.007025749,-0.003410417,-0.001976368,-0.010261385,-0.003502900,-0.169172415
1609060349648634624,128,1609060349648634624,0.189323149,-0.006323283,0.566634962,0.006919809,-0.042592937,-0.000748137,0.999068265,0.004685472,-0.003547653,-0.003782070,0.003694805,-0.000729428,-0.002983533,0.007025739,-0.003410463,-0.001976367,-0.010236544,-0.003499120,-0.169063037
1609060349750354944,129,1609060349750354944,0.191969279,-0.003958184,0.565620741,0.006853427,-0.042533917,-0.000754499,0.999071232,0.007356391,0.001574348,-0.004934823,0.006487684,-0.000049018,-0.001018136,0.007025769,-0.003410495,-0.001976369,-0.010224084,-0.003497254,-0.169008040
1609060349853764864,130,1609060349853764864,0.192746260,-0.003900008,0.565201331,0.006826324,-0.042543527,-0.000783626,0.999070986,0.007452005,0.002339161,-0.004303773,0.011477465,-0.001510824,0.001089499,0.007025768,-0.003410495,-0.001976369,-0.010224150,-0.003497264,-0.169008335
1609060349956382976,131,1609060349956382976,0.190951432,-0.004668337,0.566354900,0.006878856,-0.042631353,-0.000754205,0.999066905,0.003796341,0.001058179,-0.002991238,0.011345556,-0.001795205,0.004975275,0.007025753,-0.003410458,-0.001976371,-0.010253959,-0.003501498,-0.169140734
1609060350059517184,132,1609060350059517184,0.190097298,-0.005091255,0.565801120,0.006927342,-0.042691899,-0.000720968,0.999064009,0.001623702,0.001400779,-0.003071443,0.016531644,-0.002574041,0.007157818,0.007025746,-0.003410437,-0.001976374,-0.010249010,-0.003500811,-0.169118726
1609060350162584832,133,1609060350162584832,0.191210111,-0.002597575,0.568731381,0.006912364,-0.042675391,-0.000704868,0.999064829,0.002868432,0.005128479,0.000401692,0.021487368,-0.003917714,0.010439765,0.007025768,-0.003410457,-0.001976376,-0.010309569,-0.003509065,-0.169387765
1609060350265693440,134,1609060350265693440,0.189022292,-0.000710841,0.569231227,0.006893285,-0.042732181,-0.000684843,0.999062548,-0.001063466,0.007587250,-0.000410012,0.023366025,-0.002659813,0.012528761,0.007025786,-0.003410425,-0.001976383,-0.010319554,-0.003510391,-0.169432125
1609060350369355008,135,1609060350369355008,0.188951550,-0.000505314,0.569130520,0.006897011,-0.042715035,-0.000668448,0.999063266,-0.001233076,0.007199792,0.000389742,0.024680635,-0.002880056,0.013270428,0.007025783,-0.003410424,-0.001976383,-0.010318652,-0.003510277,-0.169428115
1609060350472209152,136,1609060350472209152,0.189182670,-0.000381596,0.568902213,0.006902824,-0.042707779,-0.000674051,0.999063533,-0.000142220,0.008007773,0.000014369,0.025588006,-0.005101299,0.011394171,0.007025778,-0.003410429,-0.001976384,-0.010314407,-0.003509750,-0.169409296
1609060350575234304,137,1609060350575234304,0.189195214,-0.000152398,0.568835179,0.006955456,-0.042714547,-0.000635209,0.999062904,-0.000329722,0.008357051,0.000423871,0.023250153,-0.004759974,0.012618052,0.007025775,-0.003410429,-0.001976384,-0.010313777,-0.003509676,-0.169406501
1609060350678377984,138,1609060350678377984,0.186030633,-0.003347451,0.569868822,0.007131574,-0.042819802,-0.000554704,0.999057204,-0.004225686,0.003467918,0.002152282,0.025152527,-0.005628086,0.011467036,0.007025717,-0.003410379,-0.001976395,-0.010331180,-0.003511708,-0.169483498
1609060350749866496,139,1609060350749866496,0.185370680,-0.007484088,0.567115443,0.007064585,-0.042829826,-0.000730768,0.999057137,-0.004878507,-0.005657789,-0.002520519,0.010413739,-0.000823653,0.001808020,0.007025650,-0.003410369,-0.001976396,-0.010280167,-0.003505781,-0.169258260
1609060350850369536,140,1609060350850369536,0.184942836,-0.008162557,0.566986134,0.007092928,-0.042851824,-0.000702189,0.999056014,-0.004626060,-0.006702847,-0.001741411,0.006700469,0.000189401,0.000566967,0.007025650,-0.003410369,-0.001976396,-0.010280419,-0.003505811,-0.169259371
1609060350955535360,141,1609060350955535360,0.183753597,-0.007098822,0.567054218,0.007077996,-0.042871985,-0.000666184,0.999055279,-0.005929432,-0.003011917,-0.001124724,0.015467147,-0.001300618,0.005210776,0.007025675,-0.003410361,-0.001976398,-0.010284081,-0.003506253,-0.169275417
1609060351056481792,142,1609060351056481792,0.181377916,-0.002921452,0.571205384,0.006999636,-0.042928069,-0.000655139,0.999053430,-0.008517612,0.003427157,0.003793731,0.013711881,-0.003143540,0.004217642,0.007025728,-0.003410343,-0.001976398,-0.010359522,-0.003515493,-0.169604699
1609060351159757312,143,1609060351159757312,0.179539532,-0.003560346,0.573665961,0.007116938,-0.042958851,-0.000583922,0.999051323,-0.010311900,0.002876933,0.006389857,0.020471375,-0.002608047,0.009472439,0.007025707,-0.003410330,-0.001976401,-0.010395534,-0.003519910,-0.169760995
1609060351262967552,144,1609060351262967552,0.182271844,-0.003800805,0.574581669,0.007129625,-0.042848222,-0.000587399,0.999055981,-0.005573405,0.002223931,0.006902280,0.019779406,-0.000749897,0.010929831,0.007025697,-0.003410385,-0.001976401,-0.010400029,-0.003520468,-0.169780391
1609060351365724416,145,1609060351365724416,0.178731350,-0.003803691,0.574580853,0.007148040,-0.042950851,-0.000585562,0.999051444,-0.010096967,0.002749623,0.006153461,0.022322711,-0.005898116,0.011595259,0.007025695,-0.003410339,-0.001976404,-0.010388020,-0.003518961,-0.169728735
1609060351468960768,146,1609060351468960768,0.180891631,-0.004944004,0.576300432,0.007193908,-0.042876460,-0.000586107,0.999054310,-0.005955611,0.000336227,0.007325091,0.025233390,-0.001764166,0.012118377,0.007025673,-0.003410381,-0.001976404,-0.010408039,-0.003521504,-0.169814408
1609060351572281600,147,1609060351572281600,0.188073134,-0.004579620,0.577433220,0.007236686,-0.042664794,-0.000561585,0.999063076,0.004657843,0.001126504,0.007388934,0.025927309,-0.005232872,0.013116363,0.007025664,-0.003410498,-0.001976398,-0.010415156,-0.003522426,-0.169844754
1609060351680430080,148,1609060351680430080,0.186924710,-0.003216624,0.574833288,0.007213555,-0.042718080,-0.000549558,0.999060973,0.001937773,0.003917053,0.003830966,0.024868822,-0.005268639,0.013522871,0.007025682,-0.003410474,-0.001976397,-0.010357771,-0.003514866,-0.169599604
1609060351778410240,149,1609060351778410240,0.186550481,-0.005418106,0.573207619,0.007238437,-0.042734022,-0.000579510,0.999060095,0.000877164,0.000499696,0.001356909,0.022742782,-0.005260319,0.011129985,0.007025644,-0.003410464,-0.001976403,-0.010324665,-0.003510480,-0.169458095
1609060351849167104,150,1609060351849167104,0.186184306,-0.003371153,0.568548009,0.006999582,-0.042752960,-0.000767498,0.999060860,0.000087951,-0.001153486,-0.005343811,0.002747187,-0.003107092,-0.003653375,0.007025672,-0.003410457,-0.001976403,-0.010243593,-0.003499585,-0.169111547
1609060351951774720,151,1609060351951774720,0.186397932,0.000214640,0.569871173,0.006924228,-0.042748098,-0.000755367,0.999061602,0.000019052,0.004528845,-0.002835166,0.009425603,-0.002197787,0.000875379,0.007025717,-0.003410464,-0.001976408,-0.010274203,-0.003503709,-0.169242376
1609060352053684992,152,1609060352053684992,0.184207758,-0.002093862,0.567911737,0.007036220,-0.042819580,-0.000725671,0.999057780,-0.003452345,0.001188491,-0.004209921,0.012143113,-0.004272672,0.005385380,0.007025675,-0.003410427,-0.001976412,-0.010245007,-0.003499814,-0.169117598
1609060352156837120,153,1609060352156837120,0.184248436,-0.000064139,0.569060461,0.007034915,-0.042815638,-0.000692158,0.999057982,-0.003589665,0.004595718,-0.002298896,0.016000055,-0.005360179,0.006578065,0.007025699,-0.003410434,-0.001976417,-0.010271290,-0.003503348,-0.169229729
1609060352260050944,154,1609060352260050944,0.184060627,-0.001027570,0.568943315,0.007034832,-0.042825268,-0.000717400,0.999057552,-0.003788205,0.003574200,-0.002556226,0.017470106,-0.001019105,0.007411066,0.007025680,-0.003410435,-0.001976417,-0.010273253,-0.003503611,-0.169238088
1609060352362803712,155,1609060352362803712,0.183434413,-0.008222937,0.567625099,0.007268599,-0.042837718,-0.000679994,0.999055371,-0.004477176,-0.007534070,-0.003518387,0.019528370,-0.001769472,0.009196694,0.007025571,-0.003410426,-0.001976425,-0.010255275,-0.003501194,-0.169161634
1609060352465768704,156,1609060352465768704,0.184016460,-0.006522888,0.568881233,0.007172465,-0.042820045,-0.000693573,0.999056814,-0.003560567,-0.004003566,-0.001057980,0.019402085,-0.004343458,0.010747809,0.007025608,-0.003410445,-0.001976424,-0.010282024,-0.003504914,-0.169275149
1609060352568870656,157,1609060352568870656,0.184275594,-0.007049860,0.568618115,0.007218396,-0.042800758,-0.000649012,0.999057340,-0.003201752,-0.003103041,-0.000636142,0.024801264,-0.004614682,0.012286988,0.007025610,-0.003410455,-0.001976425,-0.010279345,-0.003504535,-0.169263799
1609060352672152320,158,1609060352672152320,0.181789692,-0.005134339,0.570034186,0.007177797,-0.042862814,-0.000636887,0.999054980,-0.006246745,0.000891881,0.000792096,0.023472210,-0.006492846,0.012098255,0.007025645,-0.003410428,-0.001976430,-0.010304736,-0.003508186,-0.169371334
1609060352775721216,159,1609060352775721216,0.184482215,-0.006496881,0.571099640,0.007252000,-0.042769198,-0.000584232,0.999058488,-0.001553367,-0.000405616,0.001459919,0.024656858,-0.005591110,0.011908334,0.007025624,-0.003410476,-0.001976439,-0.010321949,-0.003510668,-0.169444074
1609060352849160960,160,1609060352849160960,0.184406455,-0.006922507,0.571159337,0.007074741,-0.042766899,-0.000752464,0.999059745,-0.001596229,-0.004014565,0.000707605,0.007400813,-0.003375040,-0.000344867,0.007025624,-0.003410476,-0.001976439,-0.010321892,-0.003510660,-0.169443835
1609060352950887936,161,1609060352950887936,0.186831108,-0.005087839,0.570819119,0.007016608,-0.042697335,-0.000749543,0.999063133,0.002135878,-0.000611891,-0.000284093,0.008119061,-0.001365169,0.002329100,0.007025651,-0.003410515,-0.001976439,-0.010315009,-0.003509645,-0.169414734
1609060353053784320,162,1609060353053784320,0.187126511,-0.005289827,0.570822730,0.007042627,-0.042711758,-0.000734617,0.999062344,0.002456288,-0.002054571,0.000267379,0.013583114,-0.003497753,0.004413222,0.007025651,-0.003410516,-0.001976439,-0.010314728,-0.003509603,-0.169413543
1609060353156775936,163,1609060353156775936,0.187822192,-0.004983475,0.570969461,0.007018986,-0.042711399,-0.000733450,0.999062527,0.002998215,-0.001078182,0.000267053,0.012035543,-0.004286846,0.004369606,0.007025661,-0.003410522,-0.001976440,-0.010316406,-0.003509852,-0.169420657
1609060353259968256,164,1609060353259968256,0.189202274,-0.001101076,0.570475795,0.006901260,-0.042663479,-0.000743971,0.999065387,0.004315383,0.004876602,-0.000539664,0.016667239,-0.000373627,0.008455826,0.007025716,-0.003410541,-0.001976442,-0.010308039,-0.003508614,-0.169385102
1609060353363960832,165,1609060353363960832,0.185348090,-0.000409037,0.569894209,0.006936900,-0.042790933,-0.000704005,0.999059718,-0.001176204,0.005151614,-0.001138740,0.018913411,-0.001340295,0.009790398,0.007025719,-0.003410481,-0.001976446,-0.010300067,-0.003507459,-0.169351141
1609060353466013440,166,1609060353466013440,0.185315503,-0.000347157,0.569732100,0.006994599,-0.042797232,-0.000673298,0.999059067,-0.001260277,0.004098252,-0.001624231,0.019244090,-0.003474442,0.010437853,0.007025717,-0.003410482,-0.001976446,-0.010300068,-0.003507459,-0.169351149
1609060353568959232,167,1609060353568959232,0.185261802,-0.000560455,0.569480873,0.006990786,-0.042796132,-0.000673108,0.999059141,-0.001656861,0.004214290,-0.001371609,0.024283767,-0.004336312,0.011278185,0.007025712,-0.003410483,-0.001976446,-0.010299151,-0.003507331,-0.169347244
1609060353672769024,168,1609060353672769024,0.183286462,-0.004178408,0.570318799,0.007128309,-0.042846017,-0.000659974,0.999056040,-0.004282910,-0.000195342,0.000082457,0.024416350,-0.007925618,0.013347589,0.007025650,-0.003410456,-0.001976449,-0.010314605,-0.003509439,-0.169412979
1609060353775416576,169,1609060353775416576,0.185049919,-0.003807036,0.572344474,0.007163010,-0.042778475,-0.000613302,0.999058716,-0.001673806,0.000860277,0.001356167,0.025753427,-0.007097174,0.013116182,0.007025648,-0.003410492,-0.001976456,-0.010347425,-0.003513904,-0.169552348
1609060353878434304,170,1609060353878434304,0.185490037,-0.006324098,0.572831381,0.007250867,-0.042766898,-0.000573324,0.999058601,-0.000885284,-0.001904511,0.002067526,0.023087513,-0.003075430,0.012516795,0.007025608,-0.003410501,-0.001976460,-0.010352971,-0.003514658,-0.169575902
1609060353950099968,171,1609060353950099968,0.185848712,-0.008338004,0.572525111,0.007145455,-0.042749453,-0.000723631,0.999060010,-0.000398986,-0.007861968,0.000090649,0.007084491,-0.003525682,0.000240055,0.007025577,-0.003410507,-0.001976465,-0.010347326,-0.003513879,-0.169551920
1609060354050130176,172,1609060354050130176,0.187231687,-0.005764528,0.570579546,0.007060893,-0.042701055,-0.000727227,0.999062678,0.001763543,-0.004507997,-0.002891824,0.008895701,-0.000516715,0.003230732,0.007025619,-0.003410534,-0.001976465,-0.010317811,-0.003509705,-0.169426426
1609060354154399232,173,1609060354154399232,0.180674471,-0.002604055,0.571958116,0.007069068,-0.042917269,-0.000632398,0.999053420,-0.008232376,0.000235566,-0.000483584,0.016698617,-0.004435868,0.006595316,0.007025673,-0.003410439,-0.001976468,-0.010342437,-0.003513238,-0.169531322
1609060354256497920,174,1609060354256497920,0.180767167,-0.003416218,0.572058586,0.007130085,-0.042916625,-0.000583609,0.999053044,-0.007380018,-0.000659697,-0.000178394,0.015474215,-0.004037496,0.007052064,0.007025662,-0.003410450,-0.001976468,-0.010344738,-0.003513569,-0.169541085
1609060354359743488,175,1609060354359743488,0.180156484,-0.001511426,0.574181051,0.007033247,-0.042923396,-0.000620799,0.999053417,-0.007545918,0.001790715,0.001993617,0.014555780,-0.004412182,0.007885894,0.007025691,-0.003410453,-0.001976467,-0.010377497,-0.003518321,-0.169679615
1609060354462809088,176,1609060354462809088,0.179483005,-0.001859577,0.574328997,0.007028518,-0.042920828,-0.000631125,0.999053554,-0.007975186,0.001056385,0.001307313,0.020215249,-0.001089684,0.009999307,0.007025689,-0.003410454,-0.001976467,-0.010377522,-0.003518324,-0.169679719
1609060354566198016,177,1609060354566198016,0.183140108,-0.002939928,0.575360700,0.007064536,-0.042775323,-0.000622901,0.999059546,-0.002382770,-0.000255989,0.002566311,0.017275043,-0.001928100,0.010753420,0.007025665,-0.003410519,-0.001976471,-0.010391092,-0.003520248,-0.169736714
1609060354668872960,178,1609060354668872960,0.182904035,-0.003561156,0.575609717,0.007105598,-0.042775179,-0.000581379,0.999059286,-0.003096519,-0.000211091,0.002635660,0.026012037,-0.005300424,0.012607676,0.007025661,-0.003410519,-0.001976471,-0.010391024,-0.003520238,-0.169736432
1609060354772094720,179,1609060354772094720,0.182675315,-0.004114169,0.575751349,0.007059120,-0.042760669,-0.000629819,0.999060207,-0.003061190,0.000286152,0.002081753,0.024730340,-0.004023332,0.013216355,0.007025658,-0.003410520,-0.001976471,-0.010390718,-0.003520196,-0.169735145
1609060354875271168,180,1609060354875271168,0.184504924,-0.004702145,0.573552876,0.007168055,-0.042694703,-0.000526154,0.999062313,-0.000125954,0.000631536,-0.001406230,0.024531972,-0.007383748,0.012998577,0.007025651,-0.003410548,-0.001976480,-0.010356650,-0.003515475,-0.169591588
1609060354978046976,181,1609060354978046976,0.183356026,-0.005391469,0.571942432,0.007233557,-0.042709603,-0.000478068,0.999061228,-0.002176250,0.000799474,-0.002565919,0.024185572,-0.004059900,0.013484540,0.007025638,-0.003410532,-0.001976482,-0.010334846,-0.003512456,-0.169499455
1609060355048535808,182,1609060355048535808,0.183416553,-0.005387384,0.572162841,0.007066605,-0.042703183,-0.000639237,0.999062607,-0.001929804,-0.002928796,-0.003437886,0.006773322,-0.003313177,-0.000553839,0.007025639,-0.003410534,-0.001976483,-0.010341584,-0.003513401,-0.169527980
1609060355150753792,183,1609060355150753792,0.182636872,-0.005963112,0.569288885,0.007111279,-0.042747834,-0.000604696,0.999060402,-0.003406689,-0.003432023,-0.005899705,0.010584278,-0.003658684,0.001918490,0.007025630,-0.003410523,-0.001976483,-0.010303982,-0.003508043,-0.169368392
1609060355253820672,184,1609060355253820672,0.184702728,-0.003484451,0.572281988,0.007064628,-0.042700798,-0.000568272,0.999062766,-0.000240523,0.000958717,-0.001467731,0.013208427,-0.002598357,0.004137958,0.007025666,-0.003410561,-0.001976484,-0.010355316,-0.003515510,-0.169586497
1609060355356574208,185,1609060355356574208,0.184029669,-0.003291417,0.570498089,0.007069616,-0.042727413,-0.000570141,0.999061591,-0.001653525,0.001339644,-0.003645723,0.014725680,-0.004066191,0.006610629,0.007025664,-0.003410550,-0.001976480,-0.010331809,-0.003512061,-0.169486371
1609060355459748864,186,1609060355459748864,0.183725557,-0.002764826,0.572235607,0.007062802,-0.042726858,-0.000578693,0.999061659,-0.001384488,0.002044911,-0.001839649,0.016772393,-0.004423272,0.007910193,0.007025667,-0.003410551,-0.001976482,-0.010362346,-0.003516573,-0.169616655
1609060355565509120,187,1609060355565509120,0.180688302,-0.003383393,0.572180089,0.007147259,-0.042824561,-0.000530306,0.999056902,-0.005535618,0.002202834,-0.001476712,0.024317017,-0.004642964,0.013660127,0.007025657,-0.003410507,-0.001976478,-0.010364713,-0.003516922,-0.169626769
1609060355665901568,188,1609060355665901568,0.180472253,-0.003122028,0.572417028,0.007137452,-0.042828212,-0.000535160,0.999056813,-0.005643741,0.002484208,-0.000650482,0.022411861,-0.002719177,0.011554412,0.007025661,-0.003410512,-0.001976475,-0.010370042,-0.003517715,-0.169649511
1609060355769041920,189,1609060355769041920,0.178884395,-0.003577130,0.573752600,0.007115356,-0.042860063,-0.000550124,0.999055596,-0.007349358,0.001758439,0.000743617,0.022960622,-0.004585915,0.011264529,0.007025650,-0.003410496,-0.001976479,-0.010390137,-0.003520699,-0.169735161
1609060355872229376,190,1609060355872229376,0.178510969,-0.004344266,0.573351458,0.007175324,-0.042840165,-0.000526551,0.999056033,-0.007054855,0.001131651,-0.000416925,0.025140958,-0.005500945,0.012915641,0.007025639,-0.003410501,-0.001976478,-0.010384616,-0.003519880,-0.169711671
1609060355975613184,191,1609060355975613184,0.183051305,-0.004652194,0.571522575,0.007224109,-0.042680283,-0.000490297,0.999062543,-0.000095704,0.000153052,-0.002427794,0.023405736,-0.005961548,0.013632278,0.007025633,-0.003410575,-0.001976479,-0.010360573,-0.003516295,-0.169609500
1609060356078740480,192,1609060356078740480,0.182264593,-0.002847268,0.569371776,0.007213393,-0.042712022,-0.000446800,0.999061285,-0.001813477,0.002484149,-0.004152304,0.025579400,-0.007034430,0.013005580,0.007025660,-0.003410565,-0.001976476,-0.010335510,-0.003512513,-0.169502629
1609060356148900096,193,1609060356148900096,0.183399494,-0.002318641,0.568786878,0.007033958,-0.042688482,-0.000601714,0.999063489,0.000103002,-0.000980767,-0.005887295,0.004724213,0.000536211,-0.003488660,0.007025666,-0.003410582,-0.001976477,-0.010332460,-0.003512050,-0.169489607
1609060356250971904,194,1609060356250971904,0.184185732,-0.001331673,0.568316262,0.006982151,-0.042684577,-0.000632862,0.999064000,0.001115206,0.000824615,-0.005913121,0.004273598,-0.000968203,-0.002067265,0.007025673,-0.003410594,-0.001976476,-0.010333002,-0.003512133,-0.169491930
1609060356353475840,195,1609060356353475840,0.186200363,-0.002575492,0.570857443,0.007050523,-0.042625532,-0.000618603,0.999066050,0.003493622,0.000520376,-0.002061930,0.009079155,-0.002948104,0.001956002,0.007025640,-0.003410620,-0.001976472,-0.010374548,-0.003518386,-0.169670345
1609060356456523008,196,1609060356456523008,0.186985701,-0.005653970,0.570420788,0.007179617,-0.042607382,-0.000601817,0.999065915,0.003603895,-0.002578966,-0.001566670,0.012148388,-0.002303648,0.004292414,0.007025586,-0.003410625,-0.001976472,-0.010370741,-0.003517807,-0.169653923
1609060356561446912,197,1609060356561446912,0.187416012,-0.006208260,0.570273018,0.007195421,-0.042603011,-0.000583948,0.999065998,0.003827390,-0.002152336,-0.001485002,0.014185484,-0.005482960,0.006779713,0.007025584,-0.003410625,-0.001976472,-0.010370745,-0.003517808,-0.169653936
1609060356664868864,198,1609060356664868864,0.187757412,-0.006909287,0.569953567,0.007203421,-0.042623090,-0.000573461,0.999065090,0.003671017,-0.002355832,-0.000918612,0.019567868,-0.002379897,0.008064112,0.007025582,-0.003410624,-0.001976472,-0.010368147,-0.003517390,-0.169642620
1609060356766592000,199,1609060356766592000,0.184024680,-0.005421352,0.570762499,0.007208230,-0.042739200,-0.000536629,0.999060115,-0.001956517,-0.000183568,-0.000129805,0.022355434,-0.005944800,0.013016671,0.007025602,-0.003410570,-0.001976470,-0.010380222,-0.003519375,-0.169695430
1609060356869700608,200,1609060356869700608,0.183864393,-0.006106816,0.570726921,0.007229151,-0.042743421,-0.000522276,0.999059791,-0.001942029,-0.001241380,-0.000078983,0.023186840,-0.005089395,0.012186694,0.007025599,-0.003410570,-0.001976470,-0.010380112,-0.003519357,-0.169694948
1609060356972997632,201,1609060356972997632,0.177013327,-0.007060107,0.572900447,0.007249248,-0.042945836,-0.000506763,0.999050973,-0.011408017,-0.002647572,0.003122700,0.024306267,-0.008396980,0.012626332,0.007025594,-0.003410474,-0.001976470,-0.010407926,-0.003524013,-0.169816641
1609060357075427840,202,1609060357075427840,0.181629411,-0.005087523,0.575598032,0.007212187,-0.042779042,-0.000480573,0.999058410,-0.003610461,0.000520085,0.005680775,0.023246497,-0.003922123,0.013285831,0.007025619,-0.003410564,-0.001976468,-0.010438874,-0.003529197,-0.169951189
1609060357178622208,203,1609060357178622208,0.181244397,-0.005694828,0.576125756,0.007215383,-0.042779895,-0.000496076,0.999058343,-0.003991627,0.000697608,0.005875325,0.022876447,-0.002301347,0.012938300,0.007025615,-0.003410564,-0.001976468,-0.010438590,-0.003529149,-0.169949954
1609060357248783104,204,1609060357248783104,0.180408460,-0.006537488,0.572541931,0.007066254,-0.042785462,-0.000647751,0.999059084,-0.005330724,-0.003977345,0.000605774,0.005495914,-0.002557433,0.000395967,0.007025601,-0.003410555,-0.001976471,-0.010388226,-0.003520758,-0.169731203
1609060357350047232,205,1609060357350047232,0.185980471,-0.004371715,0.576282725,0.007042033,-0.042614131,-0.000637188,0.999066584,0.002875313,-0.000221318,0.004494752,0.007847356,-0.000065272,-0.000739633,0.007025617,-0.003410644,-0.001976466,-0.010434363,-0.003528463,-0.169931391
1609060357453486848,206,1609060357453486848,0.184990645,0.000801112,0.574296581,0.006881955,-0.042669679,-0.000658698,0.999065315,0.001386767,0.006603651,0.001624259,0.010609607,-0.000787164,0.001910506,0.007025688,-0.003410627,-0.001976467,-0.010403529,-0.003523329,-0.169797052
1609060357556615680,207,1609060357556615680,0.185977321,-0.002578255,0.570046741,0.006982250,-0.042652134,-0.000654961,0.999065371,0.002543977,0.002087588,-0.003186469,0.010553382,0.000230770,0.002925844,0.007025627,-0.003410630,-0.001976473,-0.010348573,-0.003514496,-0.169556962
1609060357659832320,208,1609060357659832320,0.188462780,-0.005689657,0.569391445,0.007130593,-0.042590313,-0.000591850,0.999067000,0.005849384,-0.001169464,-0.003169948,0.018540233,-0.003597378,0.009750647,0.007025573,-0.003410657,-0.001976473,-0.010344578,-0.003513863,-0.169539449
1609060357762833152,209,1609060357762833152,0.187414638,-0.002350710,0.569174919,0.007055981,-0.042645648,-0.000578017,0.999065177,0.003624258,0.003320031,-0.003054644,0.021536261,-0.000770089,0.011506212,0.007025627,-0.003410637,-0.001976473,-0.010345965,-0.003514085,-0.169545556
1609060357865934080,210,1609060357865934080,0.185550165,-0.001866952,0.568243581,0.007040372,-0.042729225,-0.000575457,0.999061717,0.000146774,0.004216866,-0.004033019,0.021833446,-0.004306570,0.009955246,0.007025633,-0.003410603,-0.001976473,-0.010339160,-0.003513006,-0.169515514
