time,field.header.seq,field.header.stamp,field.pose.pose.position.x,field.pose.pose.position.y,field.pose.pose.position.z,field.pose.pose.orientation.x,field.pose.pose.orientation.y,field.pose.pose.orientation.z,field.pose.pose.orientation.w,field.twist.twist.linear.x,field.twist.twist.linear.y,field.twist.twist.linear.z,field.twist.twist.angular.x,field.twist.twist.angular.y,field.twist.twist.angular.z, ex,ey,ez,erx,ery,erz,evx,evy,evz,gbx,gby,gbz,abx,aby,abz
1609059613739439360,0,1609059613739439360,-0.000029405,-0.000860769,-0.000004987,-0.006076885,-0.022234023,0.000137813,0.999734315,-0.000567843,-0.011638036,-0.000201212,0.013559734,-0.002969599,-0.009330045,-0.005283321,-0.033010947,-0.011254584,0.000602574,0.000490760,0.000746895,-0.052798293,-0.327893852,-0.112383593,0.006989607,-0.003573823,-0.001806626,-0.008126701,0.002975500,-0.182857124
1609059613850419456,1,1609059613850419456,-0.000335392,-0.003658575,-0.000750564,-0.004504994,-0.022362222,0.000105270,0.999739779,-0.002633826,-0.026948157,-0.005431716,0.020336626,-0.003623258,-0.006545261,-0.016191709,-0.037662925,-0.041177890,-0.002582574,0.003468530,-0.000087859,-0.161722148,-0.374602684,-0.412053125,0.006989617,-0.003573819,-0.001806626,-0.007710323,0.002840538,-0.173491428
1609059613944536832,2,1609059613944536832,-0.001181128,-0.008450077,-0.003557135,-0.003307404,-0.022630556,0.000149703,0.999738414,-0.006365655,-0.047167906,-0.019869168,0.019527748,-0.001078587,-0.007490079,-0.012507166,-0.037172200,-0.057630933,-0.003663529,0.002177689,0.000088134,-0.124641210,-0.363224391,-0.575276488,0.006989631,-0.003573812,-0.001806626,-0.006937606,0.002614670,-0.156145381
1609059614039515648,3,1609059614039515648,-0.002710770,-0.014742905,-0.009721892,-0.002800230,-0.022928551,0.000156104,0.999733172,-0.011185936,-0.063633712,-0.043115423,0.016023198,0.001516602,-0.008094101,-0.011765013,-0.024733297,-0.063732446,-0.005075735,0.002260283,-0.000132515,-0.116823205,-0.236987910,-0.633053004,0.006989647,-0.003573809,-0.001806626,-0.005882035,0.002340416,-0.132544370
1609059614150661376,4,1609059614150661376,-0.005095495,-0.025318982,-0.023589098,-0.002070307,-0.023168536,0.000107079,0.999729424,-0.016431712,-0.085557956,-0.080834715,0.020673072,-0.003283020,-0.006054716,-0.006956709,-0.020936840,-0.075338985,-0.003266540,0.000768480,-0.000240794,-0.070267974,-0.210601926,-0.756107608,0.006989662,-0.003573803,-0.001806626,-0.004340065,0.001987650,-0.098268532
1609059614244650240,5,1609059614244650240,-0.007077473,-0.035356413,-0.043525909,-0.001920789,-0.023210914,0.000117139,0.999728738,-0.018761428,-0.102167514,-0.127367722,0.017129784,-0.001636518,-0.007391702,-0.003297970,-0.012601972,-0.073003409,-0.003877366,0.001320786,-0.000291184,-0.031402839,-0.112864881,-0.720392126,0.006989676,-0.003573801,-0.001806625,-0.002686964,0.001647838,-0.061714336
1609059614341736704,6,1609059614341736704,-0.010511043,-0.042436732,-0.063724488,-0.002525082,-0.023339996,0.000081008,0.999724393,-0.024995151,-0.104940457,-0.159028134,0.014981264,-0.000026555,-0.007277101,-0.007966441,0.005492355,-0.031965064,-0.006098069,0.002681077,-0.000131846,-0.078189121,0.064430461,-0.311367817,0.006989696,-0.003573813,-0.001806625,-0.001903707,0.001502822,-0.044471489
1609059614451108608,7,1609059614451108608,-0.013868479,-0.048926181,-0.086123260,-0.003143751,-0.023342710,0.000039015,0.999722578,-0.028698018,-0.103124082,-0.183084248,0.021940880,-0.006475011,-0.005977376,-0.003985343,0.011911339,-0.013164229,-0.004795463,0.003233338,0.000032079,-0.040915065,0.116332350,-0.140386539,0.006989714,-0.003573831,-0.001806625,-0.001524671,0.001438064,-0.036168462
1609059614545197312,8,1609059614545197312,-0.013706555,-0.052386729,-0.106106256,-0.003800654,-0.023026321,0.000018915,0.999727635,-0.024065163,-0.097983014,-0.200958925,0.019901874,-0.003086060,-0.007142872,0.006127985,0.015523231,-0.003847416,-0.001948062,0.001936518,0.000018646,0.062851243,0.163152075,-0.028904876,0.006989717,-0.003573847,-0.001806625,-0.001441980,0.001424402,-0.034363255
1609059614639674368,9,1609059614639674368,-0.015729047,-0.060520656,-0.124416780,-0.003936477,-0.023011348,0.000053108,0.999727452,-0.025006272,-0.104014783,-0.213541675,0.012285070,-0.002110373,-0.009572993,0.000421847,0.001536996,0.000683568,-0.000044630,0.000060073,-0.000005501,0.006566903,0.028151493,0.027902468,0.006989717,-0.003573849,-0.001806625,-0.001517000,0.001436340,-0.035996914
1609059614750735616,10,1609059614750735616,-0.016574341,-0.058173091,-0.105771321,-0.004821278,-0.022807077,0.000003388,0.999728259,-0.023171545,-0.086813589,-0.151952828,0.021153329,-0.001985130,-0.006333143,0.001720526,0.025288849,0.084673650,-0.004869522,0.004084085,0.000119910,0.015626504,0.248601884,0.834339879,0.006989746,-0.003573884,-0.001806626,-0.003845881,0.001808322,-0.086668133
1609059614845012736,11,1609059614845012736,-0.014257928,-0.046349604,-0.105385072,-0.005907534,-0.022566643,-0.000020502,0.999727887,-0.017034084,-0.059187403,-0.135386159,0.016836463,-0.003582345,-0.006845712,0.007761407,0.037045867,0.025234033,0.000651761,0.001039211,-0.000622455,0.080058739,0.381067696,0.266786880,0.006989750,-0.003573916,-0.001806623,-0.004561913,0.001925090,-0.102242429
1609059614939806720,12,1609059614939806720,-0.016247471,-0.046444051,-0.105859921,-0.006183901,-0.022555550,-0.000018071,0.999726466,-0.018159315,-0.054464980,-0.122906732,0.015593180,-0.000673475,-0.007612386,-0.001210308,0.009745486,0.021143519,-0.000005993,0.001391689,-0.000093091,-0.011536393,0.102305697,0.217560300,0.006989757,-0.003573930,-0.001806622,-0.005125001,0.002022818,-0.114505964
1609059615050611968,13,1609059615050611968,-0.014789232,-0.044691662,-0.088550110,-0.006404839,-0.022388191,-0.000043135,0.999728836,-0.013915708,-0.046117179,-0.083261986,0.019683888,-0.006188425,-0.007534464,0.004760617,0.012731725,0.046805533,0.000368774,0.002264055,0.000132849,0.047003795,0.126688978,0.462942270,0.006989763,-0.003573956,-0.001806623,-0.006274160,0.002237024,-0.139569081
1609059615144959488,14,1609059615144959488,-0.014416535,-0.043160146,-0.071487858,-0.006663374,-0.022266406,-0.000019420,0.999729867,-0.011989610,-0.039922335,-0.052449880,0.018433377,-0.002410297,-0.006585520,0.001390970,0.008698605,0.035773527,-0.000324286,0.003023385,0.000229404,0.015248261,0.092710865,0.365514118,0.006989775,-0.003573984,-0.001806624,-0.007124107,0.002406725,-0.158148614
1609059615239545088,15,1609059615239545088,-0.015036746,-0.042788718,-0.047875044,-0.006836682,-0.022192362,-0.000017579,0.999730343,-0.011240333,-0.036549614,-0.014882561,0.016109772,-0.002646884,-0.007627096,-0.000432990,0.005534906,0.040193446,-0.001659174,0.003307501,0.000122092,-0.003824415,0.059883832,0.405172954,0.006989797,-0.003574010,-0.001806625,-0.008007092,0.002597019,-0.177514807
1609059615350768896,16,1609059615350768896,-0.014276085,-0.045544057,-0.051185685,-0.006835861,-0.022089571,-0.000023631,0.999732625,-0.008400223,-0.037240434,-0.017478657,0.020404270,-0.005633349,-0.005845241,0.002411622,0.001832707,-0.002201997,-0.000065242,0.002031860,0.000340747,0.023166494,0.017839990,-0.022984685,0.006989800,-0.003574031,-0.001806628,-0.007959914,0.002585907,-0.176475330
1609059615444312320,17,1609059615444312320,-0.013308129,-0.047083916,-0.046112339,-0.006971748,-0.022002636,-0.000007483,0.999733604,-0.005685567,-0.037953042,-0.010615797,0.016884524,-0.001147633,-0.008035928,0.002148205,0.001975523,0.008890185,-0.000029043,0.001151141,0.000096287,0.022339258,0.027326449,0.091633551,0.006989805,-0.003574046,-0.001806628,-0.008132929,0.002629840,-0.180305419
1609059615539756800,18,1609059615539756800,-0.014358945,-0.046032285,-0.041076654,-0.007106156,-0.021983228,-0.000007159,0.999733084,-0.005711807,-0.034212574,-0.003702349,0.016487433,0.001049024,-0.008721719,-0.001407638,0.006705869,0.008122236,-0.000587260,0.002099483,0.000132766,-0.014268997,0.070922970,0.082055188,0.006989828,-0.003574064,-0.001806629,-0.008276925,0.002669563,-0.183513057
1609059615651205120,19,1609059615651205120,-0.015035866,-0.050020263,-0.041513143,-0.007013124,-0.021982957,-0.000036234,0.999733747,-0.005223508,-0.036876148,-0.002826849,0.022715472,-0.003632292,-0.006516528,0.000000000,0.000000000,0.000000000,-0.000000000,-0.000000000,0.000000000,-0.001018656,-0.001979609,-0.000961012,0.006989827,-0.003574064,-0.001806629,-0.008275472,0.002669110,-0.183480384
1609059615744613632,20,1609059615744613632,-0.014527394,-0.052377515,-0.042993681,-0.007063441,-0.021943096,-0.000020733,0.999734269,-0.003439650,-0.037809185,-0.004735594,0.018122097,-0.002784973,-0.008010390,0.001336503,0.001077249,-0.001565370,-0.000106111,0.000371874,0.000066406,0.013577978,0.016015179,-0.015502319,0.006989833,-0.003574072,-0.001806630,-0.008251673,0.002661341,-0.182942691
1609059615840117504,21,1609059615840117504,-0.015639629,-0.051341324,-0.046917847,-0.007193790,-0.021942633,-0.000005392,0.999733350,-0.004045969,-0.034504143,-0.009321873,0.015374115,-0.000042310,-0.007720164,-0.001480077,0.006948335,-0.004718360,0.000310806,0.001265698,0.000152277,-0.015035324,0.073287243,-0.046587663,0.006989856,-0.003574083,-0.001806631,-0.008185125,0.002637862,-0.181427629
1609059615950735872,22,1609059615950735872,-0.015797574,-0.053954989,-0.047588503,-0.007156410,-0.021941781,-0.000020099,0.999733636,-0.003550664,-0.034253125,-0.008001733,0.022002304,-0.004580381,-0.005029808,0.000383862,0.001662095,0.000503743,-0.000037973,0.000329312,0.000018905,0.003408478,0.015660217,0.003760237,0.006989863,-0.003574088,-0.001806631,-0.008190174,0.002639802,-0.181543590
1609059616044845568,23,1609059616044845568,-0.015643024,-0.055873650,-0.048133188,-0.007232528,-0.021918274,0.000009599,0.999733604,-0.003094967,-0.034654421,-0.008860196,0.020867057,-0.003672478,-0.005528671,0.000689233,0.001519532,0.000385980,0.000028989,0.000135233,0.000003236,0.007305281,0.019880605,0.004449697,0.006989871,-0.003574094,-0.001806631,-0.008195505,0.002642053,-0.181667234
1609059616139888128,24,1609059616139888128,-0.015723477,-0.057955285,-0.048437327,-0.007283757,-0.021931239,0.000033874,0.999732948,-0.002204427,-0.034869083,-0.008298277,0.015499949,0.000013079,-0.007989038,0.000270472,0.001220203,0.000649877,0.000011562,0.000113847,0.000055858,0.002561829,0.017181087,0.007246971,0.006989878,-0.003574097,-0.001806632,-0.008203680,0.002645749,-0.181858410
1609059616250955008,25,1609059616250955008,-0.015945119,-0.061820405,-0.049404500,-0.007180109,-0.021931047,-0.000014679,0.999733702,-0.002016391,-0.035470809,-0.007899378,0.020762552,-0.007467554,-0.004877710,0.000048231,0.000271331,0.000071550,0.000000823,0.000004797,0.000001412,0.000163022,-0.000451593,-0.000716284,0.006989878,-0.003574097,-0.001806632,-0.008203036,0.002645403,-0.181843024
1609059616344603904,26,1609059616344603904,-0.014748526,-0.058915981,-0.047481636,-0.007384980,-0.021888576,0.000010991,0.999733140,0.000437847,-0.030670013,-0.005639614,0.018212134,-0.000844454,-0.008044885,0.002079338,0.009688557,0.003889838,0.000575209,0.000538946,0.000053497,0.020613752,0.102208191,0.039460406,0.006989925,-0.003574120,-0.001806633,-0.008242632,0.002666108,-0.182786575
1609059616439706624,27,1609059616439706624,-0.014697823,-0.061637677,-0.047976729,-0.007380281,-0.021901374,0.000001366,0.999732895,0.000397024,-0.032023773,-0.005007336,0.017401710,-0.001761044,-0.007728935,0.000001119,0.000052321,0.000028248,0.000000659,0.000001795,0.000000525,0.000081401,0.003627888,0.000207106,0.006989927,-0.003574120,-0.001806633,-0.008242825,0.002666218,-0.182791227
1609059616550727680,28,1609059616550727680,-0.014646686,-0.064905491,-0.048416004,-0.007333288,-0.021904327,-0.000030951,0.999733176,0.000563063,-0.033493656,-0.003822225,0.021400385,-0.006513744,-0.006803290,0.000012913,0.000065340,0.000127344,-0.000000601,0.000008982,0.000001164,0.000040881,0.000974636,0.000394920,0.006989928,-0.003574120,-0.001806633,-0.008243248,0.002666449,-0.182801368
1609059616644537600,29,1609059616644537600,-0.014567064,-0.067954474,-0.048828495,-0.007372358,-0.021903956,-0.000027711,0.999732896,0.001069041,-0.035112036,-0.005185370,0.016960397,-0.002518913,-0.007549809,0.000000000,0.000000000,0.000000000,0.000000000,-0.000000000,0.000000000,-0.000188439,0.003193994,0.000702810,0.006989930,-0.003574120,-0.001806633,-0.008243786,0.002666813,-0.182814709
1609059616740008192,30,1609059616740008192,-0.014954389,-0.061036774,-0.047123894,-0.007646770,-0.021926727,-0.000009129,0.999730336,0.000887118,-0.023759670,-0.002804193,0.013293974,0.000443815,-0.007680471,-0.000958207,0.016802849,0.003276546,0.000581524,0.000514269,0.000121454,-0.009759821,0.173014786,0.033444545,0.006990035,-0.003574129,-0.001806634,-0.008270191,0.002684839,-0.183470159
1609059616850827776,31,1609059616850827776,-0.014578318,-0.056268549,-0.038763217,-0.007740377,-0.021891187,-0.000049766,0.999730394,0.001669965,-0.014327709,0.007003664,0.019419836,-0.004413463,-0.005073443,0.000286214,0.012489659,0.013451908,0.000318073,0.000739528,0.000067179,0.002871089,0.123213578,0.133934727,0.006990115,-0.003574146,-0.001806635,-0.008373035,0.002759291,-0.186045298
1609059616944585728,32,1609059616944585728,-0.015554720,-0.053502993,-0.030797346,-0.007901463,-0.021875135,-0.000032962,0.999729486,0.001066659,-0.010576068,0.014873924,0.016001033,-0.000850660,-0.006963097,-0.002232764,0.006456692,0.011861893,0.000063494,0.001497579,0.000009497,-0.022828201,0.068609112,0.117690349,0.006990164,-0.003574151,-0.001806635,-0.008458369,0.002824882,-0.188202000
1609059617039831552,33,1609059617039831552,-0.014271411,-0.052438196,-0.030534131,-0.007955025,-0.021838155,0.000000886,0.999729870,0.003174516,-0.008593956,0.013873486,0.014242774,-0.001613669,-0.007280987,0.001946619,0.003054142,-0.001892033,0.000202373,0.000695137,-0.000001209,0.019110174,0.033538102,-0.019553060,0.006990184,-0.003574174,-0.001806635,-0.008444874,0.002813872,-0.187857677
1609059617152528896,34,1609059617152528896,-0.013805118,-0.053157320,-0.028763367,-0.007853706,-0.021829551,-0.000030460,0.999730858,0.004518049,-0.008103484,0.015688298,0.020415785,-0.001717786,-0.004692837,0.000075428,0.000083399,0.000006411,-0.000002324,0.000026627,0.000002297,0.000575733,0.001179332,0.001417091,0.006990185,-0.003574175,-0.001806635,-0.008445733,0.002814664,-0.187880110
1609059617244947456,35,1609059617244947456,-0.012716296,-0.053565920,-0.028574045,-0.007908760,-0.021793608,-0.000008240,0.999731209,0.006514941,-0.008996549,0.013822788,0.017134450,-0.001770196,-0.006911892,0.000959992,0.000144651,-0.001991410,0.000048880,0.000861336,0.000046187,0.008892053,0.004429790,-0.020785681,0.006990187,-0.003574192,-0.001806636,-0.008432655,0.002802583,-0.187538809
1609059617340040448,36,1609059617340040448,-0.010733999,-0.052567964,-0.033262370,-0.007974740,-0.021756289,0.000000460,0.999731498,0.009220502,-0.006974821,0.008024578,0.015985008,-0.002310975,-0.008042911,0.002229439,0.002833874,-0.010324399,0.000364103,0.000779909,-0.000019208,0.021656429,0.030670266,-0.103540653,0.006990205,-0.003574219,-0.001806636,-0.008370157,0.002741810,-0.185890384
1609059617451854336,37,1609059617451854336,-0.009645322,-0.053145097,-0.032360372,-0.007926152,-0.021757157,-0.000023270,0.999731865,0.010499591,-0.007456321,0.008729648,0.020687774,-0.005795240,-0.005387245,0.000000000,0.000000000,0.000000000,0.000000000,-0.000000000,0.000000000,0.000273426,0.001189987,0.000200722,0.006990206,-0.003574220,-0.001806636,-0.008370262,0.002741925,-0.185893232
1609059617544720896,38,1609059617544720896,-0.008675970,-0.053566685,-0.031619296,-0.007930011,-0.021763165,-0.000004650,0.999731704,0.010977903,-0.007255242,0.008920135,0.020845518,-0.005137730,-0.007402649,0.000018190,0.000058506,0.000003679,-0.000000895,0.000004629,0.000002150,-0.000794695,0.002538905,-0.001027347,0.006990208,-0.003574219,-0.001806636,-0.008369742,0.002741335,-0.185879031
1609059617640109312,39,1609059617640109312,-0.010298159,-0.051148869,-0.031857066,-0.008021078,-0.021815822,0.000027427,0.999729829,0.008184864,-0.003944173,0.006888606,0.015495883,-0.001661388,-0.009049330,-0.004948587,0.005064420,-0.001813012,0.000351953,0.001098358,0.000160714,-0.050469112,0.053505317,-0.018186395,0.006990249,-0.003574195,-0.001806638,-0.008360070,0.002730471,-0.185615053
1609059617751121408,40,1609059617751121408,-0.013161285,-0.047937546,-0.036348537,-0.007982295,-0.021885128,-0.000029028,0.999728625,0.003771858,0.001586953,0.002592676,0.021722514,-0.003251034,-0.006011399,-0.007084992,0.006120999,-0.009326644,0.000876952,0.001699534,0.000119281,-0.070255430,0.062174633,-0.093365494,0.006990294,-0.003574163,-0.001806639,-0.008312120,0.002674101,-0.184292959
1609059617844768000,41,1609059617844768000,-0.012704368,-0.047415831,-0.038611987,-0.008029170,-0.021850446,-0.000033293,0.999729008,0.004738886,0.001405491,0.000136672,0.018256348,-0.003324478,-0.006330499,0.000052074,0.000332667,-0.004346302,0.000627268,0.000620870,-0.000173398,-0.000091302,0.005209925,-0.044233791,0.006990291,-0.003574170,-0.001806637,-0.008290322,0.002647486,-0.183687885
1609059617940230144,42,1609059617940230144,-0.012178471,-0.045551601,-0.036742711,-0.008071602,-0.021816509,-0.000015215,0.999729408,0.005437934,0.002910970,0.002343397,0.014403643,-0.001734713,-0.008498161,-0.000085065,0.002750416,0.003259923,0.000694486,0.001106657,0.000306861,-0.001234666,0.029715989,0.032813055,0.006990307,-0.003574184,-0.001806641,-0.008305923,0.002667213,-0.184123966
1609059618051217408,43,1609059618051217408,-0.011222960,-0.046069540,-0.035698521,-0.007928365,-0.021798201,-0.000020734,0.999730953,0.006210689,0.002331054,0.004743828,0.021073159,-0.007777024,-0.004275658,0.000405016,-0.002018099,0.001175912,0.000367786,0.000607111,0.000280313,0.004710594,-0.018341463,0.011651416,0.006990287,-0.003574195,-0.001806645,-0.008311357,0.002674317,-0.184276960
1609059618145310464,44,1609059618145310464,-0.011904454,-0.045438506,-0.037498057,-0.007979738,-0.021807723,-0.000001921,0.999730337,0.005756089,0.002052352,0.001260796,0.018578123,-0.001654703,-0.006611166,-0.002522897,0.000409766,-0.003877167,0.000292208,0.001224558,0.000010178,-0.026151415,0.005867344,-0.038979405,0.006990291,-0.003574188,-0.001806645,-0.008293926,0.002650791,-0.183782114
1609059618241776384,45,1609059618241776384,-0.012639775,-0.044853046,-0.036090596,-0.008007767,-0.021808249,0.000038546,0.999730101,0.004946161,0.001700767,0.002450352,0.013318386,-0.001677541,-0.007801914,-0.002645796,0.000259054,0.002397581,0.000466476,0.001823544,0.000189662,-0.027114696,0.004907026,0.024003301,0.006990291,-0.003574188,-0.001806647,-0.008304297,0.002665174,-0.184078574
1609059618351482112,46,1609059618351482112,-0.012770176,-0.044058476,-0.034240952,-0.007901238,-0.021790835,-0.000005885,0.999731329,0.004582315,0.002581239,0.005353344,0.021451579,-0.005629816,-0.004795755,-0.001770955,0.000686393,0.002725279,0.000574983,0.002357794,0.000032908,-0.016956341,0.008582851,0.027095068,0.006990294,-0.003574202,-0.001806648,-0.008315783,0.002681523,-0.184409162
1609059618445366272,47,1609059618445366272,-0.016821803,-0.045732120,-0.037399080,-0.007872354,-0.021892390,0.000014434,0.999729338,-0.000467937,-0.001481106,0.000776930,0.018569164,-0.005920761,-0.007238377,-0.008300564,-0.003631569,-0.006620522,0.000673326,0.001634018,0.000282624,-0.083639850,-0.034280157,-0.066438013,0.006990262,-0.003574150,-0.001806652,-0.008288603,0.002641932,-0.183621697
1609059618540445440,48,1609059618540445440,-0.014553546,-0.047656107,-0.031365422,-0.007828158,-0.021790765,0.000033975,0.999731905,0.003770298,-0.004917477,0.008127023,0.015002625,-0.001747871,-0.008344594,0.003824340,-0.003672278,0.011000222,0.000076723,0.001436468,0.000080223,0.037855858,-0.034264226,0.109737370,0.006990231,-0.003574197,-0.001806653,-0.008332254,0.002706415,-0.184888858
1609059618651310336,49,1609059618651310336,-0.011967214,-0.047332968,-0.030734771,-0.007807535,-0.021707312,0.000011865,0.999733882,0.008209928,-0.005485404,0.008126375,0.021420421,-0.004978500,-0.005650807,0.003643758,0.001230806,-0.000331492,0.000401080,0.000882371,-0.000112427,0.035982860,0.014469674,-0.003483593,0.006990237,-0.003574238,-0.001806651,-0.008330914,0.002704399,-0.184849706
1609059618745106944,50,1609059618745106944,-0.012622114,-0.048559631,-0.032566920,-0.007791318,-0.021743834,0.000006697,0.999733215,0.007114319,-0.007391174,0.005102496,0.019443192,-0.003116804,-0.006091379,-0.002829334,-0.001604072,-0.004867392,0.000279218,0.000614377,-0.000045683,-0.028570791,-0.013840431,-0.048888363,0.006990224,-0.003574221,-0.001806651,-0.008312578,0.002676383,-0.184309263
1609059618840212736,51,1609059618840212736,-0.011762145,-0.048733719,-0.033212287,-0.007832979,-0.021719326,0.000013243,0.999733422,0.007955002,-0.008005167,0.004097522,0.015315380,-0.003015750,-0.008637622,0.000331154,0.000434809,-0.002125367,0.000220111,0.000615589,-0.000094521,0.002335078,0.007446615,-0.021705460,0.006990228,-0.003574231,-0.001806649,-0.008304734,0.002664223,-0.184076383
1609059618951279872,52,1609059618951279872,-0.011475706,-0.048721971,-0.032852357,-0.007755017,-0.021698114,-0.000025450,0.999734490,0.008419351,-0.006844932,0.005210740,0.020734422,-0.001446509,-0.006237033,-0.001565791,0.001334892,-0.000332464,0.000392971,0.001374924,0.000182838,-0.014886980,0.013868676,-0.003352084,0.006990236,-0.003574235,-0.001806652,-0.008303544,0.002662354,-0.184040735
1609059619046012416,53,1609059619046012416,-0.009987843,-0.049528383,-0.033105440,-0.007760088,-0.021661883,-0.000024795,0.999735237,0.010763391,-0.008430220,0.004513234,0.018190660,-0.003669394,-0.006458628,0.001178337,-0.000715346,-0.001269873,0.000198510,0.000507230,0.000037584,0.010425621,-0.004344218,-0.013519511,0.006990230,-0.003574250,-0.001806652,-0.008298948,0.002655030,-0.183901852
1609059619140285184,54,1609059619140285184,-0.010961079,-0.050650866,-0.032448040,-0.007749742,-0.021703107,-0.000006892,0.999734423,0.008902124,-0.010125699,0.005130786,0.015157299,-0.003345931,-0.006515907,-0.003823529,-0.001066199,0.000387370,0.000003870,0.000980884,-0.000018015,-0.038988319,-0.007809440,0.003626005,0.006990226,-0.003574229,-0.001806652,-0.008300150,0.002656964,-0.183938509
1609059619252960000,55,1609059619252960000,-0.008303366,-0.051110859,-0.032727095,-0.007705093,-0.021649311,-0.000038253,0.999735934,0.012002585,-0.009969263,0.005462021,0.021948189,-0.005872936,-0.005328600,0.002685912,0.000935840,-0.001676850,-0.000009637,0.000483642,-0.000004993,0.027683368,0.009934283,-0.017085639,0.006990233,-0.003574258,-0.001806652,-0.008294621,0.002647983,-0.183768533
1609059619347090432,56,1609059619347090432,-0.007157638,-0.051840909,-0.032353240,-0.007766282,-0.021652228,-0.000035152,0.999735397,0.013156731,-0.011058886,0.005095030,0.018140320,-0.005446468,-0.005580904,0.000000000,0.000000000,0.000000000,-0.000000000,-0.000000000,0.000000000,-0.001210967,0.002678151,-0.000981102,0.006990235,-0.003574258,-0.001806652,-0.008294339,0.002647507,-0.183759688
1609059619440509952,57,1609059619440509952,-0.005926545,-0.052533621,-0.031876763,-0.007797364,-0.021654880,-0.000014479,0.999735098,0.014293962,-0.011534506,0.005113823,0.015557451,-0.002481465,-0.008535089,-0.000014014,0.000037787,-0.000016935,0.000000324,0.000003796,0.000001797,-0.001511532,0.003542391,-0.000366913,0.006990238,-0.003574257,-0.001806652,-0.008294233,0.002647327,-0.183756331
1609059619554473728,58,1609059619554473728,-0.009079181,-0.050577532,-0.033811887,-0.007753439,-0.021785302,-0.000057467,0.999732605,0.008582795,-0.007263012,0.003667069,0.021327857,-0.008851610,-0.003114665,-0.009007210,0.005686732,-0.004972704,0.000357491,0.001216391,0.000188774,-0.087924321,0.056364996,-0.049740446,0.006990286,-0.003574200,-0.001806655,-0.008279382,0.002622545,-0.183287253
1609059619649059584,59,1609059619649059584,-0.010835631,-0.047396653,-0.032256296,-0.007892708,-0.021833741,-0.000050586,0.999730459,0.005633946,-0.002977500,0.004772410,0.020838918,-0.007200020,-0.005929425,-0.004853600,0.006676391,0.002596204,0.000636200,0.001649300,0.000033099,-0.049195517,0.068898624,0.025185202,0.006990339,-0.003574183,-0.001806656,-0.008286716,0.002634793,-0.183518947
1609059619743404032,60,1609059619743404032,-0.009445864,-0.049886254,-0.032650125,-0.007848991,-0.021820031,-0.000020856,0.999731103,0.007454231,-0.007048159,0.004260371,0.016474668,-0.001995324,-0.007684323,0.001433421,-0.004438151,-0.001648986,0.000082812,0.000535533,0.000073631,0.013776326,-0.041941719,-0.017041046,0.006990303,-0.003574199,-0.001806657,-0.008281876,0.002626698,-0.183366464
1609059619854454272,61,1609059619854454272,-0.008621493,-0.050443688,-0.032204218,-0.007794702,-0.021821749,-0.000049258,0.999731490,0.007921251,-0.007039163,0.005765290,0.022438483,-0.006913924,-0.005255638,0.000000000,0.000000000,0.000000000,-0.000000000,0.000000000,0.000000000,0.000229680,0.001043614,-0.000949479,0.006990304,-0.003574199,-0.001806657,-0.008281631,0.002626278,-0.183358682
1609059619948391936,62,1609059619948391936,-0.007865887,-0.050857863,-0.031790305,-0.007823744,-0.021825801,-0.000039430,0.999731175,0.008455910,-0.007902499,0.004419153,0.019561205,0.000135792,-0.006341828,0.000000000,0.000000000,0.000000000,-0.000000000,-0.000000000,0.000000000,-0.000642971,0.002687344,-0.000204263,0.006990306,-0.003574199,-0.001806657,-0.008281579,0.002626190,-0.183357038
1609059620041976320,63,1609059620041976320,-0.007116437,-0.051445181,-0.031943511,-0.007831487,-0.021814490,-0.000028417,0.999731361,0.009557788,-0.009097992,0.003397177,0.016264604,-0.002511526,-0.006786909,-0.000355157,-0.000058386,-0.001160042,0.000089258,0.000730122,0.000007312,-0.004178934,0.001963633,-0.011425681,0.006990307,-0.003574204,-0.001806657,-0.008278467,0.002621029,-0.183259850
1609059620154183168,64,1609059620154183168,-0.007629192,-0.050990040,-0.033608888,-0.007776797,-0.021858402,-0.000052178,0.999730828,0.008461496,-0.007223689,0.002116873,0.022885779,-0.005999369,-0.005375698,-0.003055253,0.002300708,-0.003995029,0.000175665,0.000753387,-0.000068133,-0.030102165,0.023567447,-0.040535371,0.006990326,-0.003574189,-0.001806656,-0.008267525,0.002602970,-0.182919258
1609059620248071936,65,1609059620248071936,-0.005625716,-0.051857508,-0.034418909,-0.007833922,-0.021793812,-0.000037032,0.999731793,0.010920713,-0.009219768,0.000003711,0.018338332,0.001665787,-0.008551846,0.002171855,-0.000765169,-0.001826383,0.000238932,0.000821184,-0.000043404,0.020462528,-0.004547478,-0.018286104,0.006990319,-0.003574215,-0.001806655,-0.008262691,0.002595037,-0.182769503
1609059620341902592,66,1609059620341902592,-0.005617335,-0.051031370,-0.034152726,-0.007905115,-0.021806293,-0.000013776,0.999730961,0.010196732,-0.007842056,0.000004782,0.015318081,0.000533101,-0.008759162,-0.001786449,0.002524509,0.000485191,0.000124802,0.000324900,0.000073510,-0.019266679,0.028368826,0.005246606,0.006990341,-0.003574205,-0.001806656,-0.008264039,0.002597244,-0.182811232
1609059620454445824,67,1609059620454445824,-0.004753052,-0.050675263,-0.032875919,-0.007840207,-0.021809172,-0.000050803,0.999731408,0.010452679,-0.006308457,0.003287503,0.022130661,-0.008596773,-0.004334685,-0.000889714,0.002007090,0.002439862,0.000335180,0.000697992,-0.000005883,-0.007489923,0.020398041,0.023403600,0.006990355,-0.003574209,-0.001806656,-0.008270115,0.002607145,-0.182998571
1609059620548113664,68,1609059620548113664,-0.003763894,-0.051099307,-0.032708070,-0.007884870,-0.021818104,-0.000054616,0.999730862,0.011136594,-0.007203142,0.002043900,0.020008251,-0.005993445,-0.006831838,0.000000000,0.000000000,0.000000000,0.000000000,-0.000000000,0.000000000,-0.000889609,0.002117097,-0.000267828,0.006990357,-0.003574208,-0.001806656,-0.008270052,0.002607041,-0.182996622
1609059620642411520,69,1609059620642411520,-0.005068486,-0.049738984,-0.032834295,-0.007928211,-0.021872738,-0.000030001,0.999729326,0.008752056,-0.004209506,0.001512064,0.018395726,-0.003472967,-0.005888296,-0.004484886,0.003252258,-0.000564147,0.000286745,0.001375521,0.000121714,-0.045963309,0.034422465,-0.005875528,0.006990384,-0.003574190,-0.001806658,-0.008268580,0.002604650,-0.182951493
1609059620755493376,70,1609059620755493376,-0.005829448,-0.048780137,-0.032205880,-0.007911390,-0.021917673,-0.000061854,0.999728474,0.007152528,-0.001965382,0.002114507,0.020491440,-0.004473596,-0.004661870,-0.003290928,0.002207464,0.001060440,0.000097611,0.000568529,-0.000081964,-0.032458169,0.022808551,0.010234343,0.006990403,-0.003574171,-0.001806657,-0.008271141,0.002608774,-0.183029352
1609059620848266752,71,1609059620848266752,-0.007670370,-0.046143269,-0.033337221,-0.008007921,-0.021932464,-0.000065671,0.999727381,0.004556892,0.000657311,0.000515887,0.021686776,-0.001967824,-0.007491186,-0.004858033,0.004855686,-0.002529623,0.000470875,0.001815039,0.000087126,-0.049381373,0.050666509,-0.025880250,0.006990442,-0.003574156,-0.001806659,-0.008264743,0.002598530,-0.182836529
1609059620942099200,72,1609059620942099200,-0.012774221,-0.046858967,-0.034436659,-0.007966096,-0.022055299,-0.000055069,0.999725013,-0.002355001,-0.000787099,-0.000914533,0.017178085,-0.001656199,-0.007673032,-0.010351865,-0.001833491,-0.002311575,0.000447516,0.001639602,0.000371405,-0.103949455,-0.016436940,-0.023132338,0.006990430,-0.003574091,-0.001806664,-0.008259037,0.002589469,-0.182666455
1609059621054895360,73,1609059621054895360,-0.013009229,-0.046723906,-0.034487422,-0.007916416,-0.022050092,-0.000077557,0.999725521,-0.001948384,-0.000811814,0.000392696,0.022257030,-0.003845952,-0.004512696,0.000000000,0.000000000,0.000000000,-0.000000000,0.000000000,-0.000000000,-0.000286498,0.001542319,-0.000661027,0.006990431,-0.003574091,-0.001806664,-0.008258885,0.002589230,-0.182662006
1609059621148100352,74,1609059621148100352,-0.012042078,-0.047124393,-0.030367387,-0.007960196,-0.021992031,-0.000065762,0.999726453,0.000036317,-0.002224121,0.004129508,0.019665645,-0.002438700,-0.007057701,0.001864109,-0.001011107,0.008462217,-0.000281292,0.001135748,-0.000104189,0.018645336,-0.008093102,0.084940156,0.006990427,-0.003574119,-0.001806663,-0.008279927,0.002621555,-0.183266492
1609059621241881344,75,1609059621241881344,-0.012507644,-0.047415513,-0.027835394,-0.007982407,-0.021964416,-0.000054618,0.999726884,-0.000168151,-0.003876082,0.006433640,0.015959309,-0.003316773,-0.006998495,-0.001139789,-0.000581442,0.004419731,0.000120959,0.001454312,0.000096630,-0.011472243,-0.003102294,0.044130033,0.006990425,-0.003574127,-0.001806664,-0.008290800,0.002638077,-0.183575010
1609059621354220288,76,1609059621354220288,-0.014162167,-0.043321036,-0.029712347,-0.007987529,-0.021966640,-0.000087815,0.999726792,-0.001553332,0.002371927,0.004692888,0.022881493,-0.007067227,-0.005181532,-0.003378410,0.007716100,-0.005430658,0.000089410,0.002599643,0.000217925,-0.034134380,0.078053765,-0.054052188,0.006990490,-0.003574134,-0.001806667,-0.008277333,0.002617838,-0.183197424
1609059621449510400,77,1609059621449510400,-0.014403088,-0.044443236,-0.031340740,-0.007974470,-0.021937351,-0.000070089,0.999727541,-0.001165976,0.000132535,0.001968617,0.019932708,-0.006748813,-0.006188424,-0.000421761,-0.002675410,-0.003972070,0.000270336,0.001189378,-0.000064670,-0.004259517,-0.025568460,-0.040466866,0.006990467,-0.003574143,-0.001806667,-0.008267370,0.002602948,-0.182920907
1609059621543064832,78,1609059621543064832,-0.014187636,-0.047354906,-0.032914279,-0.007925510,-0.021924967,-0.000037246,0.999728203,-0.000182705,-0.005373487,-0.000776875,0.017627396,-0.003471283,-0.007692986,0.000399198,-0.005678564,-0.003571141,0.000436462,0.000793632,0.000149959,0.003938856,-0.054477817,-0.035524339,0.006990419,-0.003574153,-0.001806669,-0.008258749,0.002590141,-0.182683479
1609059621641418240,79,1609059621641418240,-0.014515206,-0.047494003,-0.032086264,-0.007912849,-0.021919284,-0.000022041,0.999728429,0.000128893,-0.005788249,0.000292908,0.016186617,-0.001564307,-0.007614137,-0.000941609,0.000234108,0.001852367,0.000328592,0.001934254,0.000130991,-0.009625501,0.004868505,0.018618764,0.006990420,-0.003574168,-0.001806671,-0.008263235,0.002596739,-0.182806114
1609059621749258240,80,1609059621749258240,-0.014925351,-0.047390371,-0.033369791,-0.007896019,-0.021892536,-0.000044142,0.999729147,-0.000316398,-0.005814904,-0.000957948,0.019969448,-0.003772033,-0.007364117,-0.001118607,0.001004538,-0.002623480,0.000906088,0.001537087,0.000143459,-0.010880245,0.012018435,-0.026791174,0.006990420,-0.003574179,-0.001806673,-0.008256829,0.002587388,-0.182632000
1609059621843134720,81,1609059621843134720,-0.014381787,-0.047457882,-0.032815500,-0.007900203,-0.021843811,-0.000035066,0.999730180,0.001567420,-0.006079804,-0.000408855,0.018264377,-0.003009181,-0.006897501,0.000712440,0.000506787,0.001476919,0.000292767,0.001345457,-0.000010680,0.006841380,0.007377294,0.014540907,0.006990423,-0.003574201,-0.001806673,-0.008260286,0.002592398,-0.182725608
1609059621939890176,82,1609059621939890176,-0.012094322,-0.046846317,-0.033477726,-0.007913387,-0.021766081,-0.000032545,0.999731772,0.005030068,-0.005355139,-0.000931208,0.015697859,-0.003497644,-0.006683143,0.003728860,0.001865110,-0.001329873,0.000802018,0.001145334,0.000355789,0.037038641,0.021019296,-0.013365781,0.006990428,-0.003574245,-0.001806678,-0.008257166,0.002587891,-0.182641151
1609059622050305792,83,1609059622050305792,-0.011961316,-0.047436287,-0.035786793,-0.007865509,-0.021765005,-0.000045321,0.999732172,0.004863122,-0.005937085,-0.003159275,0.019757006,-0.001877781,-0.006747773,-0.000962110,-0.000416995,-0.004617140,0.000521553,0.000747790,0.000076338,-0.009248545,-0.002464951,-0.046350855,0.006990421,-0.003574246,-0.001806679,-0.008246454,0.002572383,-0.182349327
1609059622143744256,84,1609059622143744256,-0.011487350,-0.047693382,-0.036085947,-0.007921154,-0.021779556,-0.000019572,0.999731417,0.005546908,-0.006620823,-0.003647981,0.016167978,-0.002485187,-0.007574799,0.000000000,0.000000000,0.000000000,-0.000000000,-0.000000000,0.000000000,-0.000578181,0.002900886,0.000486341,0.006990423,-0.003574246,-0.001806679,-0.008246556,0.002572531,-0.182352114
1609059622241899520,85,1609059622241899520,-0.014546519,-0.045346203,-0.031957690,-0.007979598,-0.021862305,-0.000024651,0.999729146,0.001277941,-0.002545188,0.001262855,0.016321346,-0.003147745,-0.007947472,-0.006897566,0.004867868,0.009320930,-0.000025274,0.001632591,0.000041329,-0.069257349,0.050824595,0.093661059,0.006990468,-0.003574213,-0.001806680,-0.008267383,0.002602723,-0.182924801
1609059622349622784,86,1609059622349622784,-0.014358617,-0.045328479,-0.031762259,-0.007943519,-0.021848568,-0.000033952,0.999729733,0.001934300,-0.002591961,0.001876138,0.019771887,-0.000493159,-0.006395931,0.000000000,0.000000000,0.000000000,-0.000000000,-0.000000000,0.000000000,-0.000039385,0.001973059,0.000057733,0.006990470,-0.003574213,-0.001806680,-0.008267395,0.002602740,-0.182925123
1609059622443579904,87,1609059622443579904,-0.014787562,-0.046803845,-0.032468206,-0.007874063,-0.021830255,-0.000027783,0.999730683,0.001895384,-0.005610265,0.000394478,0.019057233,-0.001661375,-0.006118311,-0.001333474,-0.002559156,-0.001810052,0.000279988,0.001288980,0.000173643,-0.013833321,-0.023218119,-0.017901110,0.006990449,-0.003574216,-0.001806682,-0.008263477,0.002597076,-0.182817569
1609059622540438784,88,1609059622540438784,-0.014829670,-0.046269176,-0.033809392,-0.007892608,-0.021843919,-0.000010180,0.999730239,0.001991950,-0.004569070,-0.001836744,0.014893730,-0.001143927,-0.007854302,-0.000638621,0.001494649,-0.002937485,0.000802340,0.001086089,0.000003568,-0.006479808,0.017353889,-0.028743491,0.006990454,-0.003574225,-0.001806682,-0.008257280,0.002588166,-0.182647506
1609059622649741568,89,1609059622649741568,-0.013056889,-0.047763970,-0.032975180,-0.007817663,-0.021783262,-0.000017340,0.999732151,0.005158838,-0.006595122,0.000019897,0.019722641,-0.004379080,-0.006606964,0.002585848,-0.002184269,0.002158714,0.000315002,0.000812380,-0.000034570,0.025578919,-0.020180225,0.020955989,0.006990433,-0.003574254,-0.001806682,-0.008261764,0.002594592,-0.182770576
1609059622743291392,90,1609059622743291392,-0.012118519,-0.049638643,-0.034564413,-0.007812349,-0.021752792,0.000016698,0.999732856,0.006597373,-0.009442908,-0.001891305,0.016392052,-0.000132227,-0.007272210,0.000713051,-0.002686356,-0.003301457,0.000297711,0.000827022,0.000071103,0.006303654,-0.024281387,-0.033109752,0.006990411,-0.003574268,-0.001806683,-0.008254861,0.002584716,-0.182580282
1609059622840158720,91,1609059622840158720,-0.011166309,-0.047744445,-0.034927845,-0.007865886,-0.021730126,0.000013700,0.999732929,0.007774920,-0.006395780,-0.001666978,0.016357044,-0.002405418,-0.007332637,0.000276775,0.004726628,-0.000481983,0.000077907,0.001074033,0.000199988,0.002544967,0.049364931,-0.004773498,0.006990449,-0.003574285,-0.001806686,-0.008253879,0.002583314,-0.182552998
1609059622949543168,92,1609059622949543168,-0.010262408,-0.048173508,-0.035104250,-0.007789775,-0.021729767,-0.000014287,0.999733533,0.008366594,-0.006080130,-0.000565843,0.022236591,-0.006917617,-0.006554691,0.000000000,0.000000000,0.000000000,0.000000000,0.000000000,0.000000000,0.000478395,0.001273329,-0.000886469,0.006990450,-0.003574286,-0.001806686,-0.008253713,0.002583077,-0.182548340
1609059623043590400,93,1609059623043590400,-0.011319772,-0.046662578,-0.033249322,-0.007878886,-0.021756569,0.000017520,0.999732251,0.006850707,-0.004457630,0.000869706,0.018490415,-0.002883607,-0.006069187,-0.003579018,0.003384473,0.004091752,0.000409496,0.001475535,0.000150501,-0.036754116,0.036471821,0.041224324,0.006990477,-0.003574276,-0.001806688,-0.008261828,0.002594719,-0.182777966
1609059623141092608,94,1609059623141092608,-0.010615094,-0.046969033,-0.033386783,-0.007864098,-0.021768763,0.000011908,0.999732103,0.007716583,-0.004509116,-0.000283660,0.016029017,0.000156162,-0.008963589,-0.000030441,-0.000301022,-0.000393365,0.000028725,0.000132197,0.000016476,-0.000744704,-0.000938747,-0.003513917,0.006990476,-0.003574277,-0.001806688,-0.008261142,0.002593734,-0.182758438
1609059623249552384,95,1609059623249552384,-0.013551659,-0.047275662,-0.033353653,-0.007797890,-0.021854727,-0.000005530,0.999730746,0.003177210,-0.004418745,0.000519948,0.021624712,-0.005988241,-0.006198180,-0.007060676,-0.000091085,0.000017003,0.000253090,0.001507217,0.000035579,-0.070189763,0.000492602,-0.000025125,0.006990478,-0.003574238,-0.001806689,-0.008261137,0.002593725,-0.182758276
1609059623343284224,96,1609059623343284224,-0.011700539,-0.048641861,-0.034700859,-0.007787048,-0.021791598,0.000016526,0.999732208,0.006590943,-0.006940814,-0.002003764,0.015205512,-0.002734068,-0.008018722,0.002545904,-0.002114656,-0.002819588,0.000643028,0.001013058,0.000070819,0.024747122,-0.018388945,-0.027885181,0.006990454,-0.003574269,-0.001806690,-0.008255868,0.002586230,-0.182607823
1609059623440180480,97,1609059623440180480,-0.009614781,-0.048184354,-0.033634125,-0.007810761,-0.021719249,0.000002735,0.999733598,0.009546673,-0.006635557,-0.000429787,0.014382049,-0.001023270,-0.008296370,0.002337106,0.001547162,0.002578106,0.000080399,0.000878583,-0.000104777,0.022986355,0.018201564,0.025946013,0.006990467,-0.003574299,-0.001806688,-0.008260700,0.002593056,-0.182746341
1609059623549568768,98,1609059623549568768,-0.014627694,-0.045419327,-0.032662612,-0.007760081,-0.021875039,-0.000040267,0.999730595,0.001999001,0.000080691,0.002841501,0.019451648,-0.006814470,-0.006419545,-0.011042347,0.005614467,0.001907847,0.000073097,0.001566529,-0.000045119,-0.110319082,0.056486295,0.018182184,0.006990518,-0.003574232,-0.001806688,-0.008264028,0.002597753,-0.182842707
1609059623643646208,99,1609059623643646208,-0.013763290,-0.043631945,-0.034739941,-0.007837799,-0.021812809,-0.000006104,0.999731349,0.004121205,0.001071823,-0.000107558,0.017391797,-0.001426666,-0.008056430,0.000887236,0.002920818,-0.004895141,0.000662621,0.001764485,0.000228854,0.008190372,0.031556235,-0.049050129,0.006990536,-0.003574262,-0.001806692,-0.008255156,0.002585389,-0.182587047
1609059623741259776,100,1609059623741259776,-0.012000305,-0.043892481,-0.035042263,-0.007818122,-0.021760342,-0.000020598,0.999732646,0.006961034,-0.001079145,-0.000327105,0.016645018,-0.001269579,-0.007777491,0.002259775,-0.001013615,-0.000683599,0.000372381,0.000584097,0.000015890,0.022213551,-0.007583533,-0.006712421,0.006990524,-0.003574286,-0.001806692,-0.008253957,0.002583725,-0.182552463
1609059623850082560,101,1609059623850082560,-0.011162802,-0.043780709,-0.035063005,-0.007776459,-0.021769156,-0.000052522,0.999732778,0.008178332,-0.001027380,0.000317860,0.020478092,-0.006143390,-0.006286529,0.000039327,-0.000028695,0.000013672,-0.000001022,0.000005011,0.000000309,0.000394988,0.001335765,-0.000295621,0.006990525,-0.003574287,-0.001806692,-0.008253910,0.002583660,-0.182551107
1609059623944103168,102,1609059623944103168,-0.011355457,-0.043791916,-0.031794732,-0.007813109,-0.021760477,-0.000016582,0.999732683,0.007997285,-0.002646685,0.004012738,0.016140357,-0.001703363,-0.007307012,-0.001979769,-0.000201482,0.006875622,0.000242611,0.001519554,0.000146471,-0.020857865,0.000599893,0.068661279,0.006990525,-0.003574288,-0.001806694,-0.008265812,0.002600154,-0.182898123
1609059624040393728,103,1609059624040393728,-0.013310884,-0.046329502,-0.033454327,-0.007746259,-0.021797455,-0.000001061,0.999732397,0.005404962,-0.007621598,0.001523623,0.016804697,-0.002388377,-0.007958021,-0.005184534,-0.004530119,-0.004439239,0.000322130,0.001700796,0.000219398,-0.052913035,-0.042447238,-0.044159740,0.006990491,-0.003574264,-0.001806697,-0.008258309,0.002589760,-0.182678093
1609059624150386944,104,1609059624150386944,-0.011834446,-0.049601986,-0.034759002,-0.007595022,-0.021763135,-0.000035259,0.999734305,0.007375680,-0.011610841,0.000359902,0.021886844,-0.006079249,-0.005553338,0.001371845,-0.004766431,-0.003133439,-0.000106799,0.000916896,0.000003523,0.013824144,-0.046442528,-0.031551086,0.006990455,-0.003574284,-0.001806697,-0.008252992,0.002582469,-0.182521912
1609059624243723520,105,1609059624243723520,-0.010971120,-0.049382800,-0.035280817,-0.007684249,-0.021752154,0.000017425,0.999733862,0.008290648,-0.011148625,-0.000331106,0.014215879,-0.000200791,-0.006584226,0.000346881,0.001767564,-0.001132885,0.000093783,0.000492475,0.000117185,0.002300469,0.021298180,-0.011489531,0.006990470,-0.003574292,-0.001806699,-0.008251096,0.002579904,-0.182466022
1609059624342013184,106,1609059624342013184,-0.010138332,-0.050201586,-0.035302815,-0.007667592,-0.021743825,0.000011974,0.999734172,0.009247519,-0.012392123,-0.000181355,0.016183870,-0.001456067,-0.009340598,0.000000000,0.000000000,0.000000000,-0.000000000,0.000000000,-0.000000000,-0.000658575,0.003010973,-0.000028870,0.006990473,-0.003574292,-0.001806699,-0.008251092,0.002579898,-0.182465887
1609059624451016192,107,1609059624451016192,-0.009149570,-0.051236956,-0.035276590,-0.007600867,-0.021753885,-0.000002929,0.999734462,0.009424026,-0.012062072,0.000352400,0.019812390,-0.006026967,-0.006621607,0.000000000,0.000000000,0.000000000,0.000000000,0.000000000,-0.000000000,0.000331148,0.001220403,-0.000067209,0.006990474,-0.003574292,-0.001806699,-0.008251082,0.002579884,-0.182465587
1609059624541338624,108,1609059624541338624,-0.009406747,-0.047867228,-0.036030875,-0.007751466,-0.021778118,0.000021283,0.999732778,0.008759553,-0.006856402,-0.001169630,0.016461058,-0.001150403,-0.007857451,-0.002197371,0.007688030,-0.001622879,0.000360681,0.000946441,0.000074058,-0.023141389,0.080187548,-0.016021751,0.006990534,-0.003574290,-0.001806700,-0.008248552,0.002576567,-0.182389722
1609059624646738432,109,1609059624646738432,-0.011964997,-0.048543761,-0.037459048,-0.007751160,-0.021866712,0.000021845,0.999730847,0.004479967,-0.007803437,-0.001962026,0.020355711,-0.000808271,-0.006183946,-0.006462575,-0.000348472,-0.002950193,0.000082574,0.000730842,0.000065933,-0.064534462,-0.001517382,-0.029620880,0.006990536,-0.003574247,-0.001806701,-0.008243921,0.002570520,-0.182250564
1609059624749919744,110,1609059624749919744,-0.012810718,-0.049638109,-0.034719069,-0.007704769,-0.021884963,0.000023773,0.999730806,0.003416868,-0.008562775,0.000862907,0.019561054,-0.005208729,-0.004235449,-0.002629351,-0.000866552,0.006443727,0.000107000,0.001083417,0.000078906,-0.026325133,-0.007354768,0.064310411,0.006990531,-0.003574239,-0.001806702,-0.008253988,0.002583486,-0.182550731
1609059624853057024,111,1609059624853057024,-0.010688679,-0.050076741,-0.036600258,-0.007664438,-0.021810574,0.000024742,0.999732742,0.006563168,-0.008905040,-0.001482653,0.021491589,-0.005717474,-0.003650996,0.002971198,0.000511697,-0.003957366,0.000060561,0.000620022,-0.000047827,0.029638247,0.006611214,-0.040209393,0.006990534,-0.003574270,-0.001806702,-0.008247695,0.002575505,-0.182364594
1609059624955962112,112,1609059624955962112,-0.013408906,-0.046998244,-0.035165670,-0.007756303,-0.021868157,0.000013327,0.999730775,0.002814028,-0.003951591,0.000561399,0.022020239,-0.004701743,-0.002759667,-0.006379062,0.006859996,0.003574082,0.000351068,0.001654962,-0.000080223,-0.064151790,0.070024097,0.034948985,0.006990590,-0.003574242,-0.001806701,-0.008253119,0.002582338,-0.182524949
1609059625059198464,113,1609059625059198464,-0.012382689,-0.047170340,-0.035455846,-0.007722001,-0.021872803,0.000011300,0.999730939,0.004657356,-0.003799154,-0.000751174,0.021892317,-0.009877134,-0.003417722,0.001215045,0.000262723,-0.000410201,0.000039661,0.000101989,0.000001722,0.011904191,0.003221803,-0.004429436,0.006990591,-0.003574253,-0.001806701,-0.008252436,0.002581482,-0.182504900
1609059625162179328,114,1609059625162179328,-0.013571309,-0.046460869,-0.035084624,-0.007698780,-0.021897216,-0.000006472,0.999730584,0.003598984,-0.002266547,0.000265757,0.021282217,-0.007779833,-0.002070476,-0.003257180,0.001850796,0.001211532,0.000319188,0.001239379,-0.000067773,-0.033072593,0.019000820,0.010939728,0.006990605,-0.003574243,-0.001806700,-0.008254133,0.002583598,-0.182554424
1609059625266400000,115,1609059625266400000,-0.012591697,-0.045408927,-0.034527407,-0.007692313,-0.021868058,-0.000024961,0.999731272,0.005233966,-0.000955733,0.000359841,0.019288562,-0.008352254,-0.000628868,0.000699335,0.002417524,0.001504545,0.000285798,0.001436548,-0.000068885,0.007106043,0.024169688,0.014265863,0.006990621,-0.003574267,-0.001806699,-0.008256345,0.002586333,-0.182618419
1609059625368346880,116,1609059625368346880,-0.012397968,-0.045216485,-0.036519327,-0.007684017,-0.021867390,-0.000022853,0.999731350,0.005363668,-0.000679770,-0.001352473,0.018705450,-0.008930906,-0.000456523,-0.000713843,0.000657420,-0.004161190,0.000244041,0.000638699,-0.000024336,-0.007458366,0.006303599,-0.042625224,0.006990624,-0.003574269,-0.001806699,-0.008249829,0.002578290,-0.182430594
1609059625471310592,117,1609059625471310592,-0.012531138,-0.045627311,-0.035604487,-0.007672741,-0.021856905,-0.000015684,0.999731666,0.005257353,-0.002261328,-0.001020385,0.014640011,-0.005976728,0.000233168,-0.001377938,-0.000371553,0.002505028,0.000721076,0.001263527,0.000031019,-0.014410306,-0.003411148,0.024948412,0.006990614,-0.003574273,-0.001806699,-0.008253616,0.002582964,-0.182539474
1609059625542162944,118,1609059625542162944,-0.013363555,-0.045852539,-0.033097888,-0.007829782,-0.021839720,-0.000013679,0.999730824,0.004003603,-0.005363692,0.001037545,0.018339720,-0.003622120,-0.009101725,-0.002297216,-0.000234384,0.005872599,0.000228470,0.000933688,-0.000025105,-0.024718932,0.000783546,0.059264270,0.006990614,-0.003574265,-0.001806699,-0.008262361,0.002593766,-0.182790514
1609059625644007424,119,1609059625644007424,-0.011379323,-0.045958597,-0.034791741,-0.007823273,-0.021767837,-0.000017478,0.999732443,0.006423011,-0.005081810,-0.001006232,0.016419409,0.001598536,-0.009035726,0.002974564,0.000246245,-0.004079352,0.000107638,0.000687805,0.000133093,0.029326087,0.004611833,-0.040637169,0.006990615,-0.003574296,-0.001806701,-0.008256401,0.002586407,-0.182619784
1609059625749497088,120,1609059625749497088,-0.010662363,-0.046415570,-0.034883928,-0.007763838,-0.021750697,-0.000031975,0.999733279,0.007493834,-0.006104992,-0.000552488,0.021617401,-0.002453843,-0.005622223,-0.000107221,-0.000214522,-0.000012622,0.000005719,0.000099380,0.000000876,-0.000994012,-0.000319905,-0.000365799,0.006990615,-0.003574296,-0.001806701,-0.008256350,0.002586344,-0.182618318
1609059625850284032,121,1609059625850284032,-0.009356596,-0.045993389,-0.036035854,-0.007755498,-0.021713343,-0.000024859,0.999734156,0.009538134,-0.005530728,-0.002269693,0.021290723,-0.003616803,-0.005775744,0.000831284,0.001582487,-0.002280849,0.000640531,0.001040930,0.000278026,0.007548433,0.017833796,-0.022862934,0.006990621,-0.003574316,-0.001806705,-0.008253060,0.002582219,-0.182522753
1609059625954215936,122,1609059625954215936,-0.008314049,-0.046604696,-0.036308075,-0.007725592,-0.021715143,-0.000058768,0.999734347,0.010179189,-0.006088934,-0.002222571,0.019709365,-0.004364937,-0.004738888,-0.000026411,-0.000350379,0.000062514,0.000007317,0.000091314,0.000003137,-0.000043381,-0.002333389,0.000060411,0.006990619,-0.003574316,-0.001806705,-0.008253075,0.002582238,-0.182523180
1609059626054726144,123,1609059626054726144,-0.008843084,-0.047557653,-0.036100037,-0.007724872,-0.021738197,-0.000051697,0.999733852,0.009194564,-0.008298939,-0.002114252,0.021557808,-0.004723807,-0.004933503,-0.003003932,-0.000770545,0.001140574,0.000185179,0.000728320,0.000097531,-0.030607877,-0.005889771,0.011082936,0.006990614,-0.003574301,-0.001806706,-0.008254617,0.002584218,-0.182569047
1609059626158308608,124,1609059626158308608,-0.007311478,-0.048419279,-0.035681681,-0.007680171,-0.021714233,-0.000077496,0.999734715,0.011022789,-0.008554627,0.000052464,0.021095628,-0.009755824,-0.004638105,0.000752133,-0.000074151,0.001427641,0.000009921,0.000219694,0.000005904,0.007895239,-0.000527363,0.012984691,0.006990613,-0.003574309,-0.001806706,-0.008256416,0.002586550,-0.182623060
1609059626261777664,125,1609059626261777664,-0.010319028,-0.049632706,-0.034927398,-0.007646063,-0.021798542,-0.000069044,0.999733143,0.005684527,-0.009868718,0.001510489,0.018508278,-0.007796040,-0.002399896,-0.007730915,-0.000647629,0.001848409,0.000102896,0.001250567,0.000390224,-0.076797498,-0.005809773,0.017294345,0.006990612,-0.003574262,-0.001806712,-0.008258757,0.002589622,-0.182694289
1609059626366475776,126,1609059626366475776,-0.008420374,-0.050079319,-0.035367506,-0.007634211,-0.021766769,-0.000051389,0.999733927,0.008383528,-0.008900150,0.000998166,0.015990753,-0.005757986,0.000067806,0.002148150,0.001122769,-0.001056170,0.000141373,0.000562781,0.000054611,0.021304578,0.010574432,-0.011327401,0.006990618,-0.003574287,-0.001806713,-0.008257251,0.002587646,-0.182648351
1609059626468487168,127,1609059626468487168,-0.007579522,-0.050742767,-0.035181452,-0.007672098,-0.021753289,-0.000059478,0.999733929,0.009007228,-0.009350863,0.001245529,0.017047120,-0.008185821,-0.001563310,-0.000055079,0.000470871,0.000463353,0.000002903,0.000203088,0.000019226,-0.000890091,0.005018972,0.003664738,0.006990622,-0.003574289,-0.001806713,-0.008257742,0.002588295,-0.182663423
1609059626571579648,128,1609059626571579648,-0.009516159,-0.050712025,-0.033856232,-0.007704138,-0.021811963,-0.000053411,0.999732405,0.006517032,-0.008365220,0.001952609,0.015117776,-0.007688666,0.001079689,-0.005388216,0.002065113,0.002919008,0.000204595,0.001086029,0.000030414,-0.054184001,0.019773470,0.028598438,0.006990640,-0.003574259,-0.001806714,-0.008261445,0.002593260,-0.182778190
1609059626642094592,129,1609059626642094592,-0.009198572,-0.050108900,-0.034171185,-0.007886178,-0.021762129,-0.000041686,0.999732072,0.006680103,-0.009516737,0.000284107,0.018018901,-0.002341254,-0.008522938,-0.000226305,0.001995516,-0.000785737,0.000171958,0.000356078,0.000018742,-0.004192372,0.024517590,-0.008074833,0.006990657,-0.003574261,-0.001806714,-0.008260431,0.002591891,-0.182746707
1609059626743574272,130,1609059626743574272,-0.008016344,-0.050462211,-0.033695920,-0.007915844,-0.021730413,-0.000041985,0.999732528,0.007836904,-0.010349444,0.001031848,0.017424567,-0.002971018,-0.008645993,0.000894568,0.000619259,0.000897859,0.000034536,0.000367542,0.000112521,0.008625625,0.009023662,0.009071391,0.006990663,-0.003574273,-0.001806716,-0.008261559,0.002593435,-0.182781849
1609059626846412800,131,1609059626846412800,-0.007182359,-0.051235434,-0.033610952,-0.007893457,-0.021729441,-0.000052934,0.999732725,0.008683265,-0.010535285,0.001304053,0.021074582,-0.002737554,-0.007649968,0.000000000,0.000000000,0.000000000,-0.000000000,-0.000000000,0.000000000,-0.000246216,0.002009749,-0.000341636,0.006990665,-0.003574273,-0.001806716,-0.008261520,0.002593380,-0.182780623
1609059626949452800,132,1609059626949452800,-0.005528574,-0.050611643,-0.033364546,-0.007910696,-0.021703095,-0.000055097,0.999733161,0.010224993,-0.008917736,0.001225531,0.019979864,-0.002914784,-0.006609852,0.001416254,0.002672774,0.000339604,0.000172212,0.000264587,0.000015929,0.013774566,0.028647975,0.003299726,0.006990685,-0.003574288,-0.001806716,-0.008261921,0.002593948,-0.182793268
1609059627050997504,133,1609059627050997504,-0.004411262,-0.051324106,-0.033319222,-0.007910599,-0.021692381,-0.000070023,0.999733394,0.011367483,-0.009119575,0.000489694,0.017456019,-0.006092069,-0.007052550,0.000000000,0.000000000,0.000000000,-0.000000000,-0.000000000,0.000000000,-0.000138911,0.001425908,-0.000027416,0.006990686,-0.003574288,-0.001806716,-0.008261918,0.002593943,-0.182793168
1609059627154438144,134,1609059627154438144,-0.006740323,-0.047068749,-0.030255525,-0.007991453,-0.021783668,-0.000064304,0.999730766,0.007236594,-0.001515244,0.004701619,0.021538004,-0.005999940,-0.003032242,-0.006705391,0.009213334,0.006581113,0.000444815,0.001176792,0.000175508,-0.066332098,0.092064142,0.065041778,0.006990759,-0.003574254,-0.001806719,-0.008269591,0.002605404,-0.183041183
1609059627258007296,135,1609059627258007296,-0.006813343,-0.050288640,-0.027262498,-0.007853231,-0.021807098,-0.000047537,0.999731351,0.006845268,-0.005552279,0.008138202,0.022469273,-0.008910778,-0.003964780,-0.001776423,-0.005587228,0.005613337,0.000138765,0.000871830,0.000110312,-0.017462996,-0.055465262,0.055172201,0.006990714,-0.003574247,-0.001806721,-0.008276092,0.002615329,-0.183250754
1609059627361147904,136,1609059627361147904,-0.008330628,-0.050175420,-0.025510576,-0.007858070,-0.021845387,-0.000048638,0.999730477,0.004857522,-0.004889845,0.009342842,0.020608317,-0.008233333,-0.003035392,-0.004270818,0.001183021,0.002220121,0.000132050,0.001181477,0.000045572,-0.042746019,0.012076115,0.021465425,0.006990725,-0.003574228,-0.001806721,-0.008278616,0.002619220,-0.183331792
1609059627464278784,137,1609059627464278784,-0.012044316,-0.047701081,-0.026927084,-0.007911249,-0.021931764,-0.000057360,0.999728166,0.000160982,-0.000892137,0.007380458,0.017729411,-0.010811472,-0.001427450,-0.007818881,0.005350200,-0.004914926,0.000594225,0.001738013,0.000101070,-0.078386693,0.053414206,-0.050062182,0.006990766,-0.003574188,-0.001806723,-0.008272728,0.002610094,-0.183144356
1609059627567514368,138,1609059627567514368,-0.012584724,-0.049192211,-0.028457258,-0.007860361,-0.021929255,-0.000046630,0.999728623,-0.000071418,-0.003322995,0.005353386,0.019488977,-0.010161440,-0.001061135,-0.001198981,-0.002272956,-0.004535679,0.000250652,0.000824939,0.000081109,-0.012025194,-0.022897718,-0.046737822,0.006990746,-0.003574187,-0.001806724,-0.008267168,0.002601463,-0.182970881
1609059627670237440,139,1609059627670237440,-0.011856592,-0.047936610,-0.029089607,-0.007884214,-0.021912653,-0.000046026,0.999728800,0.001793927,-0.000888915,0.004093976,0.015481561,-0.008692375,0.001542875,0.001053105,0.003008663,-0.002211179,0.000084263,0.000849212,0.000098988,0.010300424,0.029159914,-0.023033034,0.006990768,-0.003574207,-0.001806726,-0.008264394,0.002597179,-0.182886007
1609059627740649984,140,1609059627740649984,-0.013984667,-0.044880809,-0.029952901,-0.008173349,-0.021901428,-0.000011179,0.999726725,-0.000597612,0.000510918,0.000744985,0.012222066,-0.001104769,-0.007102703,-0.004495598,0.005653631,-0.002256081,0.000630628,0.002350396,0.000031925,-0.045824144,0.059427424,-0.022854500,0.006990811,-0.003574202,-0.001806727,-0.008261686,0.002592992,-0.182804122
1609059627842521088,141,1609059627842521088,-0.012342254,-0.045662569,-0.030543586,-0.008150109,-0.021836602,-0.000005037,0.999728332,0.002653150,-0.000983839,-0.000680234,0.017207030,0.001173049,-0.008291804,0.002955592,-0.002025308,-0.001525681,0.000285887,0.000684865,0.000223460,0.029091601,-0.018160681,-0.014581771,0.006990792,-0.003574233,-0.001806730,-0.008259931,0.002590248,-0.182751939
1609059627946083072,142,1609059627946083072,-0.012101085,-0.045475831,-0.030603916,-0.008116581,-0.021842451,-0.000019895,0.999728477,0.002398969,-0.000369156,-0.000358130,0.019703593,-0.002435657,-0.006200895,-0.000002972,-0.000005127,-0.000010136,0.000001667,0.000003839,0.000000379,-0.000012423,0.001565343,-0.000254891,0.006990793,-0.003574233,-0.001806730,-0.008259901,0.002590201,-0.182751070
1609059628048667648,143,1609059628048667648,-0.011809382,-0.045260961,-0.030621306,-0.008090646,-0.021842496,-0.000026752,0.999728686,0.003355223,0.000350347,0.000486169,0.021514280,-0.005037443,-0.005867884,0.000000000,0.000000000,0.000000000,-0.000000000,-0.000000000,0.000000000,-0.000312467,0.001282411,-0.000495346,0.006990794,-0.003574233,-0.001806730,-0.008259845,0.002590111,-0.182749439
1609059628151597824,144,1609059628151597824,-0.009811144,-0.045574431,-0.030020618,-0.008029908,-0.021777293,-0.000023883,0.999730598,0.006014983,0.000106734,0.001537481,0.021623213,-0.002338610,-0.006084319,0.002644100,-0.000927327,0.001301509,0.000458469,0.001412280,0.000145717,0.026591276,-0.008166268,0.012395053,0.006990781,-0.003574270,-0.001806732,-0.008261361,0.002592573,-0.182793439
1609059628254879232,145,1609059628254879232,-0.010247655,-0.046040144,-0.028773242,-0.007958074,-0.021783034,-0.000038739,0.999731047,0.005524768,-0.000892429,0.003475199,0.022637898,-0.005529210,-0.003992096,-0.002199241,-0.001104508,0.002423255,0.000548787,0.001495375,0.000039579,-0.022200394,-0.009636157,0.023554637,0.006990768,-0.003574270,-0.001806733,-0.008264212,0.002597275,-0.182876385
1609059628358010624,146,1609059628358010624,-0.012290369,-0.045520421,-0.031569944,-0.007904329,-0.021837038,-0.000047252,0.999730295,0.003038949,-0.000402117,0.000402826,0.023401216,-0.006074125,-0.003110201,-0.004947111,0.000940718,-0.006639186,0.000659726,0.001333831,0.000064617,-0.049826751,0.010490007,-0.067380080,0.006990772,-0.003574247,-0.001806734,-0.008256165,0.002583900,-0.182641860
1609059628461334272,147,1609059628461334272,-0.013055795,-0.047617271,-0.031003631,-0.007805017,-0.021854626,-0.000044352,0.999730691,0.002484633,-0.003555576,0.000576078,0.021736136,-0.006234995,-0.003440665,-0.002250821,-0.003741284,0.001490469,0.000412807,0.001299240,0.000028815,-0.022603309,-0.036662904,0.014150649,0.006990740,-0.003574242,-0.001806734,-0.008257864,0.002586720,-0.182691123
1609059628564254976,148,1609059628564254976,-0.013736388,-0.047297599,-0.031006457,-0.007786989,-0.021870318,-0.000061497,0.999730488,0.002159277,-0.002469183,0.000918306,0.018952921,-0.006012680,-0.001531071,-0.001971760,0.001222976,0.000146464,0.000386723,0.001276049,-0.000042798,-0.019906582,0.012214948,0.000306248,0.006990747,-0.003574242,-0.001806734,-0.008257910,0.002586794,-0.182692445
1609059628667524864,149,1609059628667524864,-0.014632814,-0.049024698,-0.032150607,-0.007704856,-0.021911492,-0.000063619,0.999730222,0.001728727,-0.005005991,0.000228404,0.019390620,-0.007597014,-0.000382574,-0.002270153,-0.002449679,-0.002395409,0.000230712,0.001314433,0.000160956,-0.023079485,-0.024571208,-0.025318331,0.006990726,-0.003574238,-0.001806736,-0.008254879,0.002581866,-0.182606001
