time,field.header.seq,field.header.stamp,field.pose.pose.position.x,field.pose.pose.position.y,field.pose.pose.position.z,field.pose.pose.orientation.x,field.pose.pose.orientation.y,field.pose.pose.orientation.z,field.pose.pose.orientation.w,field.twist.twist.linear.x,field.twist.twist.linear.y,field.twist.twist.linear.z,field.twist.twist.angular.x,field.twist.twist.angular.y,field.twist.twist.angular.z,gbx,gby,gbz,abx,aby,abz
1609059015273656064,0,1609059015273656064,-0.000302339,-0.000573946,-0.000035345,0.001595788,-0.044577768,-0.000634414,0.999004441,-0.004055253,-0.006312279,-0.000670056,0.013897405,-0.000710914,-0.003157216,0.006740321,-0.003621564,-0.001756668,-0.016194595,-0.000196730,-0.186189755
1609059015368644096,1,1609059015368644096,-0.001504713,-0.001535956,-0.000322396,0.001769549,-0.045191086,-0.000742494,0.998976518,-0.011363813,-0.011205106,-0.002480871,0.010250994,-0.001398194,-0.004516441,0.006740330,-0.003621565,-0.001756669,-0.015967170,-0.000191924,-0.183603028
1609059015479629824,2,1609059015479629824,-0.004162763,-0.003810504,-0.001032186,0.002298409,-0.045740110,-0.000733764,0.998950460,-0.021498242,-0.018479830,-0.005035459,0.020593552,-0.001811117,-0.000917113,0.006740345,-0.003621567,-0.001756669,-0.015688848,-0.000184159,-0.180467349
1609059015574507776,3,1609059015574507776,-0.008076425,-0.007319578,-0.003245163,0.002855624,-0.046310564,-0.000669690,0.998922784,-0.033078704,-0.029761433,-0.013341848,0.013646944,-0.002833668,-0.003739465,0.006740359,-0.003621570,-0.001756670,-0.014871394,-0.000156945,-0.171322061
1609059015668402432,4,1609059015668402432,-0.013280045,-0.009877758,-0.007412118,0.002685784,-0.046672087,-0.000578243,0.998906486,-0.046029272,-0.033421145,-0.025108186,0.009483761,-0.001324318,-0.005988212,0.006740376,-0.003621580,-0.001756672,-0.013804960,-0.000115222,-0.159473935
1609059015780409600,5,1609059015780409600,-0.020135897,-0.014346356,-0.014348672,0.002862942,-0.046709794,-0.000520180,0.998904264,-0.057411425,-0.037233048,-0.040267167,0.024024198,-0.005123048,0.000445684,0.006740390,-0.003621591,-0.001756674,-0.012753050,-0.000069408,-0.147875936
1609059015873701376,6,1609059015873701376,-0.025525698,-0.018421801,-0.023028265,0.002825828,-0.046564912,-0.000456935,0.998911165,-0.063229717,-0.042509596,-0.056491328,0.018211503,-0.001869448,-0.002546642,0.006740406,-0.003621603,-0.001756677,-0.011706776,-0.000020618,-0.136396855
1609059015968589824,7,1609059015968589824,-0.032388967,-0.023541643,-0.029815975,0.002848725,-0.046549781,-0.000375568,0.998911839,-0.071078718,-0.049669917,-0.064559445,0.008269330,-0.002497371,-0.006484053,0.006740429,-0.003621619,-0.001756680,-0.011469448,-0.000008948,-0.133802453
1609059016080282368,8,1609059016080282368,-0.038273510,-0.027018808,-0.031665524,0.002653411,-0.046203397,-0.000387016,0.998928454,-0.072189699,-0.048286418,-0.058251994,0.018225886,-0.000449796,-0.000734240,0.006740441,-0.003621643,-0.001756682,-0.012339034,-0.000054141,-0.143272255
1609059016173344512,9,1609059016173344512,-0.043213424,-0.031409281,-0.035416703,0.002546412,-0.045977161,-0.000339512,0.998939188,-0.072852285,-0.051629524,-0.058677701,0.016468974,-0.003305941,-0.001385971,0.006740454,-0.003621658,-0.001756685,-0.012578394,-0.000066941,-0.145873649
1609059016268229376,10,1609059016268229376,-0.042160164,-0.032851769,-0.035891642,0.002282071,-0.045398754,-0.000300769,0.998966293,-0.062618519,-0.049889370,-0.053816614,0.008838210,-0.000337482,-0.005365487,0.006740458,-0.003621679,-0.001756686,-0.013152455,-0.000098325,-0.152106117
1609059016379208960,11,1609059016379208960,-0.043572944,-0.035360750,-0.035653004,0.002113700,-0.045047721,-0.000301156,0.998982555,-0.057859694,-0.047701982,-0.046690481,0.017676001,-0.001235741,-0.002252970,0.006740469,-0.003621698,-0.001756688,-0.013751244,-0.000131358,-0.158611895
1609059016472890624,12,1609059016472890624,-0.043236199,-0.034483610,-0.033429675,0.001769715,-0.044756147,-0.000294707,0.998996331,-0.050726912,-0.042597077,-0.038221387,0.012640609,-0.001072879,-0.005827522,0.006740484,-0.003621722,-0.001756691,-0.014317736,-0.000162650,-0.164775261
1609059016567803392,13,1609059016567803392,-0.044213738,-0.033933598,-0.041725200,0.001554657,-0.044572729,-0.000294159,0.999004889,-0.046909377,-0.038352752,-0.047188204,0.011143135,-0.002679314,-0.005270232,0.006740490,-0.003621735,-0.001756692,-0.013980014,-0.000144320,-0.161091545
1609059016679177472,14,1609059016679177472,-0.048871654,-0.037406542,-0.048176492,0.001605144,-0.044495677,-0.000287495,0.999008246,-0.049021490,-0.038234734,-0.051159882,0.024180599,-0.001237568,0.001655463,0.006740491,-0.003621737,-0.001756692,-0.013906787,-0.000140470,-0.160290056
1609059016773328640,15,1609059016773328640,-0.048696767,-0.038006466,-0.053296258,0.001469869,-0.044321086,-0.000271522,0.999016220,-0.044642789,-0.036938744,-0.054302957,0.017853923,-0.001181463,-0.001280723,0.006740496,-0.003621752,-0.001756693,-0.013875282,-0.000138876,-0.159944113
1609059016868166144,16,1609059016868166144,-0.052768996,-0.041169960,-0.058150982,0.001457656,-0.044311371,-0.000273489,0.999016668,-0.046844839,-0.038941131,-0.056787793,0.010763606,-0.003360000,-0.005582160,0.006740497,-0.003621753,-0.001756693,-0.013895018,-0.000139852,-0.160161717
1609059016979616768,17,1609059016979616768,-0.057942818,-0.045277786,-0.064862301,0.001518708,-0.044355929,-0.000285048,0.999014596,-0.049836786,-0.039633357,-0.060227520,0.025030419,-0.003736350,0.001397956,0.006740498,-0.003621754,-0.001756693,-0.013882902,-0.000139285,-0.160027393
1609059017073848064,18,1609059017073848064,-0.062346720,-0.048736678,-0.070189963,0.001480491,-0.044365582,-0.000288164,0.999014224,-0.050426881,-0.042118659,-0.062533313,0.017009977,-0.002403600,-0.002706355,0.006740499,-0.003621756,-0.001756693,-0.013902877,-0.000140173,-0.160249819
1609059017168544256,19,1609059017168544256,-0.060326503,-0.046928830,-0.071821966,0.001269784,-0.044149336,-0.000300587,0.999024091,-0.043261259,-0.037630227,-0.060231845,0.008708104,-0.001214465,-0.006076841,0.006740518,-0.003621790,-0.001756694,-0.014094297,-0.000148253,-0.162389626
1609059017279754496,20,1609059017279754496,-0.055116654,-0.043605237,-0.066326866,0.001110828,-0.043847885,-0.000305351,0.999037555,-0.032979390,-0.028701527,-0.048840584,0.021854948,-0.005032708,0.000847566,0.006740549,-0.003621845,-0.001756695,-0.014595941,-0.000167459,-0.168033651
1609059017373468416,21,1609059017373468416,-0.055521106,-0.044315384,-0.066170707,0.000991813,-0.043792135,-0.000324989,0.999040119,-0.030433700,-0.028333674,-0.045371294,0.014470112,-0.002080270,-0.004408921,0.006740558,-0.003621860,-0.001756696,-0.014782352,-0.000173729,-0.170147369
1609059017468150784,22,1609059017468150784,-0.053135980,-0.043765125,-0.062849040,0.000887949,-0.043686653,-0.000338730,0.999044830,-0.024847493,-0.025470269,-0.038658172,0.014431970,0.000978286,-0.004058529,0.006740575,-0.003621894,-0.001756696,-0.015070144,-0.000181817,-0.173438596
1609059017578573568,23,1609059017578573568,-0.039362433,-0.042979464,-0.041299860,0.000801200,-0.043282249,-0.000348836,0.999062502,-0.005061132,-0.020840822,-0.012113610,0.019411242,-0.004747010,-0.000619025,0.006740602,-0.003622010,-0.001756691,-0.015955930,-0.000200546,-0.183673933
1609059017674319360,24,1609059017674319360,-0.037716841,-0.045216621,-0.037985433,0.000793503,-0.043192515,-0.000348976,0.999066392,-0.002052035,-0.021826259,-0.007551803,0.017965410,-0.000157905,-0.002086822,0.006740602,-0.003622024,-0.001756691,-0.016102998,-0.000202530,-0.185396162
1609059017768546048,25,1609059017768546048,-0.037984033,-0.047041966,-0.038680757,0.000754857,-0.043176043,-0.000351487,0.999067133,-0.001734508,-0.023191631,-0.008663020,0.009425450,-0.004036553,-0.005700151,0.006740603,-0.003622024,-0.001756691,-0.016105199,-0.000202536,-0.185422452
1609059017880162304,26,1609059017880162304,-0.038244312,-0.049551128,-0.039630477,0.000809521,-0.043185278,-0.000371618,0.999066684,-0.001996231,-0.021998109,-0.008095335,0.021307962,-0.001341207,-0.000534116,0.006740602,-0.003622023,-0.001756691,-0.016103535,-0.000202549,-0.185402219
1609059017974379520,27,1609059017974379520,-0.038501996,-0.051500550,-0.040393970,0.000737813,-0.043208498,-0.000386601,0.999065730,-0.001683251,-0.023533716,-0.007746323,0.014294297,-0.003474770,-0.004864153,0.006740604,-0.003622023,-0.001756691,-0.016103677,-0.000202546,-0.185403974
1609059018067486464,28,1609059018067486464,-0.038250868,-0.053242696,-0.040026490,0.000700910,-0.043207216,-0.000396631,0.999065808,-0.000185856,-0.023423672,-0.007431912,0.011352334,-0.000879036,-0.004338677,0.006740609,-0.003622027,-0.001756691,-0.016135019,-0.000201877,-0.185793479
1609059018178694912,29,1609059018178694912,-0.038329088,-0.055807899,-0.040910287,0.000784903,-0.043182667,-0.000390244,0.999066809,0.000258957,-0.022028253,-0.007646592,0.020676320,-0.001412635,0.000417244,0.006740607,-0.003622026,-0.001756691,-0.016133878,-0.000201922,-0.185778886
1609059018272431104,30,1609059018272431104,-0.038323120,-0.057683850,-0.041526337,0.000735307,-0.043187933,-0.000387403,0.999066620,0.000759082,-0.023407085,-0.007964714,0.016947644,-0.000504284,-0.004455351,0.006740609,-0.003622027,-0.001756691,-0.016137112,-0.000201782,-0.185820510
1609059018367440640,31,1609059018367440640,-0.038305042,-0.059721527,-0.042121551,0.000715013,-0.043213939,-0.000380584,0.999065513,0.000893391,-0.024018115,-0.007514922,0.009756405,-0.002765384,-0.005431192,0.006740612,-0.003622027,-0.001756691,-0.016140986,-0.000201583,-0.185871008
1609059018478589184,32,1609059018478589184,-0.038275803,-0.062461574,-0.043043872,0.000792464,-0.043239222,-0.000378032,0.999064362,0.000945350,-0.022846293,-0.007881303,0.020521548,-0.001261628,-0.000219925,0.006740609,-0.003622026,-0.001756691,-0.016139843,-0.000201665,-0.185855643
1609059018572626944,33,1609059018572626944,-0.036623194,-0.062796825,-0.038993742,0.000731353,-0.043204743,-0.000369207,0.999065903,0.003543500,-0.021723320,-0.003326778,0.015959656,-0.000082910,-0.003881018,0.006740631,-0.003622045,-0.001756692,-0.016243073,-0.000194261,-0.187242587
1609059018667671296,34,1609059018667671296,-0.036334749,-0.064682862,-0.039255636,0.000758403,-0.043193834,-0.000338894,0.999066366,0.003565089,-0.021419005,-0.004126728,0.011191593,-0.002096395,-0.003937531,0.006740633,-0.003622045,-0.001756693,-0.016245760,-0.000194037,-0.187279315
1609059018778500608,35,1609059018778500608,-0.034412601,-0.064588758,-0.035379719,0.000763162,-0.043119427,-0.000326978,0.999069580,0.005187690,-0.017908395,0.000470975,0.021529904,-0.003110414,-0.000138353,0.006740665,-0.003622065,-0.001756694,-0.016331113,-0.000186186,-0.188462291
1609059018872721152,36,1609059018872721152,-0.033995345,-0.066139009,-0.035342271,0.000711220,-0.043122519,-0.000358177,0.999069474,0.005899377,-0.019308272,0.001165408,0.016147882,-0.003599830,-0.004118124,0.006740667,-0.003622064,-0.001756694,-0.016330799,-0.000186226,-0.188457708
1609059018967651584,37,1609059018967651584,-0.033413065,-0.067678133,-0.035058223,0.000705100,-0.043138783,-0.000366948,0.999068773,0.006663090,-0.018975815,0.000862185,0.012210447,-0.002022438,-0.004228655,0.006740671,-0.003622065,-0.001756694,-0.016335178,-0.000185734,-0.188520230
1609059019078708480,38,1609059019078708480,-0.032587853,-0.069489202,-0.034574136,0.000771041,-0.043137084,-0.000342916,0.999068806,0.007466466,-0.018515856,0.001918038,0.018044954,-0.005825087,-0.001528421,0.006740673,-0.003622066,-0.001756694,-0.016341926,-0.000184910,-0.188617942
1609059019172344576,39,1609059019172344576,-0.031972057,-0.071096252,-0.034450850,0.000729885,-0.043105784,-0.000361565,0.999070182,0.007927829,-0.019216805,0.001987052,0.016854586,-0.002259011,-0.002774701,0.006740674,-0.003622066,-0.001756694,-0.016341461,-0.000184978,-0.188610986
1609059019267207936,40,1609059019267207936,-0.031315938,-0.072577584,-0.034143133,0.000703366,-0.043087474,-0.000351587,0.999070994,0.008630928,-0.020667439,0.002258234,0.006892396,-0.003292055,-0.007396056,0.006740679,-0.003622065,-0.001756694,-0.016343625,-0.000184675,-0.188643158
1609059019378281472,41,1609059019378281472,-0.030338688,-0.074629025,-0.033721158,0.000730389,-0.043102052,-0.000361573,0.999070342,0.009544926,-0.020317346,0.002834652,0.019404247,-0.003391723,-0.001742532,0.006740680,-0.003622065,-0.001756695,-0.016346470,-0.000184245,-0.188686114
1609059019472374272,42,1609059019472374272,-0.029500423,-0.076566275,-0.033474432,0.000705900,-0.043122729,-0.000374604,0.999069463,0.009835241,-0.021125126,0.002361593,0.014560552,-0.002704137,-0.002745544,0.006740681,-0.003622065,-0.001756695,-0.016346660,-0.000184215,-0.188689017
1609059019567658752,43,1609059019567658752,-0.028674962,-0.078326930,-0.033272220,0.000670645,-0.043096419,-0.000363303,0.999070627,0.010370481,-0.022044434,0.002382370,0.007450946,-0.002545415,-0.005930461,0.006740684,-0.003622064,-0.001756695,-0.016346809,-0.000184194,-0.188691239
1609059019678522368,44,1609059019678522368,-0.027687452,-0.080193981,-0.032816303,0.000643991,-0.043068239,-0.000386544,0.999071851,0.010990881,-0.021347980,0.002841080,0.019539600,-0.003025896,-0.000609482,0.006740688,-0.003622063,-0.001756695,-0.016350455,-0.000183541,-0.188748250
1609059019772648448,45,1609059019772648448,-0.026751160,-0.082019884,-0.032607230,0.000627621,-0.043067290,-0.000396578,0.999071898,0.011484755,-0.021711591,0.002674948,0.016027940,-0.002123714,-0.003668424,0.006740690,-0.003622062,-0.001756695,-0.016350160,-0.000183601,-0.188743493
1609059019867471360,46,1609059019867471360,-0.025844168,-0.083026906,-0.031500627,0.000581651,-0.043097430,-0.000389059,0.999070629,0.012057779,-0.020923911,0.003973690,0.008298184,-0.004323819,-0.007066530,0.006740705,-0.003622060,-0.001756695,-0.016361693,-0.000181301,-0.188928140
1609059019980206080,47,1609059019980206080,-0.024612241,-0.084786051,-0.030771771,0.000583743,-0.043115565,-0.000424470,0.999069831,0.013306245,-0.020088058,0.004234029,0.024913330,-0.004647462,-0.000156442,0.006740711,-0.003622059,-0.001756696,-0.016366426,-0.000180302,-0.189004618
1609059020080105728,48,1609059020080105728,-0.023592295,-0.084349068,-0.028896560,0.000479528,-0.043110352,-0.000441287,0.999070104,0.013669690,-0.017339479,0.005670916,0.019875612,-0.004814764,-0.000327003,0.006740749,-0.003622056,-0.001756698,-0.016386758,-0.000175801,-0.189335809
1609059020183548160,49,1609059020183548160,-0.022670380,-0.081612283,-0.026254254,0.000409533,-0.043123658,-0.000410731,0.999069574,0.012966823,-0.010386402,0.007701948,0.022988778,-0.002880347,0.001349551,0.006740819,-0.003622051,-0.001756701,-0.016413236,-0.000169585,-0.189770717
1609059020287601152,50,1609059020287601152,-0.021336757,-0.082828632,-0.025438251,0.000416927,-0.043147801,-0.000433908,0.999068519,0.013228082,-0.010256983,0.008725977,0.024155319,-0.004995553,0.002127963,0.006740818,-0.003622051,-0.001756701,-0.016413087,-0.000169627,-0.189768177
1609059020389884928,51,1609059020389884928,-0.020035711,-0.083937328,-0.024553312,0.000430436,-0.043170365,-0.000422787,0.999067543,0.013828468,-0.009800200,0.008542302,0.024426609,-0.005548824,0.004505921,0.006740818,-0.003622050,-0.001756701,-0.016413713,-0.000169463,-0.189778557
1609059020492948992,52,1609059020492948992,-0.018585098,-0.085168524,-0.023679472,0.000482408,-0.043162757,-0.000389207,0.999067862,0.014154598,-0.009394413,0.008564821,0.024839755,-0.000745982,0.007008830,0.006740817,-0.003622050,-0.001756701,-0.016413792,-0.000169440,-0.189779892
1609059020595948544,53,1609059020595948544,-0.017872494,-0.083977680,-0.022257528,0.000435133,-0.043162351,-0.000380183,0.999067904,0.013323795,-0.006103559,0.008763927,0.022869181,-0.001828606,0.004055837,0.006740852,-0.003622041,-0.001756703,-0.016421027,-0.000167331,-0.189901019
1609059020667799552,54,1609059020667799552,-0.017153580,-0.084255564,-0.021683617,0.000209388,-0.043182279,-0.000439697,0.999067092,0.013815007,-0.009053415,0.008935562,0.007831950,-0.003367646,-0.005834468,0.006740857,-0.003622037,-0.001756703,-0.016420166,-0.000167616,-0.189886214
1609059020768152576,55,1609059020768152576,-0.015943875,-0.084883468,-0.020773854,0.000209647,-0.043212411,-0.000434794,0.999065791,0.014061583,-0.007612444,0.009282237,0.011240010,-0.001987178,-0.005910219,0.006740859,-0.003622036,-0.001756703,-0.016420274,-0.000167585,-0.189887988
1609059020873144320,56,1609059020873144320,-0.014659184,-0.085482938,-0.019899440,0.000176767,-0.043239915,-0.000450817,0.999064600,0.014646275,-0.007721203,0.008669577,0.011387270,-0.002024071,-0.005548393,0.006740860,-0.003622035,-0.001756703,-0.016420303,-0.000167574,-0.189888490
1609059020974766592,57,1609059020974766592,-0.013218054,-0.086141030,-0.019023236,0.000213117,-0.043241627,-0.000453635,0.999064518,0.014673658,-0.006758449,0.008856961,0.018950267,-0.000621456,-0.001965858,0.006740860,-0.003622034,-0.001756703,-0.016420267,-0.000167588,-0.189887873
1609059021077505792,58,1609059021077505792,-0.012420043,-0.085550420,-0.018134486,0.000177655,-0.043256256,-0.000439004,0.999063898,0.014704627,-0.004359142,0.009133631,0.018230243,-0.001201202,-0.001459120,0.006740879,-0.003622025,-0.001756704,-0.016419988,-0.000167686,-0.189883192
1609059021180338432,59,1609059021180338432,-0.013114494,-0.080811676,-0.016996411,0.000082524,-0.043291548,-0.000451885,0.999062376,0.011968325,0.003954576,0.009763581,0.024387648,-0.000647580,0.000241782,0.006740959,-0.003621996,-0.001756708,-0.016421322,-0.000167190,-0.189905630
1609059021283048192,60,1609059021283048192,-0.011913735,-0.080454230,-0.015983557,0.000121412,-0.043288155,-0.000469750,0.999062511,0.012196520,0.004985338,0.010156277,0.025186434,-0.002968556,0.001597260,0.006740959,-0.003621995,-0.001756708,-0.016421302,-0.000167197,-0.189905301
1609059021386394880,61,1609059021386394880,-0.010672616,-0.079997317,-0.014964174,0.000174439,-0.043306256,-0.000457947,0.999061724,0.012237047,0.006738316,0.010038856,0.024497403,-0.002346296,0.002081807,0.006740958,-0.003621995,-0.001756708,-0.016421352,-0.000167176,-0.189906141
1609059021489202176,62,1609059021489202176,-0.009417377,-0.079442029,-0.013947310,0.000222012,-0.043320419,-0.000442891,0.999061107,0.012729634,0.008020748,0.009956154,0.023635590,-0.003225754,0.003691902,0.006740956,-0.003621995,-0.001756708,-0.016421423,-0.000167146,-0.189907319
1609059021592097280,63,1609059021592097280,-0.008269632,-0.078649125,-0.013065470,0.000244931,-0.043294129,-0.000447037,0.999062240,0.012819656,0.008997998,0.009520883,0.024425268,-0.003414207,0.004737535,0.006740957,-0.003621993,-0.001756708,-0.016420381,-0.000167579,-0.189890150
1609059021695342336,64,1609059021695342336,-0.007278058,-0.077392666,-0.012310003,0.000229400,-0.043263298,-0.000420869,0.999063590,0.012697770,0.011375265,0.009182650,0.025950037,-0.002427806,0.005298691,0.006740964,-0.003621988,-0.001756709,-0.016418500,-0.000168384,-0.189859211
1609059021766953216,65,1609059021766953216,-0.006549695,-0.076806353,-0.011774428,0.000042562,-0.043282902,-0.000476756,0.999062741,0.013121638,0.008035319,0.008961819,0.009996720,-0.003929270,-0.004819722,0.006740963,-0.003621985,-0.001756709,-0.016417282,-0.000168934,-0.189839143
1609059021867946240,66,1609059021867946240,-0.005583936,-0.076037799,-0.011061641,-0.000022319,-0.043293562,-0.000557699,0.999062238,0.013336598,0.009125062,0.009221532,0.009302324,-0.000132747,-0.005336452,0.006740962,-0.003621983,-0.001756709,-0.016416587,-0.000169256,-0.189827709
1609059021970662144,67,1609059021970662144,-0.007789156,-0.069082483,-0.011466918,-0.000143175,-0.043394485,-0.000561853,0.999057847,0.008893773,0.019124040,0.007263937,0.011713319,-0.002048497,-0.004442352,0.006741053,-0.003621938,-0.001756713,-0.016403497,-0.000175224,-0.189614454
1609059022074503936,68,1609059022074503936,-0.006950764,-0.066850938,-0.010755679,-0.000072098,-0.043360391,-0.000556622,0.999059338,0.008866559,0.022189074,0.006991669,0.015809242,-0.001537779,-0.001642412,0.006741053,-0.003621938,-0.001756713,-0.016403535,-0.000175206,-0.189615062
1609059022178193408,69,1609059022178193408,-0.008354317,-0.061562790,-0.011590024,-0.000141960,-0.043404476,-0.000567762,0.999057410,0.005070999,0.028271974,0.006423431,0.019303627,-0.007444793,-0.001900493,0.006741097,-0.003621911,-0.001756716,-0.016388272,-0.000182516,-0.189369788
1609059022280582912,70,1609059022280582912,-0.008233063,-0.057934528,-0.011253405,-0.000128234,-0.043411154,-0.000551048,0.999057131,0.004604570,0.030441938,0.006300580,0.019224064,-0.000193897,0.000414456,0.006741107,-0.003621907,-0.001756716,-0.016385273,-0.000183985,-0.189321978
1609059022383079168,71,1609059022383079168,-0.007826179,-0.054776903,-0.010618129,-0.000117603,-0.043447853,-0.000542119,0.999055542,0.003873407,0.031854178,0.006873098,0.023706542,-0.003600785,0.001123847,0.006741107,-0.003621907,-0.001756716,-0.016385105,-0.000184071,-0.189319322
1609059022486084864,72,1609059022486084864,-0.007509532,-0.051392744,-0.010009115,-0.000111802,-0.043450101,-0.000553856,0.999055439,0.004279363,0.034151622,0.006606123,0.024479870,-0.002093487,0.002199679,0.006741108,-0.003621906,-0.001756716,-0.016384582,-0.000184337,-0.189311148
1609059022589176832,73,1609059022589176832,-0.013427802,-0.037748854,-0.009915516,-0.000347933,-0.043578132,-0.000565978,0.999049801,-0.004270073,0.049579824,0.005682447,0.025053734,-0.001770087,0.002543946,0.006741257,-0.003621832,-0.001756717,-0.016379364,-0.000187039,-0.189230262
1609059022692739072,74,1609059022692739072,-0.013908978,-0.032305773,-0.009311036,-0.000272253,-0.043569636,-0.000534412,0.999050213,-0.004859238,0.052630261,0.005112066,0.022984536,-0.002760503,0.004140902,0.006741258,-0.003621832,-0.001756717,-0.016379664,-0.000186875,-0.189234836
1609059022796793344,75,1609059022796793344,-0.014550953,-0.026346858,-0.009445164,-0.000247099,-0.043590296,-0.000508936,0.999049331,-0.005629753,0.055616629,0.004166729,0.022862265,-0.005191831,0.005365332,0.006741266,-0.003621833,-0.001756718,-0.016373626,-0.000190177,-0.189143809
1609059022867232000,76,1609059022867232000,-0.014755200,-0.022523825,-0.004848995,-0.000446713,-0.043597290,-0.000556895,0.999048931,-0.004714705,0.053345872,0.009024116,0.011571488,-0.003060630,-0.004481324,0.006741267,-0.003621844,-0.001756717,-0.016414803,-0.000167277,-0.189758378
1609059022967660800,77,1609059022967660800,-0.017137541,-0.019555104,-0.003607140,-0.000347822,-0.043638842,-0.000552839,0.999047158,-0.007474927,0.051940044,0.009421060,0.009459426,-0.001318651,-0.004400420,0.006741236,-0.003621825,-0.001756713,-0.016418506,-0.000165179,-0.189813008
1609059023070525696,78,1609059023070525696,-0.020812366,-0.019714509,-0.005412329,-0.000147293,-0.043671495,-0.000552343,0.999045782,-0.012105014,0.045877729,0.005891089,0.010922038,0.001169975,-0.004772291,0.006741152,-0.003621790,-0.001756707,-0.016392085,-0.000180267,-0.189428586
1609059023173918208,79,1609059023173918208,-0.023840608,-0.021571755,-0.004033735,0.000099319,-0.043685053,-0.000532433,0.999045206,-0.015307112,0.039346644,0.007698786,0.017645238,-0.003900548,-0.001068290,0.006741061,-0.003621774,-0.001756701,-0.016399149,-0.000176253,-0.189529953
1609059023277442816,80,1609059023277442816,-0.025604462,-0.017221201,-0.003259819,0.000138155,-0.043688642,-0.000534259,0.999045043,-0.015809955,0.040489865,0.007485444,0.019220585,-0.002286294,-0.001643187,0.006741063,-0.003621773,-0.001756701,-0.016399231,-0.000176207,-0.189531100
1609059023380221696,81,1609059023380221696,-0.027355154,-0.012957272,-0.002530851,0.000145499,-0.043692292,-0.000533045,0.999044883,-0.016221472,0.041441721,0.006806924,0.020794321,-0.001733768,0.000441961,0.006741064,-0.003621773,-0.001756701,-0.016399386,-0.000176122,-0.189533245
1609059023483368192,82,1609059023483368192,-0.029118786,-0.008692375,-0.001840744,0.000159204,-0.043694177,-0.000532503,0.999044799,-0.017180757,0.042776609,0.006703664,0.023710607,-0.003054435,0.002761114,0.006741064,-0.003621772,-0.001756701,-0.016399449,-0.000176088,-0.189534110
1609059023586247424,83,1609059023586247424,-0.030992747,-0.004354936,-0.001165477,0.000199415,-0.043660851,-0.000520326,0.999046255,-0.018456413,0.043939737,0.007047956,0.026173566,-0.000854892,0.003651071,0.006741063,-0.003621772,-0.001756701,-0.016399354,-0.000176137,-0.189532830
1609059023689791744,84,1609059023689791744,-0.031578724,-0.002296535,-0.001936469,0.000275438,-0.043617326,-0.000527909,0.999048134,-0.017119819,0.042107169,0.006609546,0.022520106,-0.001434877,0.003366390,0.006741030,-0.003621789,-0.001756701,-0.016384837,-0.000183550,-0.189337491
1609059023792383488,85,1609059023792383488,-0.033420022,0.001911533,-0.001242889,0.000280191,-0.043635495,-0.000530232,0.999047338,-0.017974848,0.042820829,0.007310503,0.023228824,-0.004337028,0.002258660,0.006741030,-0.003621789,-0.001756701,-0.016384717,-0.000183610,-0.189335908
1609059023895503872,86,1609059023895503872,-0.035323742,0.006165540,-0.000484232,0.000292211,-0.043659130,-0.000534550,0.999046300,-0.018514907,0.043494934,0.007312892,0.021838995,-0.002330873,0.004992155,0.006741030,-0.003621789,-0.001756701,-0.016384804,-0.000183567,-0.189337046
1609059023967433984,87,1609059023967433984,-0.036459782,0.008705208,-0.000059824,0.000115800,-0.043654460,-0.000562440,0.999046525,-0.017725348,0.039707670,0.007513217,0.007193116,-0.000263013,-0.006040820,0.006741021,-0.003621792,-0.001756701,-0.016383777,-0.000184061,-0.189323664
1609059024067342848,88,1609059024067342848,-0.038414323,0.013070254,0.000695341,0.000113751,-0.043627679,-0.000562220,0.999047695,-0.018082260,0.040701512,0.007962613,0.010856831,-0.002029479,-0.006005653,0.006741023,-0.003621791,-0.001756701,-0.016383649,-0.000184121,-0.189322013
1609059024172347648,89,1609059024172347648,-0.040408762,0.017448422,0.001442362,0.000151823,-0.043627164,-0.000560790,0.999047713,-0.019099810,0.041649627,0.008201884,0.015317680,-0.003152728,-0.003342133,0.006741024,-0.003621791,-0.001756701,-0.016382909,-0.000184461,-0.189312436
1609059024273520128,90,1609059024273520128,-0.042393524,0.021601075,0.002093039,0.000193811,-0.043666792,-0.000569765,0.999045969,-0.020515377,0.043355147,0.008406793,0.017740926,-0.005261298,-0.002761040,0.006741021,-0.003621792,-0.001756701,-0.016381275,-0.000185195,-0.189291429
1609059024378080512,91,1609059024378080512,-0.044572208,0.026149669,0.002828323,0.000228897,-0.043681676,-0.000560728,0.999045316,-0.021121759,0.044558704,0.007507048,0.018573305,-0.002746359,-0.001080218,0.006741020,-0.003621792,-0.001756701,-0.016380642,-0.000185473,-0.189283326
1609059024479891968,92,1609059024479891968,-0.046672368,0.030409820,0.003524870,0.000209081,-0.043648639,-0.000571741,0.999046759,-0.021377421,0.044756759,0.007081658,0.020493455,-0.002177137,-0.001489355,0.006741019,-0.003621792,-0.001756701,-0.016380602,-0.000185490,-0.189282812
1609059024582989312,93,1609059024582989312,-0.048963272,0.035016970,0.004200209,0.000256222,-0.043616985,-0.000561838,0.999048136,-0.022637846,0.045952036,0.006952075,0.022970844,-0.001729296,0.002337462,0.006741019,-0.003621793,-0.001756701,-0.016380225,-0.000185648,-0.189278046
1609059024686077952,94,1609059024686077952,-0.042735440,0.022656119,-0.008493153,0.000760763,-0.043397445,-0.000511337,0.999057467,-0.011580767,0.022962597,-0.008419304,0.025149643,-0.003609097,0.000648594,0.006740780,-0.003621904,-0.001756709,-0.016256991,-0.000235978,-0.187729058
1609059024789220608,95,1609059024789220608,-0.041009078,0.005248216,-0.006795743,0.001256640,-0.043320808,-0.000463574,0.999060315,-0.007398678,-0.004046275,-0.005059627,0.025939703,-0.003992200,0.003247652,0.006740521,-0.003621932,-0.001756727,-0.016280205,-0.000227066,-0.188022246
1609059024892245504,96,1609059024892245504,-0.041032110,-0.009202596,-0.008424257,0.001608198,-0.043313314,-0.000427856,0.999060152,-0.005659488,-0.024140169,-0.006945949,0.022622116,-0.001806391,0.002636594,0.006740343,-0.003621923,-0.001756733,-0.016270958,-0.000230233,-0.187904397
1609059024995248640,97,1609059024995248640,-0.041626317,-0.012037259,-0.009192137,0.001617209,-0.043272891,-0.000417544,0.999061894,-0.005654425,-0.026129422,-0.007849045,0.024609230,-0.000514602,0.004986379,0.006740342,-0.003621923,-0.001756733,-0.016271007,-0.000230220,-0.187905018
1609059025067295744,98,1609059025067295744,-0.042010177,-0.013654754,-0.009692098,0.001400361,-0.043268959,-0.000453680,0.999062376,-0.004755208,-0.030530330,-0.007609627,0.005910170,-0.003988015,-0.008460848,0.006740349,-0.003621924,-0.001756733,-0.016271737,-0.000230049,-0.187914450
1609059025167143168,99,1609059025167143168,-0.042581132,-0.016688970,-0.010507134,0.001395285,-0.043273899,-0.000460720,0.999062166,-0.004163091,-0.032236636,-0.008006720,0.007479955,0.001369933,-0.005479411,0.006740351,-0.003621923,-0.001756733,-0.016271698,-0.000230056,-0.187913942
1609059025271132416,100,1609059025271132416,-0.043130534,-0.019962579,-0.011312185,0.001388400,-0.043306489,-0.000464253,0.999060761,-0.004072882,-0.034382983,-0.007666336,0.011408016,-0.000756160,-0.004810884,0.006740352,-0.003621922,-0.001756733,-0.016271596,-0.000230069,-0.187912584
1609059025375380736,101,1609059025375380736,-0.043614846,-0.023475730,-0.012138715,0.001405350,-0.043310756,-0.000463673,0.999060553,-0.003182113,-0.035464714,-0.008249300,0.015469682,0.001477074,-0.004084740,0.006740352,-0.003621921,-0.001756733,-0.016271591,-0.000230069,-0.187912530
1609059025477054208,102,1609059025477054208,-0.044036511,-0.027148139,-0.012995355,0.001448499,-0.043286687,-0.000435734,0.999061547,-0.003701438,-0.036359470,-0.007299389,0.019962054,-0.005320470,0.000762646,0.006740352,-0.003621921,-0.001756733,-0.016271263,-0.000230076,-0.187908105
1609059025581265664,103,1609059025581265664,-0.044506565,-0.031295438,-0.013860924,0.001482478,-0.043238606,-0.000423798,0.999063584,-0.004106011,-0.037692862,-0.007673010,0.021497309,-0.001790428,0.001457266,0.006740350,-0.003621920,-0.001756733,-0.016271011,-0.000230069,-0.187904656
1609059025684482560,104,1609059025684482560,-0.044934210,-0.035360724,-0.014701503,0.001506777,-0.043235786,-0.000435853,0.999063665,-0.003925355,-0.039370617,-0.007372527,0.025061691,-0.001158694,0.002494707,0.006740349,-0.003621921,-0.001756733,-0.016270683,-0.000230047,-0.187900120
1609059025786085632,105,1609059025786085632,-0.045335150,-0.039377746,-0.015486248,0.001515112,-0.043254915,-0.000426902,0.999062828,-0.003655693,-0.041308201,-0.007431657,0.024902686,-0.005685732,0.000383900,0.006740350,-0.003621921,-0.001756733,-0.016270563,-0.000230033,-0.187898451
1609059025889156352,106,1609059025889156352,-0.045097460,-0.043780343,-0.016590786,0.001563225,-0.043238333,-0.000414463,0.999063477,-0.002621083,-0.043076483,-0.007522595,0.024824509,-0.001106572,0.003209103,0.006740355,-0.003621930,-0.001756734,-0.016268511,-0.000229740,-0.187869518
1609059025992651776,107,1609059025992651776,-0.045345062,-0.048561029,-0.017396256,0.001585599,-0.043200523,-0.000424164,0.999065073,-0.002269664,-0.044566651,-0.007516351,0.021678450,-0.000500156,0.004395487,0.006740353,-0.003621930,-0.001756734,-0.016268387,-0.000229713,-0.187867729
1609059026095217408,108,1609059026095217408,-0.045568630,-0.053535611,-0.018162844,0.001583178,-0.043185383,-0.000397740,0.999065743,-0.002182279,-0.046291147,-0.006866456,0.025473654,-0.002728965,0.004452609,0.006740351,-0.003621929,-0.001756734,-0.016268205,-0.000229667,-0.187865100
1609059026166726144,109,1609059026166726144,-0.042336500,-0.052782200,-0.019279373,0.001232173,-0.043135575,-0.000453664,0.999068365,0.003381785,-0.045482872,-0.007177126,0.007672293,-0.004086762,-0.007205097,0.006740412,-0.003621982,-0.001756737,-0.016263550,-0.000228521,-0.187797380
1609059026266840576,110,1609059026266840576,-0.042020635,-0.057289782,-0.020046465,0.001232064,-0.043151037,-0.000477048,0.999067687,0.003938301,-0.046115750,-0.007142378,0.010323244,-0.002010863,-0.005271655,0.006740414,-0.003621982,-0.001756737,-0.016263471,-0.000228494,-0.187796199
1609059026370183680,111,1609059026370183680,-0.041691183,-0.061983095,-0.020838235,0.001262108,-0.043153393,-0.000467676,0.999067552,0.004656361,-0.046766749,-0.006992945,0.013777550,-0.003059806,-0.002041506,0.006740414,-0.003621981,-0.001756737,-0.016263277,-0.000228426,-0.187793259
1609059026473718528,112,1609059026473718528,-0.030208204,-0.058075524,-0.023134654,0.000982011,-0.042818556,-0.000480987,0.999082267,0.020519762,-0.035329070,-0.008726296,0.019210884,-0.002024164,-0.002263502,0.006740547,-0.003622147,-0.001756740,-0.016253060,-0.000224979,-0.187637721
1609059026577076736,113,1609059026577076736,-0.028034076,-0.061886188,-0.024059908,0.001007506,-0.042792141,-0.000483123,0.999083372,0.021467217,-0.035888173,-0.008997329,0.021005180,-0.000338049,-0.000580731,0.006740545,-0.003622147,-0.001756740,-0.016253015,-0.000224961,-0.187636997
1609059026679737856,114,1609059026679737856,-0.025814389,-0.065655482,-0.024982379,0.001025644,-0.042805220,-0.000453648,0.999082807,0.022255228,-0.037174432,-0.008087595,0.023300219,-0.005879369,0.000397523,0.006740545,-0.003622147,-0.001756740,-0.016252838,-0.000224887,-0.187634062
1609059026783007488,115,1609059026783007488,-0.023543280,-0.069554301,-0.025790096,0.001058938,-0.042826337,-0.000471553,0.999081859,0.023112976,-0.038223650,-0.008093380,0.023532443,-0.000473959,0.001519544,0.006740545,-0.003622147,-0.001756740,-0.016253142,-0.000225000,-0.187639163
1609059026886376448,116,1609059026886376448,-0.022204296,-0.071548487,-0.023939573,0.001008619,-0.042873906,-0.000482363,0.999079866,0.022346468,-0.035592635,-0.005239753,0.024689211,-0.000824019,0.002876602,0.006740579,-0.003622128,-0.001756742,-0.016267772,-0.000230900,-0.187894099
1609059026989350912,117,1609059026989350912,-0.021081955,-0.069796885,-0.021981399,0.000888318,-0.042870500,-0.000454067,0.999080139,0.021803024,-0.028165173,-0.002108832,0.023251042,0.000886794,0.003107021,0.006740664,-0.003622111,-0.001756747,-0.016280664,-0.000236230,-0.188125401
1609059027092364288,118,1609059027092364288,-0.019198605,-0.071960451,-0.021884577,0.000856331,-0.042855729,-0.000460293,0.999080798,0.022512469,-0.027174994,-0.002257688,0.025351323,-0.003476258,0.003147384,0.006740673,-0.003622108,-0.001756748,-0.016282420,-0.000236951,-0.188157758
1609059027196972032,119,1609059027196972032,-0.017804351,-0.071944665,-0.020566248,0.000767018,-0.042917019,-0.000475346,0.999078233,0.021323549,-0.022802672,-0.000403056,0.021810424,-0.003015496,0.003393356,0.006740719,-0.003622094,-0.001756751,-0.016289886,-0.000239932,-0.188299023
1609059027267192320,120,1609059027267192320,-0.016641747,-0.073281525,-0.020518334,0.000549769,-0.042971426,-0.000518619,0.999076016,0.022013679,-0.025414945,-0.000140702,0.008451760,-0.001069031,-0.005301665,0.006740727,-0.003622089,-0.001756751,-0.016290230,-0.000240065,-0.188305634
1609059027367329024,121,1609059027367329024,-0.015991724,-0.068457628,-0.018458036,0.000368261,-0.043029895,-0.000521889,0.999073581,0.020820090,-0.014138170,0.001816431,0.011955557,0.001294300,-0.004937567,0.006740837,-0.003622069,-0.001756756,-0.016299977,-0.000243595,-0.188496452
1609059027470470400,122,1609059027470470400,-0.013946306,-0.069651583,-0.018217884,0.000365794,-0.042990525,-0.000532728,0.999075271,0.021375954,-0.012993406,0.002378653,0.015794594,-0.001071474,-0.001903149,0.006740839,-0.003622068,-0.001756756,-0.016300165,-0.000243653,-0.188500164
1609059027573250048,123,1609059027573250048,-0.011788893,-0.070871844,-0.017948866,0.000408831,-0.042960940,-0.000517203,0.999076535,0.021467178,-0.012238891,0.003668328,0.018717218,-0.002377870,-0.002740354,0.006740839,-0.003622068,-0.001756756,-0.016300029,-0.000243614,-0.188497357
1609059027677865728,124,1609059027677865728,-0.009669326,-0.071953880,-0.017557654,0.000403792,-0.042998848,-0.000540466,0.999074894,0.021708758,-0.011519913,0.003493425,0.018112853,-0.002831778,-0.001308254,0.006740841,-0.003622068,-0.001756756,-0.016300233,-0.000243662,-0.188501533
1609059027779898368,125,1609059027779898368,-0.007523756,-0.072968940,-0.017161554,0.000431867,-0.043051751,-0.000554204,0.999072596,0.023025650,-0.010902875,0.003815905,0.020885557,-0.004373049,0.000004354,0.006740843,-0.003622066,-0.001756756,-0.016300396,-0.000243692,-0.188504888
1609059027883015936,126,1609059027883015936,-0.005157934,-0.074109922,-0.016836344,0.000483355,-0.043064628,-0.000537070,0.999072027,0.024024150,-0.010032847,0.003135890,0.023472143,-0.000730708,0.001221377,0.006740842,-0.003622065,-0.001756756,-0.016300418,-0.000243695,-0.188505345
1609059027986250240,127,1609059027986250240,-0.002482809,-0.075333813,-0.016514639,0.000525401,-0.043003307,-0.000512578,0.999074660,0.024462766,-0.009228461,0.003517681,0.023079835,-0.002763495,0.002977226,0.006740841,-0.003622067,-0.001756756,-0.016300380,-0.000243692,-0.188504539
1609059028089236992,128,1609059028089236992,-0.004686885,-0.070586622,-0.015123385,0.000380989,-0.043111127,-0.000504220,0.999070083,0.018232394,-0.000342320,0.004251336,0.024978511,-0.002400710,0.004192814,0.006740931,-0.003622002,-0.001756762,-0.016304813,-0.000243984,-0.188597743
1609059028192186368,129,1609059028192186368,-0.003475302,-0.069886871,-0.014678218,0.000410458,-0.043177062,-0.000492407,0.999067230,0.017316480,0.001515729,0.004095658,0.024477441,-0.004607784,0.004398945,0.006740944,-0.003621993,-0.001756763,-0.016304911,-0.000243985,-0.188599817
1609059028295219200,130,1609059028295219200,-0.005409963,-0.065171936,-0.014301079,0.000307573,-0.043282703,-0.000485888,0.999062699,0.012147607,0.009050542,0.003527148,0.021859298,-0.002252282,0.005840057,0.006741017,-0.003621945,-0.001756769,-0.016304975,-0.000243979,-0.188601204
1609059028366970112,131,1609059028366970112,-0.004835823,-0.064540472,-0.014136239,0.000110370,-0.043285858,-0.000519804,0.999062587,0.012317428,0.006426090,0.003546954,0.010989801,0.002039512,-0.005063484,0.006741018,-0.003621940,-0.001756769,-0.016304584,-0.000244014,-0.188593172
1609059028467363072,132,1609059028467363072,-0.003737520,-0.063701077,-0.013781917,0.000118330,-0.043238154,-0.000495899,0.999064664,0.011781377,0.007009033,0.003627810,0.009657408,0.001597220,-0.004992785,0.006741019,-0.003621940,-0.001756769,-0.016304573,-0.000244016,-0.188592945
1609059028570141696,133,1609059028570141696,-0.002680700,-0.062699385,-0.013396729,0.000129905,-0.043222049,-0.000490586,0.999065362,0.011432262,0.009260772,0.004482637,0.015094493,-0.004609106,-0.002628384,0.006741020,-0.003621939,-0.001756769,-0.016304432,-0.000244043,-0.188590122
1609059028673265920,134,1609059028673265920,-0.001628950,-0.061565702,-0.012994555,0.000143413,-0.043253561,-0.000501181,0.999063991,0.011265465,0.010056676,0.003802480,0.015360306,-0.002353609,-0.002251432,0.006741022,-0.003621938,-0.001756769,-0.016304419,-0.000244045,-0.188589877
1609059028777006848,135,1609059028777006848,-0.001150404,-0.059690924,-0.012800619,0.000139518,-0.043314859,-0.000508260,0.999061332,0.010464874,0.012220806,0.004259704,0.020857673,-0.005740493,-0.002139599,0.006741033,-0.003621929,-0.001756770,-0.016303466,-0.000244311,-0.188571490
1609059028880224000,136,1609059028880224000,-0.000446985,-0.057971109,-0.012611236,0.000127979,-0.043315445,-0.000506304,0.999061309,0.010707771,0.013381097,0.003347973,0.021299848,-0.002838559,0.000833666,0.006741040,-0.003621925,-0.001756770,-0.016302719,-0.000244548,-0.188557365
1609059028982651904,137,1609059028982651904,0.000277353,-0.056402366,-0.012494153,0.000080019,-0.043299242,-0.000524007,0.999062007,0.010849926,0.014036632,0.002545129,0.021971282,0.000665651,0.000241947,0.006741045,-0.003621920,-0.001756770,-0.016302055,-0.000244787,-0.188545029
1609059029085549312,138,1609059029085549312,0.001452963,-0.054864122,-0.012197285,0.000112698,-0.043288897,-0.000504336,0.999062463,0.010259098,0.015590158,0.003905396,0.026109071,-0.003648917,0.003033543,0.006741045,-0.003621921,-0.001756770,-0.016301923,-0.000244844,-0.188542625
1609059029188636160,139,1609059029188636160,0.000043800,-0.049908479,-0.012487925,0.000009933,-0.043376687,-0.000515220,0.999058656,0.006979329,0.021558145,0.004353872,0.023944765,-0.005172654,0.001917228,0.006741097,-0.003621891,-0.001756772,-0.016298813,-0.000246225,-0.188486673
1609059029291811584,140,1609059029291811584,0.000767904,-0.047753869,-0.012076225,0.000065646,-0.043394513,-0.000515864,0.999057879,0.006892720,0.023923567,0.003969951,0.028454948,-0.001779475,0.004396373,0.006741096,-0.003621891,-0.001756772,-0.016298831,-0.000246215,-0.188487001
1609059029394959104,141,1609059029394959104,-0.011720558,-0.037173547,-0.008729657,-0.000083641,-0.043714043,-0.000493216,0.999043959,-0.012194350,0.037066793,0.007484623,0.021548431,-0.004671622,0.005601065,0.006741226,-0.003621718,-0.001756770,-0.016311930,-0.000239422,-0.188712103
1609059029466882304,142,1609059029466882304,-0.012467158,-0.035082901,-0.008414620,-0.000268421,-0.043683356,-0.000516644,0.999045257,-0.011862665,0.034335657,0.007174167,0.011514441,-0.000170749,-0.004895130,0.006741220,-0.003621719,-0.001756770,-0.016311091,-0.000239892,-0.188698210
1609059029568681728,143,1609059029568681728,-0.013773209,-0.031424135,-0.007663619,-0.000292773,-0.043673486,-0.000534240,0.999045672,-0.012786018,0.036249295,0.007759608,0.012371493,-0.001319042,-0.005398475,0.006741220,-0.003621719,-0.001756770,-0.016311053,-0.000239915,-0.188697599
1609059029671488000,144,1609059029671488000,-0.018600270,-0.025721470,-0.007630651,-0.000315028,-0.043769681,-0.000539662,0.999041453,-0.018874368,0.040517426,0.007133833,0.010216897,-0.001939348,-0.004888757,0.006741248,-0.003621684,-0.001756761,-0.016307320,-0.000242155,-0.188640096
1609059029780179456,145,1609059029780179456,-0.020784056,-0.020895535,-0.007118194,-0.000263920,-0.043776763,-0.000541914,0.999041156,-0.019765687,0.044181418,0.006475261,0.022781912,-0.001444769,-0.000531429,0.006741252,-0.003621684,-0.001756761,-0.016306226,-0.000242835,-0.188623967
1609059029883426816,146,1609059029883426816,-0.021449361,-0.022998226,-0.003443333,-0.000067469,-0.043673238,-0.000538754,0.999045721,-0.017943855,0.037363025,0.009530865,0.023512643,-0.000386043,0.000903978,0.006741158,-0.003621712,-0.001756762,-0.016322541,-0.000232353,-0.188855231
1609059029986491136,147,1609059029986491136,-0.022028696,-0.018863379,-0.004302973,-0.000065639,-0.043589222,-0.000528863,0.999049396,-0.016746651,0.039066473,0.007918412,0.023826124,-0.002747427,0.001507114,0.006741166,-0.003621733,-0.001756762,-0.016312816,-0.000238705,-0.188721048
1609059030090519040,148,1609059030090519040,-0.023414896,-0.020787509,-0.007375267,0.000162743,-0.043553256,-0.000515594,0.999050960,-0.017313071,0.033112245,0.003135156,0.024394568,-0.004127006,0.004926808,0.006741075,-0.003621744,-0.001756756,-0.016291272,-0.000253060,-0.188430016
1609059030192771584,149,1609059030192771584,-0.023529981,-0.017431692,-0.005489660,0.000141810,-0.043541692,-0.000529628,0.999051460,-0.015515510,0.034188480,0.005014074,0.023248931,-0.003450612,0.004499273,0.006741080,-0.003621772,-0.001756756,-0.016300105,-0.000247169,-0.188547173
1609059030295773184,150,1609059030295773184,-0.025554383,-0.021221055,-0.005784064,0.000382755,-0.043537528,-0.000513446,0.999051587,-0.016139385,0.025591762,0.003300970,0.024932455,-0.001271571,0.003859203,0.006740975,-0.003621771,-0.001756753,-0.016295829,-0.000250023,-0.188491311
1609059030369461760,151,1609059030369461760,-0.026661649,-0.019621925,-0.005574352,0.000190438,-0.043525390,-0.000563122,0.999052144,-0.015010619,0.023200017,0.003239620,0.014053023,0.000111412,-0.003532246,0.006740971,-0.003621773,-0.001756753,-0.016295621,-0.000250163,-0.188488661
1609059030472465408,152,1609059030472465408,-0.025864222,-0.019842498,-0.007695349,0.000264132,-0.043387208,-0.000570420,0.999058134,-0.012274444,0.019869200,0.000246708,0.016694445,-0.003117113,-0.004319252,0.006740937,-0.003621815,-0.001756743,-0.016281660,-0.000259217,-0.188310150
1609059030575567616,153,1609059030575567616,-0.025582523,-0.020427783,-0.009851967,0.000336189,-0.043326705,-0.000590329,0.999060726,-0.010477921,0.017548764,-0.002208870,0.017502163,-0.003872646,-0.001774123,0.006740902,-0.003621839,-0.001756736,-0.016269274,-0.000267119,-0.188151853
1609059030679651328,154,1609059030679651328,-0.023522233,-0.020036360,-0.008455704,0.000377354,-0.043264573,-0.000597490,0.999063400,-0.006441997,0.015485500,-0.000187107,0.022825778,-0.004553165,0.001846321,0.006740887,-0.003621890,-0.001756730,-0.016278381,-0.000261413,-0.188268547
1609059030781719808,155,1609059030781719808,-0.024053934,-0.022021251,-0.009587169,0.000424452,-0.043281483,-0.000624262,0.999062632,-0.005393270,0.011078966,-0.001795060,0.023483464,-0.000794676,0.002110042,0.006740847,-0.003621893,-0.001756723,-0.016272259,-0.000265205,-0.188189629
1609059030884956160,156,1609059030884956160,-0.023788557,-0.021237531,-0.008020254,0.000424128,-0.043209310,-0.000642796,0.999065745,-0.003861105,0.010908959,-0.000169753,0.024752952,-0.000388130,0.001301738,0.006740845,-0.003621910,-0.001756720,-0.016282002,-0.000259267,-0.188316077
1609059030988535296,157,1609059030988535296,-0.023548067,-0.022238584,-0.007108047,0.000509964,-0.043131288,-0.000626957,0.999069086,-0.003251032,0.009189522,0.001394660,0.026507579,0.001826122,0.002585251,0.006740823,-0.003621919,-0.001756715,-0.016286801,-0.000256383,-0.188379231
1609059031090541568,158,1609059031090541568,-0.023958397,-0.023305920,-0.007688005,0.000544848,-0.043132948,-0.000637561,0.999068989,-0.003921157,0.007353060,0.002237544,0.026067227,-0.002129951,0.004307411,0.006740803,-0.003621917,-0.001756712,-0.016282415,-0.000258982,-0.188320461
1609059031193632000,159,1609059031193632000,-0.022618310,-0.023841834,-0.007107656,0.000589673,-0.043123826,-0.000644852,0.999069353,-0.001499553,0.006610833,0.002908918,0.024516491,-0.002811136,0.004533982,0.006740797,-0.003621943,-0.001756710,-0.016284245,-0.000257922,-0.188345381
1609059031297037312,160,1609059031297037312,-0.022275578,-0.022921896,-0.008600323,0.000574923,-0.043138456,-0.000628665,0.999068740,-0.000104078,0.008180753,0.000358298,0.021478388,-0.002702701,0.004032123,0.006740810,-0.003621949,-0.001756708,-0.016275690,-0.000262771,-0.188227025
1609059031367552512,161,1609059031367552512,-0.022221486,-0.024874693,-0.007622570,0.000422440,-0.043143581,-0.000671746,0.999068567,0.001701300,0.001955648,0.000879054,0.012591333,-0.000878454,-0.004834169,0.006740785,-0.003621948,-0.001756706,-0.016280558,-0.000260051,-0.188295129
1609059031468872704,162,1609059031468872704,-0.021416757,-0.026763406,-0.007914911,0.000458359,-0.043049922,-0.000668785,0.999072593,0.003200123,-0.000757652,0.000225605,0.013476480,0.000451976,-0.004037602,0.006740768,-0.003621956,-0.001756702,-0.016278913,-0.000260950,-0.188271647
1609059031573636352,163,1609059031573636352,-0.020950639,-0.026906930,-0.007803591,0.000408974,-0.043052004,-0.000672165,0.999072523,0.002715682,-0.000163948,0.000687538,0.015358858,-0.001327803,-0.002998574,0.006740782,-0.003621958,-0.001756698,-0.016279290,-0.000260748,-0.188277159
1609059031675127040,164,1609059031675127040,-0.021872595,-0.026061016,-0.006717080,0.000382657,-0.043161910,-0.000679802,0.999067786,0.001644993,0.001358949,0.001319559,0.019316463,-0.001734775,-0.001581538,0.006740810,-0.003621943,-0.001756694,-0.016283970,-0.000258287,-0.188347055
1609059031779003392,165,1609059031779003392,-0.020722097,-0.025802806,-0.008048899,0.000355650,-0.043148124,-0.000731174,0.999068355,0.004157452,0.002385713,-0.000867092,0.023362912,-0.001063819,-0.001107753,0.006740824,-0.003621959,-0.001756691,-0.016277621,-0.000261587,-0.188251116
1609059031881477888,166,1609059031881477888,-0.021329642,-0.027858689,-0.007302576,0.000388355,-0.043107695,-0.000686006,0.999070120,0.003167062,-0.000274619,-0.000364864,0.022371858,0.000618922,0.000488885,0.006740803,-0.003621944,-0.001756690,-0.016281466,-0.000259595,-0.188310126
1609059031984583424,167,1609059031984583424,-0.022984300,-0.026879815,-0.009154138,0.000373191,-0.043096912,-0.000676825,0.999070598,0.000543440,0.001284877,-0.001781097,0.025012765,-0.002911499,0.000990326,0.006740829,-0.003621916,-0.001756687,-0.016273648,-0.000263611,-0.188187638
1609059032089373952,168,1609059032089373952,-0.022478338,-0.026869377,-0.008982730,0.000381134,-0.043087883,-0.000717565,0.999070956,0.000947682,0.002818202,-0.000383812,0.025682380,-0.004768878,0.002068083,0.006740836,-0.003621923,-0.001756686,-0.016275031,-0.000262897,-0.188209691
1609059032190745088,169,1609059032190745088,-0.022968583,-0.026555348,-0.011060941,0.000427599,-0.043167834,-0.000696940,0.999067500,0.000530385,0.004501607,-0.002854185,0.027145676,-0.003537167,0.003101225,0.006740846,-0.003621916,-0.001756686,-0.016266790,-0.000267152,-0.188076374
1609059032295057920,170,1609059032295057920,-0.022795578,-0.025476239,-0.013689743,0.000420346,-0.043160637,-0.000730589,0.999067790,0.001672937,0.006460547,-0.005500669,0.024163714,-0.002647963,0.003609001,0.006740860,-0.003621917,-0.001756685,-0.016257418,-0.000271967,-0.187923410
1609059032397250304,171,1609059032397250304,-0.022564469,-0.025002274,-0.014357733,0.000439909,-0.043098174,-0.000727490,0.999070480,0.002728832,0.007845285,-0.005749653,0.025410881,0.000082146,0.004370910,0.006740858,-0.003621917,-0.001756685,-0.016257289,-0.000272033,-0.187921264
1609059032467259392,172,1609059032467259392,-0.022489360,-0.024556196,-0.013209149,0.000271718,-0.043096598,-0.000712400,0.999070619,0.003030175,0.004602504,-0.003932496,-0.004870364,-0.003074209,-0.008126662,0.006740871,-0.003621915,-0.001756684,-0.016263189,-0.000269003,-0.188019867
1609059032568936704,173,1609059032568936704,-0.022157569,-0.025462042,-0.012076626,0.000299277,-0.043102681,-0.000732951,0.999070334,0.002910317,0.003454435,-0.001111488,0.013321355,-0.002799360,-0.005375607,0.006740860,-0.003621915,-0.001756683,-0.016268846,-0.000266081,-0.188115995
1609059032672092672,174,1609059032672092672,-0.022682660,-0.026316293,-0.010227849,0.000303737,-0.043182062,-0.000762230,0.999066883,0.002065832,0.003005654,0.001649465,0.014436716,-0.001070573,-0.002887245,0.006740851,-0.003621904,-0.001756683,-0.016276178,-0.000262313,-0.188242120
1609059032775384576,175,1609059032775384576,-0.021521108,-0.025010107,-0.009167549,0.000325018,-0.043168440,-0.000722861,0.999067494,0.003857516,0.005203933,0.001543278,0.018737560,-0.002320178,-0.001211670,0.006740871,-0.003621925,-0.001756680,-0.016279749,-0.000260506,-0.188303753
1609059032879107072,176,1609059032879107072,-0.020569523,-0.025776062,-0.008717311,0.000319921,-0.043092281,-0.000750761,0.999070763,0.005502518,0.004592249,0.001946309,0.023775244,-0.000536102,0.001104933,0.006740861,-0.003621933,-0.001756679,-0.016280842,-0.000259950,-0.188322779
1609059032981785856,177,1609059032981785856,-0.021919941,-0.024789362,-0.008026493,0.000326360,-0.043099234,-0.000731855,0.999070475,0.002688758,0.005939465,0.002936219,0.024331234,-0.005142294,0.001816377,0.006740879,-0.003621906,-0.001756678,-0.016282598,-0.000259048,-0.188353888
1609059033084571904,178,1609059033084571904,-0.022661434,-0.025574187,-0.008389795,0.000428899,-0.043169382,-0.000694289,0.999067434,0.000818520,0.005346978,0.002166347,0.025602400,-0.003479068,0.002570680,0.006740866,-0.003621893,-0.001756675,-0.016280392,-0.000260187,-0.188314380
1609059033187373312,179,1609059033187373312,-0.021017383,-0.026891800,-0.008637768,0.000451974,-0.043170964,-0.000741522,0.999067322,0.003314131,0.003827111,0.001983299,0.024750236,-0.002139484,0.001600425,0.006740845,-0.003621917,-0.001756674,-0.016278738,-0.000261030,-0.188284700
1609059033290332416,180,1609059033290332416,-0.022199288,-0.025899324,-0.008986692,0.000420987,-0.043223263,-0.000735566,0.999065079,0.002420835,0.005586175,0.001537137,0.024969820,-0.001913289,0.003863866,0.006740862,-0.003621898,-0.001756674,-0.016276808,-0.000261999,-0.188250019
1609059033393647872,181,1609059033393647872,-0.022055507,-0.027490086,-0.010084738,0.000526750,-0.043124254,-0.000699917,0.999069333,0.002431111,0.003640445,-0.000741234,0.021987446,0.000219146,0.004103022,0.006740840,-0.003621898,-0.001756674,-0.016272771,-0.000264004,-0.188177393
1609059033496685824,182,1609059033496685824,-0.021733963,-0.027223545,-0.010148873,0.000509421,-0.043082911,-0.000719606,0.999071111,0.002694906,0.004937565,-0.000158109,0.024393396,-0.004124781,0.005390947,0.006740840,-0.003621899,-0.001756674,-0.016272691,-0.000264044,-0.188175943
1609059033566900992,183,1609059033566900992,-0.021621634,-0.027037694,-0.010174744,0.000267231,-0.043134902,-0.000779133,0.999068917,0.002944312,0.002227362,0.000321012,0.011339726,-0.002516207,-0.005616723,0.006740840,-0.003621898,-0.001756674,-0.016272632,-0.000264073,-0.188174840
1609059033668631296,184,1609059033668631296,-0.019704957,-0.025884058,-0.009148824,0.000233560,-0.043166192,-0.000781120,0.999067573,0.005537043,0.004129101,0.001550552,0.013402733,-0.002195726,-0.004464070,0.006740861,-0.003621927,-0.001756673,-0.016275979,-0.000262421,-0.188236251
1609059033771909120,185,1609059033771909120,-0.019466871,-0.025221816,-0.009186099,0.000231181,-0.043189349,-0.000819591,0.999066542,0.005951479,0.005488633,0.001308251,0.019350491,-0.003731678,-0.001639288,0.006740873,-0.003621925,-0.001756672,-0.016275364,-0.000262728,-0.188224944
1609059033875321088,186,1609059033875321088,-0.018955013,-0.024620081,-0.009087602,0.000217885,-0.043134211,-0.000797909,0.999068944,0.006206018,0.006223662,0.001468251,0.018280804,-0.002275139,-0.000949521,0.006740873,-0.003621924,-0.001756673,-0.016275314,-0.000262753,-0.188224033
1609059033978591488,187,1609059033978591488,-0.019164917,-0.026421553,-0.007670874,0.000346530,-0.043112403,-0.000758763,0.999069880,0.005004096,0.003263850,0.003355562,0.024390126,-0.003979599,0.000437664,0.006740842,-0.003621910,-0.001756674,-0.016279389,-0.000260649,-0.188299692
1609059034081394944,188,1609059034081394944,-0.021994835,-0.024885376,-0.008040585,0.000291399,-0.043236033,-0.000789034,0.999064531,0.000286775,0.005215387,0.003474447,0.023003304,-0.002745101,-0.000444005,0.006740871,-0.003621866,-0.001756672,-0.016277073,-0.000261844,-0.188256403
1609059034184546304,189,1609059034184546304,-0.020149474,-0.026506345,-0.011222649,0.000404718,-0.043206407,-0.000771046,0.999065788,0.003003887,0.004030303,-0.000694534,0.023787331,-0.004006290,0.002629060,0.006740844,-0.003621896,-0.001756672,-0.016265805,-0.000267613,-0.188048077
1609059034287946496,190,1609059034287946496,-0.019087478,-0.026373795,-0.012288550,0.000426379,-0.043167149,-0.000769696,0.999067477,0.005065924,0.004285835,-0.002233085,0.025288526,0.000259580,0.003567779,0.006740847,-0.003621907,-0.001756675,-0.016262732,-0.000269162,-0.187991549
1609059034390798848,191,1609059034390798848,-0.018551535,-0.026107943,-0.012499797,0.000431502,-0.043101248,-0.000770301,0.999070319,0.005624194,0.005211607,-0.001438975,0.026123956,-0.001982275,0.005424546,0.006740845,-0.003621907,-0.001756675,-0.016262665,-0.000269196,-0.187990304
1609059034493906432,192,1609059034493906432,-0.017982652,-0.025727629,-0.012684396,0.000496929,-0.043074559,-0.000704224,0.999071489,0.005109239,0.005712956,-0.001320733,0.025270555,-0.004426863,0.004429327,0.006740844,-0.003621907,-0.001756675,-0.016262613,-0.000269221,-0.187989337
1609059034597388032,193,1609059034597388032,-0.017960360,-0.025346264,-0.013068625,0.000590934,-0.043132803,-0.000684144,0.999068939,0.004572771,0.006012513,-0.002280658,0.022662107,-0.007335307,0.004297658,0.006740845,-0.003621899,-0.001756675,-0.016261992,-0.000269526,-0.187977669
1609059034668192512,194,1609059034668192512,-0.019152734,-0.026936561,-0.012190200,0.000374315,-0.043228441,-0.000772422,0.999064845,0.004407943,0.001102962,-0.001958744,0.015253851,-0.002716998,-0.004356417,0.006740835,-0.003621874,-0.001756675,-0.016265385,-0.000267896,-0.188041480
1609059034768651264,195,1609059034768651264,-0.019453786,-0.028278996,-0.011939210,0.000384038,-0.043257818,-0.000740235,0.999063594,0.005061839,-0.001262162,-0.002310081,0.009531099,0.000760014,-0.005090881,0.006740826,-0.003621867,-0.001756674,-0.016266872,-0.000267208,-0.188069194
1609059034871648768,196,1609059034871648768,-0.018660038,-0.028493636,-0.012605014,0.000394944,-0.043150715,-0.000731701,0.999068228,0.006221382,-0.000739806,-0.003017603,0.014959916,-0.000425734,-0.004006955,0.006740839,-0.003621874,-0.001756672,-0.016265621,-0.000267764,-0.188046026
1609059034974968576,197,1609059034974968576,-0.018033156,-0.027891629,-0.012745889,0.000323010,-0.043105550,-0.000766681,0.999070177,0.006173795,0.000843317,-0.002893957,0.018468726,-0.002199555,-0.001940954,0.006740859,-0.003621874,-0.001756672,-0.016266216,-0.000267502,-0.188057102
1609059035078006016,198,1609059035078006016,-0.018506122,-0.027582150,-0.011799863,0.000306908,-0.043184129,-0.000749444,0.999066802,0.004842307,0.002180710,0.000171255,0.018617194,-0.003971979,-0.001258785,0.006740872,-0.003621858,-0.001756674,-0.016269694,-0.000265967,-0.188122170
1609059035181508608,199,1609059035181508608,-0.018994513,-0.027124139,-0.011870324,0.000262361,-0.043298047,-0.000780075,0.999061861,0.004379971,0.002615580,0.000086510,0.020971693,-0.000288110,-0.001059607,0.006740886,-0.003621847,-0.001756675,-0.016269473,-0.000266065,-0.188118077
1609059035284885760,200,1609059035284885760,-0.020273103,-0.025853264,-0.011460988,0.000319085,-0.043355839,-0.000790672,0.999059330,0.002710597,0.006640553,-0.000173145,0.025992813,-0.000183220,0.003123008,0.006740905,-0.003621824,-0.001756675,-0.016270836,-0.000265459,-0.188142806
1609059035387869952,201,1609059035387869952,-0.022667352,-0.025954612,-0.014093268,0.000408137,-0.043365379,-0.000735389,0.999058925,-0.001075538,0.007179981,-0.002732620,0.026628280,-0.001916935,0.003818604,0.006740904,-0.003621787,-0.001756675,-0.016262560,-0.000269125,-0.187995924
1609059035490463744,202,1609059035490463744,-0.022856023,-0.027445538,-0.012013387,0.000441258,-0.043295197,-0.000746468,0.999061947,-0.001186966,0.004889988,0.001216787,0.028473010,-0.002495853,0.002952189,0.006740881,-0.003621787,-0.001756677,-0.016269942,-0.000265888,-0.188124413
1609059035593838336,203,1609059035593838336,-0.021297009,-0.027737743,-0.012917808,0.000538036,-0.043249399,-0.000738116,0.999063889,0.000189257,0.004961575,0.000042407,0.023813736,-0.004459607,0.005230509,0.006740877,-0.003621818,-0.001756678,-0.016266742,-0.000267255,-0.188069637
1609059035697205760,204,1609059035697205760,-0.021260663,-0.027511836,-0.012912178,0.000548088,-0.043324734,-0.000729511,0.999060626,0.000468865,0.005429668,0.000831056,0.022059768,-0.007173650,0.006103572,0.006740875,-0.003621818,-0.001756678,-0.016266594,-0.000267316,-0.188067138
1609059035767211008,205,1609059035767211008,-0.020840392,-0.027162544,-0.014222390,0.000296411,-0.043337430,-0.000814706,0.999060116,0.002727105,0.002912037,-0.000825114,0.012876708,-0.001683632,-0.005255783,0.006740888,-0.003621829,-0.001756678,-0.016262058,-0.000269169,-0.187991531
1609059035869139712,206,1609059035869139712,-0.019490901,-0.025708928,-0.013287960,0.000252863,-0.043257398,-0.000828105,0.999063585,0.005244155,0.004532321,0.000211092,0.012540385,0.001505076,-0.003887464,0.006740909,-0.003621854,-0.001756678,-0.016265461,-0.000267806,-0.188047424
1609059035972873216,207,1609059035972873216,-0.018945475,-0.024513250,-0.012896932,0.000179624,-0.043197445,-0.000821499,0.999066201,0.005673140,0.005321922,0.000981901,0.016133031,0.000160872,-0.003437572,0.006740925,-0.003621857,-0.001756679,-0.016266612,-0.000267339,-0.188066308
1609059036075500032,208,1609059036075500032,-0.018481725,-0.023873490,-0.012805944,0.000160622,-0.043180820,-0.000829020,0.999066917,0.005354921,0.005704957,0.001965370,0.018609997,-0.002714698,-0.002604437,0.006740926,-0.003621857,-0.001756679,-0.016266504,-0.000267384,-0.188064531
