time,field.header.seq,field.header.stamp,field.pose.pose.position.x,field.pose.pose.position.y,field.pose.pose.position.z,field.pose.pose.orientation.x,field.pose.pose.orientation.y,field.pose.pose.orientation.z,field.pose.pose.orientation.w,field.twist.twist.linear.x,field.twist.twist.linear.y,field.twist.twist.linear.z,field.twist.twist.angular.x,field.twist.twist.angular.y,field.twist.twist.angular.z, ex,ey,ez,erx,ery,erz,evx,evy,evz,gbx,gby,gbz,abx,aby,abz
1609043648068687360,0,1609043648068687360,0.000019125,-0.000228486,0.000059073,0.003677473,-0.014460349,-0.000136869,0.999888672,0.000039817,-0.000029993,0.001303214,0.016377497,-0.005864428,0.005527409,0.002739301,-0.018539950,0.009308748,-0.001127919,-0.001347554,0.000094540,0.027250093,-0.187584087,0.092644003,0.006891698,-0.003068425,-0.000776349,-0.007359016,-0.001779282,-0.260733776
1609043648162494208,1,1609043648162494208,0.000263434,-0.001244653,0.000273663,0.004577575,-0.014137892,-0.000081491,0.999889573,0.001807005,-0.008868385,0.002633154,0.004005410,-0.004723426,-0.001021968,0.008509400,-0.027919430,0.008170272,-0.002458871,-0.000595111,0.000268557,0.085248476,-0.279021225,0.080967465,0.006891701,-0.003068418,-0.000776349,-0.007408786,-0.001791389,-0.262481179
1609043648257946880,2,1609043648257946880,0.000504944,-0.003486544,0.000570406,0.005231429,-0.014140480,-0.000094944,0.999886329,0.002295883,-0.019146601,0.002648004,0.000764600,-0.001034149,-0.004772729,0.003430384,-0.026862567,0.001450859,-0.004400703,-0.001190576,-0.000118246,0.034155527,-0.266519476,0.014596875,0.006891709,-0.003068408,-0.000776349,-0.007421226,-0.001794760,-0.262918633
1609043648369037056,3,1609043648369037056,0.001029343,-0.007218559,0.000272140,0.005648069,-0.014064745,-0.000108694,0.999885129,0.004008642,-0.025714936,0.001398771,0.019721128,-0.003594379,0.009464400,0.001783055,-0.017939811,-0.008728632,-0.004547048,-0.000087738,-0.000415484,0.017856869,-0.182956107,-0.087967536,0.006891719,-0.003068400,-0.000776348,-0.007323527,-0.001765499,-0.259479915
1609043648462505216,4,1609043648462505216,0.000980319,-0.010073714,-0.001727404,0.005463419,-0.014130173,-0.000204698,0.999885217,0.002269581,-0.033159586,-0.006420186,0.009237853,-0.004820420,0.000477163,-0.002918041,-0.007046895,-0.017569201,-0.005248284,0.000566157,-0.000691798,-0.029460517,-0.066141213,-0.176254815,0.006891733,-0.003068399,-0.000776347,-0.007096081,-0.001692676,-0.251462334
1609043648557769984,5,1609043648557769984,0.003223688,-0.015272875,-0.003695204,0.005667539,-0.013758363,-0.000172591,0.999889272,0.008590511,-0.042894912,-0.011309632,0.004644952,-0.003974660,-0.001312620,0.008182801,-0.013589093,-0.007470613,-0.005501514,0.000348889,0.000190712,0.081917952,-0.133288224,-0.074351713,0.006891745,-0.003068391,-0.000776347,-0.006988027,-0.001656576,-0.247652294
1609043648668736256,6,1609043648668736256,0.006428493,-0.020876366,-0.007685615,0.005674985,-0.013485034,-0.000136093,0.999892959,0.015059707,-0.048140511,-0.018887389,0.016070608,-0.008183568,0.005383918,0.007727589,-0.007298171,-0.010913760,-0.005669668,-0.000337881,0.000209156,0.077859434,-0.075817984,-0.110651211,0.006891760,-0.003068383,-0.000776348,-0.006811773,-0.001594966,-0.241409520
1609043648762487296,7,1609043648762487296,0.008573600,-0.024416086,-0.011963525,0.005395046,-0.013440505,-0.000141769,0.999895108,0.017526759,-0.049500084,-0.026075974,0.013383910,-0.006833655,0.003604214,0.002347583,-0.000206840,-0.007266475,-0.005542779,-0.000620176,0.000026855,0.022621938,-0.000069755,-0.072342065,0.006891778,-0.003068379,-0.000776348,-0.006691215,-0.001551315,-0.237113415
1609043648857476096,8,1609043648857476096,0.010232563,-0.025291301,-0.014895716,0.004947048,-0.013430792,-0.000141187,0.999897555,0.018669917,-0.048076022,-0.029722705,-0.002390886,-0.004289561,-0.006605884,0.000260324,0.005855849,-0.001237050,-0.004991292,-0.000222241,0.000127745,0.000756368,0.065893059,-0.009239753,0.006891797,-0.003068381,-0.000776348,-0.006675235,-0.001545410,-0.236540976
1609043648968594688,9,1609043648968594688,0.007487468,-0.028570030,-0.017146366,0.004750134,-0.013791840,-0.000132887,0.999893596,0.010637157,-0.043926435,-0.029136802,0.015797477,-0.003915046,0.004444933,-0.010751455,0.002925374,0.003073087,-0.003786662,-0.000155679,0.000107921,-0.105357868,0.022606713,0.027200222,0.006891821,-0.003068380,-0.000776349,-0.006722047,-0.001562915,-0.238228209
1609043649062355712,10,1609043649062355712,0.007566539,-0.026473270,-0.017730587,0.004304648,-0.013854063,-0.000131040,0.999894753,0.009674297,-0.035459836,-0.026563953,0.012556827,-0.004460794,0.003423465,-0.001980249,0.011011885,0.004551038,-0.003544490,0.000100877,-0.000163471,-0.020379842,0.111331329,0.046346219,0.006891842,-0.003068386,-0.000776348,-0.006799757,-0.001592029,-0.241033350
1609043649157798400,11,1609043649157798400,0.007895368,-0.026520483,-0.013784850,0.004057546,-0.013879515,-0.000146099,0.999895432,0.008853258,-0.034348630,-0.018119282,-0.003989911,-0.003393801,-0.005472601,-0.000895739,0.004334137,0.011208038,-0.002994378,-0.000180889,-0.000165916,-0.009721497,0.048441425,0.114998685,0.006891861,-0.003068387,-0.000776348,-0.006986158,-0.001661168,-0.247767092
1609043649268594944,12,1609043649268594944,0.007268161,-0.021492261,-0.016583235,0.003608486,-0.013967251,-0.000169253,0.999895928,0.007026312,-0.018460003,-0.019581966,0.015098372,-0.004732261,0.005522660,-0.003072764,0.014850063,-0.000771008,-0.001475545,0.000230205,-0.000049401,-0.029701636,0.142491348,-0.010576122,0.006891881,-0.003068395,-0.000776347,-0.006969495,-0.001655122,-0.247164794
1609043649362310400,13,1609043649362310400,0.007626622,-0.018840244,-0.017991908,0.003330770,-0.013971910,-0.000226891,0.999896815,0.006698094,-0.013598486,-0.020717442,0.003042420,-0.005573808,-0.001996568,-0.000445227,0.007048056,0.000550335,-0.000556009,0.000126340,0.000013773,-0.005193569,0.072191833,0.007785078,0.006891890,-0.003068400,-0.000776347,-0.006980713,-0.001659067,-0.247570301
1609043649457795328,14,1609043649457795328,0.008534117,-0.019745988,-0.019753230,0.003333693,-0.013968466,-0.000213262,0.999896856,0.007046896,-0.014874834,-0.020990766,0.000073785,-0.003077641,-0.004520554,0.000339975,0.000477511,0.000359823,-0.000074005,0.000030987,-0.000005185,0.003493394,0.006853527,0.004387199,0.006891892,-0.003068401,-0.000776347,-0.006986780,-0.001661110,-0.247789500
1609043649568291584,15,1609043649568291584,0.009412491,-0.021580014,-0.022458714,0.003372756,-0.013981630,-0.000195278,0.999896545,0.007913478,-0.012853380,-0.022734524,0.015874051,-0.005790473,0.005612068,0.000000000,0.000000000,0.000000000,0.000000000,-0.000000000,-0.000000000,0.000574108,-0.003620570,-0.002727443,0.006891891,-0.003068400,-0.000776347,-0.006983408,-0.001660038,-0.247667638
1609043649662141440,16,1609043649662141440,0.010280815,-0.020993433,-0.018862096,0.003240210,-0.013956178,-0.000240308,0.999897329,0.007936669,-0.012172140,-0.017071549,0.003745427,-0.004642218,-0.002358917,0.000168610,0.002731440,0.007592798,-0.000474815,0.000360496,0.000007387,0.001100089,0.028387862,0.078550787,0.006891900,-0.003068405,-0.000776347,-0.007080207,-0.001689539,-0.251161323
1609043649757415168,17,1609043649757415168,0.011086220,-0.022002066,-0.020512514,0.003203944,-0.013933712,-0.000260735,0.999897754,0.008278931,-0.012733317,-0.017802459,0.000637451,-0.003602477,-0.004531106,0.000024883,0.000151751,0.000069213,-0.000011664,0.000004698,-0.000000844,0.000001012,0.002675728,0.001223210,0.006891900,-0.003068405,-0.000776347,-0.007081570,-0.001689928,-0.251210533
1609043649868411648,18,1609043649868411648,0.010833905,-0.021475190,-0.017612058,0.003218705,-0.013982379,-0.000218884,0.999897037,0.007837659,-0.007348191,-0.011574351,0.019860744,-0.004829402,0.007341904,-0.002014358,0.003046385,0.006723864,-0.000134086,0.000280439,0.000007791,-0.019462237,0.026824058,0.064302519,0.006891909,-0.003068404,-0.000776347,-0.007151715,-0.001708583,-0.253741853
1609043649962271744,19,1609043649962271744,0.009448515,-0.022334873,-0.014869382,0.003206661,-0.014018294,-0.000234663,0.999896569,0.005363068,-0.010420944,-0.007876702,0.010460855,-0.005039900,0.001189711,-0.003224625,0.000000024,0.005101706,-0.000325345,0.000316815,0.000036226,-0.032854632,0.000869142,0.051823171,0.006891915,-0.003068397,-0.000776348,-0.007203989,-0.001721498,-0.255627540
1609043650057522944,20,1609043650057522944,0.011199472,-0.021217574,-0.014879970,0.003143649,-0.013958589,-0.000227680,0.999897606,0.007318437,-0.008998023,-0.007693014,0.001104191,-0.002753219,-0.004172607,0.001767847,0.003080206,0.001072274,-0.000419678,0.000212553,0.000068508,0.017450702,0.031955556,0.011019748,0.006891928,-0.003068407,-0.000776348,-0.007214339,-0.001723839,-0.256000449
1609043650168541952,21,1609043650168541952,0.012113455,-0.022308628,-0.015798075,0.003163266,-0.013968904,-0.000223896,0.999897401,0.008040721,-0.005663626,-0.006587666,0.020397486,-0.002893067,0.008740834,0.000000000,0.000000000,0.000000000,0.000000000,-0.000000000,-0.000000000,0.000724993,-0.003461533,-0.001623932,0.006891926,-0.003068407,-0.000776348,-0.007213008,-0.001723586,-0.255952486
1609043650262203648,22,1609043650262203648,0.012804121,-0.023105386,-0.016497131,0.003092072,-0.013960877,-0.000278897,0.999897722,0.007962630,-0.007576955,-0.007295650,0.009066858,-0.004224819,0.000249315,0.000000000,0.000000000,0.000000000,0.000000000,-0.000000000,-0.000000000,-0.000702905,-0.000260009,0.000192995,0.006891926,-0.003068406,-0.000776348,-0.007213156,-0.001723611,-0.255957815
1609043650357485312,23,1609043650357485312,0.013517832,-0.023730537,-0.017158022,0.003027583,-0.013957905,-0.000324368,0.999897948,0.008388381,-0.008523222,-0.007211006,0.000078086,-0.001508417,-0.003820030,-0.000008447,0.000049225,0.000013894,-0.000002653,0.000001800,0.000001545,-0.000894221,0.001830234,0.000466446,0.006891927,-0.003068406,-0.000776348,-0.007213497,-0.001723660,-0.255970108
1609043650468751104,24,1609043650468751104,0.014517550,-0.024618785,-0.018033888,0.003050592,-0.013960640,-0.000330070,0.999897838,0.009242126,-0.005204474,-0.006898276,0.012974690,-0.004454443,0.002945256,0.000000000,0.000000000,0.000000000,0.000000000,-0.000000000,-0.000000000,0.000507754,-0.002473779,-0.001190888,0.006891926,-0.003068406,-0.000776348,-0.007212689,-0.001723572,-0.255941014
1609043650562211840,25,1609043650562211840,0.015419630,-0.025354845,-0.018799340,0.003060229,-0.013959953,-0.000330714,0.999897817,0.009684185,-0.006183427,-0.006985141,0.013257608,-0.005872215,0.004121399,0.000000000,0.000000000,0.000000000,0.000000000,-0.000000000,0.000000000,-0.000449199,-0.000797144,-0.000432019,0.006891926,-0.003068406,-0.000776348,-0.007212411,-0.001723549,-0.255931047
1609043650657418496,26,1609043650657418496,0.016224106,-0.025699532,-0.019415191,0.003072585,-0.013956337,-0.000324950,0.999897832,0.009186797,-0.008122731,-0.007187431,0.000652297,-0.002110922,-0.003552610,-0.000107816,0.000361565,0.000104378,-0.000015612,0.000005945,0.000006770,-0.001465056,0.005468208,0.001297748,0.006891929,-0.003068406,-0.000776348,-0.007213251,-0.001723608,-0.255961203
1609043650768271360,27,1609043650768271360,0.017256206,-0.026651728,-0.020270742,0.003066587,-0.013960622,-0.000341592,0.999897785,0.009726440,-0.004962812,-0.006115974,0.016175851,-0.004260145,0.005546760,0.000000000,0.000000000,0.000000000,0.000000000,-0.000000000,-0.000000000,0.000406622,-0.003118634,-0.001595536,0.006891927,-0.003068406,-0.000776348,-0.007212326,-0.001723585,-0.255927982
1609043650862178816,28,1609043650862178816,0.017956411,-0.026912108,-0.020679381,0.003036715,-0.013962181,-0.000369869,0.999897844,0.010129958,-0.005650017,-0.006766244,0.004151068,-0.004646222,-0.002351423,-0.000293016,0.000543623,0.000306211,-0.000008462,0.000002793,0.000014633,-0.004025245,0.005559002,0.003631986,0.006891931,-0.003068403,-0.000776348,-0.007214472,-0.001723625,-0.256004993
1609043650957247232,29,1609043650957247232,0.015755671,-0.023758333,-0.018619670,0.002935337,-0.014035819,-0.000359741,0.999897120,0.005906015,-0.000643399,-0.004142620,-0.000355606,-0.003278503,-0.004278711,-0.005429810,0.005997855,0.004196004,-0.000165571,0.000162820,0.000249339,-0.054201641,0.060613847,0.042152232,0.006891973,-0.003068375,-0.000776351,-0.007238581,-0.001723541,-0.256869053
1609043651068470528,30,1609043651068470528,0.016440099,-0.023848146,-0.019094039,0.002951610,-0.014044013,-0.000362680,0.999896956,0.006587964,0.003318150,-0.002645613,0.020448156,-0.004698459,0.008335312,-0.000055797,-0.000011713,0.000058346,0.000004488,-0.000000676,0.000004779,-0.000178142,-0.002989930,-0.001040383,0.006891971,-0.003068374,-0.000776351,-0.007238076,-0.001723580,-0.256851013
1609043651162469632,31,1609043651162469632,0.017045539,-0.023778840,-0.019467858,0.002927855,-0.014034921,-0.000379855,0.999897147,0.006949951,0.001077283,-0.004113471,0.009001935,-0.005746646,0.000204988,0.000000000,0.000000000,0.000000000,0.000000000,-0.000000000,-0.000000000,-0.000624391,-0.000267851,0.000252373,0.006891971,-0.003068374,-0.000776351,-0.007238199,-0.001723569,-0.256855411
1609043651257454848,32,1609043651257454848,0.017738819,-0.023630960,-0.019890330,0.002927541,-0.014037613,-0.000389889,0.999897106,0.006822658,-0.000067777,-0.005223730,0.004232348,-0.003463457,-0.002299916,-0.000025506,0.000041405,0.000043513,0.000000564,0.000001061,0.000003489,-0.000088126,0.001350767,0.000947064,0.006891972,-0.003068374,-0.000776351,-0.007238663,-0.001723522,-0.256871873
1609043651368612864,33,1609043651368612864,0.018472618,-0.023592016,-0.020501438,0.002970895,-0.014050679,-0.000350619,0.999896809,0.006756136,0.002972965,-0.005575276,0.015624356,-0.003583745,0.005684153,-0.000070782,0.000004669,0.000061947,0.000003721,-0.000000194,0.000005107,-0.000049079,-0.001775717,0.000022386,0.006891971,-0.003068374,-0.000776351,-0.007238698,-0.001723526,-0.256873106
1609043651462187264,34,1609043651462187264,0.019118953,-0.023499837,-0.021080972,0.002988111,-0.014060655,-0.000343669,0.999896620,0.006829862,0.002381450,-0.005460300,0.013841681,-0.004849946,0.003586082,-0.000057650,0.000032738,0.000068016,0.000002194,0.000001142,0.000004346,-0.000631276,-0.000812331,0.000197817,0.006891970,-0.003068373,-0.000776351,-0.007238811,-0.001723516,-0.256877097
1609043651557303808,35,1609043651557303808,0.019741888,-0.023317111,-0.021616880,0.002983255,-0.014054115,-0.000350711,0.999896724,0.007185852,0.001197843,-0.005625635,0.001164182,-0.001265276,-0.005103366,0.000000000,0.000000000,0.000000000,-0.000000000,0.000000000,0.000000000,-0.000675766,0.000444719,0.000183477,0.006891970,-0.003068373,-0.000776351,-0.007238889,-0.001723502,-0.256879847
1609043651668114944,36,1609043651668114944,0.018660993,-0.022889553,-0.019652580,0.002977268,-0.014107717,-0.000354446,0.999895986,0.005221594,0.005339880,-0.001373978,0.012272606,-0.005557186,0.004515338,-0.003288505,0.000345845,0.004279691,0.000182186,0.000043545,0.000192674,-0.032730794,0.001598285,0.041624220,0.006891971,-0.003068348,-0.000776354,-0.007257746,-0.001720183,-0.257539548
1609043651762060544,37,1609043651762060544,0.019035066,-0.022461631,-0.019735750,0.002974030,-0.014115990,-0.000346353,0.999895882,0.005475232,0.006616155,-0.001757296,0.013467860,-0.005720927,0.004236337,-0.000172733,0.000061091,0.000179668,0.000005210,0.000005718,0.000012364,-0.002363307,-0.001255296,0.001791181,0.006891970,-0.003068346,-0.000776354,-0.007258531,-0.001720030,-0.257566859
1609043651857352960,38,1609043651857352960,0.019535646,-0.021899670,-0.019997561,0.002965564,-0.014110221,-0.000352014,0.999895986,0.005376911,0.004012407,-0.003150506,-0.002893236,-0.004779969,-0.006690776,-0.000000335,0.000000129,0.000000318,-0.000000002,0.000000011,0.000000021,-0.000266559,0.001145807,0.000374334,0.006891971,-0.003068346,-0.000776354,-0.007258678,-0.001719995,-0.257571955
1609043651968310528,39,1609043651968310528,0.020042432,-0.021402011,-0.020264398,0.003049823,-0.014121080,-0.000297947,0.999895597,0.006040728,0.008759034,-0.001206669,0.014062835,-0.003978753,0.003531694,-0.000001700,0.000000058,0.000001666,0.000000061,0.000000020,0.000000090,-0.000705886,-0.002700541,-0.001016172,0.006891969,-0.003068346,-0.000776354,-0.007258288,-0.001720095,-0.257558553
1609043652062167040,40,1609043652062167040,0.020543755,-0.020741682,-0.020396225,0.003141854,-0.014113670,-0.000244856,0.999895431,0.005937479,0.007148789,-0.002408027,0.011930454,-0.005944629,0.004686925,0.000000000,0.000000000,0.000000000,0.000000000,0.000000000,-0.000000000,-0.000664254,-0.000391975,0.000771940,0.006891969,-0.003068345,-0.000776354,-0.007258576,-0.001720018,-0.257568392
1609043652157705216,41,1609043652157705216,0.021081535,-0.020163331,-0.020637351,0.003145423,-0.014095620,-0.000252077,0.999895673,0.005555258,0.003967829,-0.003409883,0.000816004,-0.002264040,-0.004694511,0.000000000,0.000000000,0.000000000,0.000000000,0.000000000,0.000000000,-0.000127804,0.001307716,0.000710413,0.006891970,-0.003068345,-0.000776354,-0.007258836,-0.001719949,-0.257577203
1609043652269840128,42,1609043652269840128,0.021729376,-0.019678770,-0.021102336,0.003209714,-0.014112150,-0.000217998,0.999895243,0.005629682,0.007902511,-0.003127664,0.025372898,-0.005031952,0.009301251,0.000000000,0.000000000,0.000000000,0.000000000,0.000000000,-0.000000000,0.000606664,-0.002185210,-0.001078476,0.006891968,-0.003068345,-0.000776354,-0.007258445,-0.001720055,-0.257564003
1609043652363836160,43,1609043652363836160,0.022244655,-0.019334111,-0.021487103,0.003173934,-0.014106065,-0.000242142,0.999895438,0.005952305,0.005851759,-0.003162078,0.013666479,-0.005790063,0.004018607,0.000000000,0.000000000,0.000000000,0.000000000,-0.000000000,-0.000000000,-0.000573009,-0.001723844,-0.000487964,0.006891967,-0.003068345,-0.000776354,-0.007258272,-0.001720103,-0.257558195
1609043652457461504,44,1609043652457461504,0.022798898,-0.018863621,-0.021862188,0.003199158,-0.014102670,-0.000233004,0.999895407,0.006286695,0.003976108,-0.004188045,0.000883583,-0.002387091,-0.004037629,0.000000000,0.000000000,0.000000000,0.000000000,-0.000000000,0.000000000,-0.000534594,0.000523514,0.000312424,0.006891967,-0.003068344,-0.000776354,-0.007258380,-0.001720073,-0.257561811
1609043652569962240,45,1609043652569962240,0.012854638,-0.018400461,-0.017096260,0.003263868,-0.014401949,-0.000204804,0.999890939,-0.008069569,0.007561374,0.002225661,0.021030556,-0.003401090,0.007983077,-0.019346758,-0.000192999,0.009660587,-0.000196395,0.000789155,-0.000286558,-0.192848697,-0.003451006,0.095702104,0.006891978,-0.003068193,-0.000776350,-0.007293707,-0.001711137,-0.258743570
1609043652663848192,46,1609043652663848192,0.008815836,-0.024634663,-0.012593195,0.003401174,-0.014473391,-0.000215645,0.999889447,-0.012912822,-0.002648919,0.006542349,0.013737819,-0.003676696,0.004835053,-0.006059578,-0.012142338,0.008234571,-0.000627185,0.000552947,-0.000005970,-0.059929732,-0.123162208,0.081799026,0.006891887,-0.003068143,-0.000776350,-0.007323540,-0.001703719,-0.259725212
1609043652757585920,47,1609043652757585920,0.007704690,-0.024803041,-0.012092658,0.003393014,-0.014456363,-0.000227559,0.999889719,-0.013786784,-0.005790326,0.006232819,-0.003435477,-0.002885083,-0.007428671,-0.000020951,0.000240650,0.000017582,-0.000016108,0.000006436,0.000004969,0.001779669,0.004540333,-0.000765614,0.006891891,-0.003068145,-0.000776351,-0.007323288,-0.001703783,-0.259717118
1609043652871131392,48,1609043652871131392,0.005980764,-0.025332919,-0.011312228,0.003443485,-0.014453200,-0.000199144,0.999889598,-0.014690498,-0.000260286,0.008355509,0.026232287,-0.006241389,0.009590965,0.000000740,0.000004722,0.000000497,-0.000000291,0.000000155,0.000000109,-0.001810153,-0.003557108,-0.000390838,0.006891888,-0.003068143,-0.000776351,-0.007323155,-0.001703814,-0.259712936
1609043652963475200,49,1609043652963475200,0.004595019,-0.025695072,-0.010706769,0.003369259,-0.014423786,-0.000246874,0.999890265,-0.015548296,-0.001563869,0.007340657,0.011140129,-0.006742110,0.004964291,0.000000000,0.000000000,0.000000000,0.000000000,-0.000000000,-0.000000000,0.001207620,-0.001469666,-0.000923277,0.006891887,-0.003068144,-0.000776351,-0.007322844,-0.001703882,-0.259703335
1609043653058115072,50,1609043653058115072,0.003343048,-0.025878003,-0.010159098,0.003390249,-0.014415646,-0.000233650,0.999890314,-0.015767290,-0.004226179,0.006629536,-0.002703589,-0.002912884,-0.005719554,0.000000000,0.000000000,0.000000000,0.000000000,0.000000000,-0.000000000,0.002333415,0.001722189,-0.000832969,0.006891888,-0.003068146,-0.000776351,-0.007322568,-0.001703939,-0.259694942
1609043653169545728,51,1609043653169545728,0.001653372,-0.025838681,-0.009274930,0.003374950,-0.014423184,-0.000233882,0.999890257,-0.015906939,-0.001585316,0.007931359,0.015600026,-0.002926935,0.005526977,0.000236351,0.001084893,0.000261507,-0.000070594,0.000037868,0.000030019,0.000833529,0.008539477,0.002395534,0.006891896,-0.003068148,-0.000776351,-0.007323426,-0.001703781,-0.259720863
1609043653263297280,52,1609043653263297280,0.000247983,-0.026196048,-0.008636089,0.003348962,-0.014412372,-0.000247613,0.999890497,-0.016587195,-0.003511089,0.008017344,0.009199513,-0.004465004,0.000767726,0.000004207,0.000014694,0.000001967,-0.000000790,0.000000337,0.000000488,0.001844617,0.000052102,-0.001165541,0.006891896,-0.003068149,-0.000776351,-0.007323043,-0.001703850,-0.259709580
1609043653357565440,53,1609043653357565440,-0.001387337,-0.026540466,-0.007873865,0.003386797,-0.014405026,-0.000229548,0.999890480,-0.017440993,-0.004429107,0.007782944,0.004413848,-0.003557517,-0.001285007,0.000000000,0.000000000,0.000000000,0.000000000,-0.000000000,0.000000000,0.000779788,0.000706068,-0.000116394,0.006891896,-0.003068150,-0.000776351,-0.007323006,-0.001703857,-0.259708476
1609043653470639104,54,1609043653470639104,-0.002043596,-0.024361968,-0.006088059,0.003300118,-0.014367875,-0.000223231,0.999891306,-0.016341963,0.001938898,0.010004821,0.016089503,-0.007425565,0.004685434,0.002403926,0.004829558,0.001816338,-0.000243745,0.000096003,0.000166189,0.022754662,0.045834163,0.017785771,0.006891936,-0.003068172,-0.000776353,-0.007329222,-0.001702925,-0.259888922
1609043653563307520,55,1609043653563307520,-0.003429777,-0.024153034,-0.005131674,0.003253659,-0.014355857,-0.000241614,0.999891626,-0.016295234,0.000053949,0.010431667,0.010447379,-0.007259643,0.002495194,0.000194018,0.000382869,0.000158308,-0.000022423,0.000011607,0.000014001,0.003015828,0.003973412,0.000431072,0.006891939,-0.003068175,-0.000776353,-0.007329396,-0.001702901,-0.259894022
1609043653657113344,56,1609043653657113344,-0.004895276,-0.024105279,-0.004199706,0.003257037,-0.014346279,-0.000225256,0.999891757,-0.016660742,-0.001688887,0.009588745,-0.004023702,-0.004906165,-0.004515417,0.000000000,0.000000000,0.000000000,0.000000000,-0.000000000,-0.000000000,0.001437503,0.001552717,-0.000195555,0.006891941,-0.003068176,-0.000776353,-0.007329334,-0.001702909,-0.259892275
1609043653757525504,57,1609043653757525504,-0.004609959,-0.025922303,0.006414561,0.003269037,-0.014289055,-0.000225099,0.999892537,-0.014850316,-0.003782101,0.021078988,-0.002210465,-0.003239318,-0.007174015,0.003711904,-0.003691050,0.018804399,-0.001467005,-0.000332781,0.000519911,0.037366818,-0.035426018,0.188120604,0.006891927,-0.003068201,-0.000776360,-0.007392442,-0.001694472,-0.261678183
1609043653866878464,58,1609043653866878464,-0.006426930,-0.026289099,0.009035087,0.003325100,-0.014306293,-0.000171645,0.999892116,-0.014841472,-0.000217847,0.022586389,0.019914391,-0.002772752,0.008259233,0.000000147,0.000004467,-0.000000450,-0.000000328,0.000000048,0.000000234,-0.002360704,-0.002419010,0.002612093,0.006891925,-0.003068199,-0.000776360,-0.007393259,-0.001694366,-0.261700995
1609043653960734464,59,1609043653960734464,-0.007524937,-0.026432908,0.010678722,0.003365800,-0.014285843,-0.000156772,0.999892275,-0.014356427,-0.002104485,0.021931577,0.000770302,-0.000461126,-0.003617949,0.000000059,0.000005169,-0.000000697,-0.000000308,0.000000046,0.000000158,0.002415657,0.000510698,-0.004004737,0.006891925,-0.003068201,-0.000776360,-0.007392039,-0.001694515,-0.261667065
1609043654057466368,60,1609043654057466368,-0.008949725,-0.026575542,0.012835627,0.003334210,-0.014274728,-0.000166656,0.999892538,-0.014590611,-0.002926311,0.021506253,0.000736288,-0.002208687,-0.003644088,0.000000000,0.000000000,0.000000000,0.000000000,-0.000000000,-0.000000000,0.000245130,0.001072888,0.000045741,0.006891926,-0.003068201,-0.000776360,-0.007392052,-0.001694513,-0.261667446
1609043654167167744,61,1609043654167167744,-0.009520728,-0.023281551,0.014694578,0.003238649,-0.014264186,-0.000164147,0.999893003,-0.013997573,0.003684267,0.021320963,0.016634487,-0.004287242,0.005674301,0.001951900,0.006377046,-0.001083744,-0.000452973,0.000055068,0.000309944,0.018695287,0.062493969,-0.009259736,0.006891982,-0.003068220,-0.000776365,-0.007389075,-0.001694826,-0.261584313
1609043654261045248,62,1609043654261045248,-0.008981546,-0.022014052,0.015448198,0.003191857,-0.014204107,-0.000161778,0.999894009,-0.011311704,0.004206885,0.020472737,0.008789002,-0.004797692,0.001004326,0.003261681,0.001917700,-0.002222741,-0.000594374,0.000011705,0.000414053,0.033423640,0.018392949,-0.024404362,0.006892002,-0.003068248,-0.000776370,-0.007381519,-0.001695601,-0.261373942
1609043654357563392,63,1609043654357563392,-0.006406995,-0.020837095,0.015488217,0.003126452,-0.014100298,-0.000151693,0.999895687,-0.006502840,0.004834327,0.018404847,0.004259495,-0.004767532,-0.001584599,0.006693924,0.001240190,-0.003602234,-0.001299194,-0.000529130,0.000834248,0.067520803,0.012505681,-0.037471845,0.006892024,-0.003068297,-0.000776382,-0.007370131,-0.001696783,-0.261055985
1609043654466949888,64,1609043654466949888,-0.006455326,-0.023990758,0.014956639,0.003222488,-0.014101986,-0.000115165,0.999895363,-0.005382268,0.001006109,0.016096863,0.013878262,-0.004287046,0.006447649,0.001230301,-0.006834151,-0.004876496,-0.001033122,-0.000715926,0.000719329,0.011955920,-0.068735065,-0.048505298,0.006891979,-0.003068294,-0.000776392,-0.007355675,-0.001698363,-0.260648735
1609043654563715840,65,1609043654563715840,-0.001263466,-0.026798301,0.014537381,0.003288218,-0.013956070,-0.000096352,0.999897198,0.002460634,-0.004064456,0.013375138,0.011078306,-0.003546264,0.002003928,0.010440748,-0.005194612,-0.003599161,-0.001550634,-0.001007041,0.000291614,0.104840902,-0.052254001,-0.037207186,0.006891949,-0.003068363,-0.000776396,-0.007344929,-0.001699524,-0.260343605
1609043654657459456,66,1609043654657459456,-0.002297782,-0.025392070,0.015336164,0.003183979,-0.014000743,-0.000101935,0.999896910,0.001113775,-0.002468536,0.012443078,-0.000587036,-0.000691676,-0.001939793,-0.002156290,0.003052837,-0.000903146,-0.001149909,-0.000874838,0.000347175,-0.022037991,0.031467312,-0.009387263,0.006891988,-0.003068337,-0.000776401,-0.007342314,-0.001699798,-0.260268136
1609043654768308992,67,1609043654768308992,-0.007233893,-0.021446920,0.011883063,0.003061459,-0.014167932,-0.000072108,0.999894940,-0.005178323,0.005921404,0.007596544,0.015669132,-0.003626152,0.006132277,-0.008902778,0.007481088,-0.009658701,-0.000998156,-0.000991010,0.000599520,-0.089531043,0.072589641,-0.096016064,0.006892063,-0.003068256,-0.000776410,-0.007316148,-0.001702638,-0.259500388
1609043654861835264,68,1609043654861835264,-0.003835308,-0.022696622,0.012310459,0.003057676,-0.014052220,-0.000060094,0.999896586,-0.000016517,0.003281107,0.006742885,0.009956742,-0.004592093,0.002359797,0.007122463,-0.002835037,-0.000162266,-0.000774809,-0.000618439,0.000732403,0.071785118,-0.030439478,-0.002915094,0.006892044,-0.003068304,-0.000776420,-0.007315397,-0.001702727,-0.259478280
1609043654958330112,69,1609043654958330112,-0.004346492,-0.022232629,0.014420007,0.003016471,-0.014077419,-0.000048208,0.999896357,-0.000697346,0.002853230,0.008158205,0.000809604,-0.002799140,-0.002495579,-0.000763131,0.000202774,0.003101319,-0.001112939,-0.001116581,0.000316607,-0.007690839,0.002088673,0.030640858,0.006892059,-0.003068284,-0.000776424,-0.007323280,-0.001701714,-0.259713156
1609043655068126720,70,1609043655068126720,-0.005591707,-0.022016871,0.014064852,0.003088203,-0.014139581,0.000002064,0.999895262,-0.001678423,0.007255601,0.007777836,0.020489221,-0.004037118,0.007882016,-0.001910365,-0.000458193,-0.002620929,-0.000654799,-0.001009172,0.000358299,-0.019723569,-0.006975362,-0.026033295,0.006892061,-0.003068256,-0.000776429,-0.007316688,-0.001702657,-0.259514545
1609043655162305536,71,1609043655162305536,-0.004516424,-0.024596190,0.015639515,0.003076989,-0.014098399,-0.000038505,0.999895877,-0.000480175,0.001478332,0.009033460,0.009115424,-0.006297258,0.003319269,0.002356549,-0.005329371,0.002133481,-0.000634610,-0.000612110,0.000281719,0.023932020,-0.055093360,0.019458104,0.006892023,-0.003068264,-0.000776433,-0.007321505,-0.001701921,-0.259660468
1609043655257473024,72,1609043655257473024,-0.005941497,-0.021263834,0.014238502,0.002933764,-0.014146892,-0.000050010,0.999895623,-0.002363392,0.005223267,0.005519127,-0.000148826,-0.003516821,-0.003353652,-0.002364305,0.005588905,-0.004489955,-0.001287056,-0.000770210,0.000481241,-0.023802381,0.056526324,-0.044989899,0.006892084,-0.003068239,-0.000776440,-0.007310711,-0.001703654,-0.259330912
1609043655367793408,73,1609043655367793408,-0.006081803,-0.024953626,0.015067112,0.003065517,-0.014151891,-0.000022507,0.999895158,-0.002102770,0.001351694,0.005414905,0.016465982,-0.003677866,0.005689595,0.000339457,-0.007767181,0.000526394,-0.000388081,-0.000611537,0.000604828,0.003041401,-0.078606235,0.005683343,0.006892025,-0.003068230,-0.000776449,-0.007312050,-0.001703410,-0.259371999
1609043655463260928,74,1609043655463260928,-0.003476247,-0.027229970,0.017111518,0.003118181,-0.014070105,-0.000019635,0.999896149,0.001242825,-0.003563693,0.006537161,0.009820794,-0.003722676,0.001671645,0.005244606,-0.004202464,0.003260823,-0.001050203,-0.000837900,0.000202766,0.052726703,-0.041951370,0.032414396,0.006892001,-0.003068259,-0.000776452,-0.007319572,-0.001702000,-0.259603747
1609043655558699008,75,1609043655558699008,-0.003623003,-0.026718958,0.017127550,0.003050105,-0.014084203,-0.000027309,0.999896160,0.000818218,-0.003686867,0.004872927,0.001449561,-0.001826951,-0.003030855,-0.000359592,0.001468514,-0.001102740,-0.001087956,-0.000764821,0.000401011,-0.003632329,0.015454156,-0.010988307,0.006892025,-0.003068248,-0.000776457,-0.007317088,-0.001702475,-0.259526488
1609043655669824768,76,1609043655669824768,-0.007257601,-0.024531307,0.014552134,0.002982692,-0.014203352,-0.000007820,0.999894679,-0.004032913,0.003202522,0.002568734,0.020983670,-0.004493786,0.008313273,-0.006483429,0.004627497,-0.006175382,-0.000856171,-0.000961543,0.000332205,-0.065186949,0.043313395,-0.062806072,0.006892074,-0.003068186,-0.000776462,-0.007303172,-0.001705321,-0.259089588
1609043655763274752,77,1609043655763274752,-0.003768261,-0.026657601,0.015349717,0.002954404,-0.014099378,-0.000057353,0.999896232,0.000980332,-0.001051413,0.003001735,0.010537244,-0.005833597,0.000039121,0.007136325,-0.003981343,0.001395277,-0.000630075,-0.000738531,0.000043823,0.071787439,-0.041081917,0.013196216,0.006892044,-0.003068232,-0.000776463,-0.007306053,-0.001704690,-0.259179987
1609043655857172224,78,1609043655857172224,-0.006814919,-0.020856203,0.015583511,0.002790377,-0.014209174,-0.000029755,0.999895151,-0.003481111,0.009373736,0.003278511,0.005833953,-0.004278244,-0.000082820,-0.005732814,0.010679162,0.000099229,-0.000884029,-0.000409025,0.000571630,-0.057292097,0.105496798,-0.000017311,0.006892140,-0.003068187,-0.000776471,-0.007306067,-0.001704689,-0.259180412
1609043655972023808,79,1609043655972023808,-0.002151202,-0.026063825,0.015495559,0.003021358,-0.014089996,0.000015029,0.999896166,0.003341016,0.004966649,0.004045914,0.024837129,-0.007634960,0.009786043,0.009281682,-0.011370188,-0.000972284,-0.000088544,-0.000854775,0.000484075,0.092417432,-0.115590022,-0.010254300,0.006892043,-0.003068245,-0.000776478,-0.007303903,-0.001705265,-0.259112169
1609043656063204864,80,1609043656063204864,-0.000685698,-0.025555220,0.014297213,0.002885069,-0.014046947,-0.000046570,0.999897173,0.004861117,0.002463298,0.001828628,0.004534431,-0.003863206,-0.001510993,0.002325328,0.000683367,-0.002998808,-0.000603363,-0.000895345,0.000225778,0.022857451,0.006111551,-0.030766223,0.006892053,-0.003068253,-0.000776481,-0.007297591,-0.001707029,-0.258911561
1609043656161874176,81,1609043656161874176,-0.003692522,-0.022701623,0.010520997,0.002759378,-0.014159837,-0.000075952,0.999895934,-0.000058393,0.006518452,-0.002110969,0.005238475,-0.004289282,-0.000332405,-0.006168088,0.004708793,-0.008232156,-0.000465336,-0.001037133,0.000086977,-0.061830535,0.046721707,-0.082804755,0.006892099,-0.003068194,-0.000776482,-0.007280986,-0.001712050,-0.258377726
1609043656257388032,82,1609043656257388032,-0.000873680,-0.024001553,0.012759270,0.002805628,-0.014099081,-0.000077447,0.999896664,0.004038635,0.004078160,0.000773391,0.002363801,-0.002108092,-0.002948310,0.005278246,-0.003779446,0.005083500,-0.000579183,-0.000828394,-0.000021350,0.052635251,-0.037528009,0.050847272,0.006892073,-0.003068224,-0.000776482,-0.007291053,-0.001708736,-0.258701551
1609043656368046592,83,1609043656368046592,0.000069183,-0.027006057,0.010310088,0.002880473,-0.014123548,-0.000087425,0.999896105,0.004538636,0.002529587,-0.001234203,0.013404359,-0.007124198,0.004920498,0.001071783,-0.006453351,-0.005177426,-0.000395941,-0.001158077,0.000181139,0.011120309,-0.065875213,-0.052518262,0.006892023,-0.003068215,-0.000776485,-0.007280787,-0.001712416,-0.258369236
1609043656457219840,84,1609043656457219840,0.001447937,-0.025564142,0.011400356,0.002820573,-0.014108173,-0.000096120,0.999896492,0.005736051,0.002314101,-0.000636226,-0.001863119,-0.004371988,-0.006139210,0.002006702,0.002266757,0.002641891,-0.000695653,-0.001066131,0.000233578,0.019571597,0.023335097,0.026683311,0.006892048,-0.003068219,-0.000776488,-0.007285877,-0.001710516,-0.258534650
1609043656561094912,85,1609043656561094912,0.002873995,-0.026917300,0.012037922,0.002851959,-0.014108656,-0.000086980,0.999896397,0.006972074,0.002933582,0.000441162,0.005678253,-0.002635870,-0.000223775,0.001647735,-0.003402900,0.001400194,-0.000771711,-0.000994406,0.000288380,0.016573883,-0.034600496,0.013983809,0.006892029,-0.003068218,-0.000776492,-0.007288510,-0.001709470,-0.258620623
1609043656663915008,86,1609043656663915008,0.006192501,-0.027001257,0.009454845,0.002846050,-0.014054535,-0.000082358,0.999897176,0.010938280,0.003742678,-0.002409654,0.014448027,-0.006641120,0.002986725,0.004731402,-0.000672827,-0.005355282,-0.000811250,-0.001214371,0.000097364,0.047544263,-0.008097013,-0.053888814,0.006892029,-0.003068241,-0.000776493,-0.007278500,-0.001713644,-0.258291922
1609043656766721536,87,1609043656766721536,0.007002734,-0.027496947,0.005989831,0.002847944,-0.014084123,-0.000093314,0.999896754,0.010485584,0.003113804,-0.006526852,0.013421081,-0.006238683,0.004172170,-0.000188040,-0.001365752,-0.006378729,-0.000929745,-0.001691597,-0.000085585,-0.002081731,-0.015201483,-0.064413151,0.006892027,-0.003068218,-0.000776492,-0.007266823,-0.001718765,-0.257904457
1609043656870594048,88,1609043656870594048,0.005985607,-0.026701005,0.003369244,0.002817065,-0.014140467,-0.000100560,0.999896045,0.008067517,0.004850639,-0.008341714,0.016438035,-0.004425422,0.005801241,-0.003719020,0.001304971,-0.003850714,-0.000063264,-0.000248453,-0.000027037,-0.037242727,0.010738804,-0.039496326,0.006892038,-0.003068186,-0.000776492,-0.007259800,-0.001722001,-0.257669496
1609043656972902656,89,1609043656972902656,0.004302212,-0.027398867,0.000562612,0.002820290,-0.014226935,-0.000104205,0.999894809,0.004181500,0.004765601,-0.010564244,0.025152227,-0.007390478,0.009560489,-0.004180809,-0.001511700,-0.003635336,-0.000577940,-0.001261857,-0.000143030,-0.041651388,-0.018535192,-0.037724247,0.006892032,-0.003068136,-0.000776490,-0.007253180,-0.001725220,-0.257447531
1609043657075711744,90,1609043657075711744,0.004661852,-0.027328285,-0.000614908,0.002835832,-0.014232798,-0.000104560,0.999894682,0.004049054,0.006493625,-0.010660588,0.028683189,-0.005507568,0.011876789,0.000000000,0.000000000,0.000000000,0.000000000,0.000000000,0.000000000,-0.000321712,-0.004113528,-0.000823187,0.006892029,-0.003068135,-0.000776490,-0.007253047,-0.001725290,-0.257443088
1609043657178982400,91,1609043657178982400,0.005284265,-0.026696081,-0.000896240,0.002887453,-0.014244834,-0.000067599,0.999894366,0.003968888,0.008205044,-0.009578326,0.031776715,-0.005514995,0.014479030,0.000601321,0.000838036,0.002159174,-0.000144153,-0.000481531,0.000136938,0.005782590,0.004075926,0.019736599,0.006892034,-0.003068135,-0.000776492,-0.007256507,-0.001723467,-0.257557526
1609043657283605760,92,1609043657283605760,0.005496198,-0.026473080,-0.002040669,0.002915589,-0.014251002,-0.000069454,0.999894196,0.003843143,0.009650788,-0.009558574,0.030568887,-0.008713540,0.014772216,-0.000220595,-0.000089963,-0.000018880,0.000006586,-0.000023727,0.000002663,-0.002654898,-0.005851969,-0.001521233,0.006892029,-0.003068132,-0.000776492,-0.007256261,-0.001723605,-0.257549419
1609043657387769344,93,1609043657387769344,0.005804720,-0.026035200,-0.003181888,0.003008513,-0.014261757,-0.000023872,0.999893770,0.003161208,0.010777882,-0.010395192,0.033989996,-0.005233376,0.013362003,0.000000000,0.000000000,0.000000000,0.000000000,0.000000000,-0.000000000,-0.000054020,-0.004546886,-0.000751788,0.006892025,-0.003068132,-0.000776492,-0.007256141,-0.001723675,-0.257545503
1609043657456836352,94,1609043657456836352,0.005752543,-0.026960684,-0.002180413,0.002800318,-0.014243995,-0.000155385,0.999894616,0.002336413,0.004795456,-0.009581622,0.001498941,-0.001395079,-0.003409357,-0.000225172,-0.002354427,0.003664244,-0.000697012,-0.000623640,0.000183538,-0.003267408,-0.026132429,0.040017647,0.006892013,-0.003068120,-0.000776494,-0.007262798,-0.001719886,-0.257761530
1609043657557137152,95,1609043657557137152,0.006035666,-0.026102179,-0.003057475,0.002849807,-0.014235587,-0.000133501,0.999894599,0.002391193,0.005656274,-0.009919852,-0.001955181,-0.003127337,-0.005424936,0.000099893,0.000313652,0.000128695,-0.000015874,0.000003493,0.000001482,0.000979888,0.004188074,0.001749479,0.006892017,-0.003068121,-0.000776494,-0.007263086,-0.001719721,-0.257770777
1609043657660401152,96,1609043657660401152,0.006088391,-0.026332246,-0.002265876,0.002880562,-0.014248761,-0.000124356,0.999894324,0.001807863,0.004750323,-0.006992347,0.001055076,-0.005336018,-0.004532024,-0.000277264,-0.001891893,0.003716488,-0.000568223,-0.000522164,0.000006568,-0.002510215,-0.017898137,0.036826859,0.006892009,-0.003068112,-0.000776495,-0.007269267,-0.001716190,-0.257967713
1609043657769903360,97,1609043657769903360,0.006806401,-0.024684230,-0.002452641,0.002957609,-0.014257849,-0.000057180,0.999893976,0.002863912,0.010693489,-0.005148834,0.025867851,-0.009179989,0.009895667,0.000882021,0.001783813,0.001283043,-0.000238660,-0.000013524,-0.000059335,0.008898884,0.015765493,0.011266527,0.006892024,-0.003068119,-0.000776494,-0.007271196,-0.001715102,-0.258028521
1609043657871286016,98,1609043657871286016,0.006389231,-0.024452409,-0.003088136,0.002767274,-0.014253542,-0.000177757,0.999894568,0.001537734,0.009505537,-0.005117326,0.025721280,-0.005947548,0.010060007,-0.001060556,-0.000332965,-0.000229720,0.000004654,-0.000097689,0.000034585,-0.011091504,-0.007368653,-0.002513624,0.006892019,-0.003068109,-0.000776494,-0.007270778,-0.001715343,-0.258015432
1609043657975111424,99,1609043657975111424,0.008262757,-0.028074545,-0.002130975,0.002948490,-0.014230783,-0.000119772,0.999894383,0.003702628,0.003832182,-0.002196086,0.028822929,-0.006288626,0.012359100,0.003384659,-0.007698585,0.003492785,-0.000533209,-0.001009708,0.000390572,0.033644765,-0.079858795,0.032887813,0.006891960,-0.003068119,-0.000776500,-0.007276303,-0.001712106,-0.258187125
1609043658077710592,100,1609043658077710592,0.008579761,-0.028064028,-0.002470699,0.003067681,-0.014263305,-0.000070353,0.999893566,0.004088705,0.006347803,-0.002676562,0.028951697,-0.007787278,0.010940408,-0.000000095,0.000000303,-0.000000100,-0.000000017,0.000000000,0.000000004,-0.000659736,-0.004476821,-0.000538658,0.006891957,-0.003068119,-0.000776500,-0.007276220,-0.001712156,-0.258184553
1609043658181786624,101,1609043658181786624,0.008935236,-0.027949718,-0.002960884,0.003107112,-0.014264958,-0.000045352,0.999893422,0.003490687,0.006902021,-0.002467670,0.032422811,-0.006806584,0.015181988,0.000000000,0.000000000,0.000000000,-0.000000000,0.000000000,-0.000000000,0.000045763,-0.004115220,-0.001812387,0.006891953,-0.003068118,-0.000776500,-0.007275939,-0.001712318,-0.258175961
1609043658283475200,102,1609043658283475200,0.008469181,-0.027051893,-0.003501015,0.003126818,-0.014304703,-0.000031424,0.999892793,0.002618474,0.007750011,-0.002960941,0.034544770,-0.005795002,0.014509349,-0.001354276,0.001513350,-0.000267238,-0.000046023,-0.000018500,0.000054425,-0.014111684,0.010827987,-0.003658783,0.006891963,-0.003068108,-0.000776501,-0.007275343,-0.001712650,-0.258157825
1609043658386534144,103,1609043658386534144,0.008369509,-0.026385439,-0.003888077,0.003190545,-0.014311317,0.000008483,0.999892497,0.001909103,0.009691164,-0.003242964,0.034177769,-0.006472430,0.014725818,-0.000517663,0.000695475,0.000177248,-0.000028049,0.000007480,0.000043135,-0.005476350,0.002402390,0.000753986,0.006891966,-0.003068103,-0.000776501,-0.007275481,-0.001712577,-0.258161995
1609043658456804352,104,1609043658456804352,0.008273258,-0.023879102,-0.003801311,0.002870555,-0.014276911,-0.000151638,0.999893948,0.000747623,0.007000760,-0.004669836,-0.002862110,-0.003851787,-0.006414712,-0.000340361,0.004174078,0.000859617,-0.000321263,0.000084015,-0.000003362,-0.003546735,0.040765490,0.010146448,0.006892002,-0.003068104,-0.000776501,-0.007277117,-0.001711708,-0.258211002
1609043658561256960,105,1609043658561256960,0.008361824,-0.023176396,-0.004322858,0.002828541,-0.014272513,-0.000183154,0.999894125,0.000797194,0.006797494,-0.005080934,0.005928583,-0.003692316,-0.001115711,0.000006406,0.000054639,0.000028706,-0.000003765,0.000000508,0.000001833,0.000106108,0.000527372,0.000098860,0.006892002,-0.003068104,-0.000776501,-0.007277136,-0.001711698,-0.258211548
1609043658668093440,106,1609043658668093440,0.008435054,-0.022504777,-0.004867293,0.002861098,-0.014290066,-0.000173689,0.999893783,0.000545000,0.009213403,-0.004225989,0.017002212,-0.006506808,0.006434673,0.000000000,0.000000000,0.000000000,0.000000000,0.000000000,-0.000000000,0.000134398,-0.001791891,-0.000911266,0.006892001,-0.003068104,-0.000776501,-0.007276996,-0.001711773,-0.258207466
1609043658770936064,107,1609043658770936064,0.006217047,-0.022571081,0.000263828,0.002958413,-0.014376531,-0.000124084,0.999892268,-0.003436128,0.009951149,0.001906124,0.021050356,-0.005074463,0.009029228,-0.003958091,-0.001456124,0.012281638,-0.000758640,-0.000863035,0.000009957,-0.039257873,-0.017630072,0.122151558,0.006891998,-0.003068062,-0.000776502,-0.007297059,-0.001701263,-0.258791993
1609043658874103296,108,1609043658874103296,0.005360704,-0.022040492,0.000724654,0.003022596,-0.014405822,-0.000085871,0.999891659,-0.004843198,0.009745278,0.002658027,0.028876336,-0.006436686,0.011536539,-0.000858057,0.000016894,0.000927473,-0.000065437,-0.000053798,0.000069478,-0.008324470,-0.003101679,0.007892010,0.006891996,-0.003068054,-0.000776503,-0.007298380,-0.001700587,-0.258829881
1609043658976997120,109,1609043658976997120,0.004832592,-0.021566691,0.000878347,0.003059955,-0.014410028,-0.000064007,0.999891486,-0.005566922,0.010216650,0.003267405,0.030327788,-0.006539452,0.013006040,0.000000000,0.000000000,0.000000000,0.000000000,0.000000000,0.000000000,0.000204751,-0.003924917,-0.001293935,0.006891993,-0.003068054,-0.000776503,-0.007298178,-0.001700688,-0.258824236
1609043659081444864,110,1609043659081444864,0.004796955,-0.022926979,0.003004523,0.003114868,-0.014415300,-0.000051685,0.999891241,-0.005292879,0.007131266,0.005708376,0.033697605,-0.007773907,0.014603489,0.001197573,-0.003386510,0.004198484,-0.000734158,-0.000781617,0.000087386,0.011832238,-0.037575334,0.040710987,0.006891971,-0.003068052,-0.000776504,-0.007305059,-0.001697377,-0.259014486
1609043659183437568,111,1609043659183437568,0.004065831,-0.022797429,0.003368728,0.003129072,-0.014434644,-0.000040591,0.999890918,-0.005931629,0.008518714,0.005120371,0.033005383,-0.004034666,0.015654935,-0.000220657,-0.000055599,-0.000135589,-0.000016967,-0.000012214,0.000030944,-0.002435301,-0.005535040,-0.002042272,0.006891967,-0.003068050,-0.000776504,-0.007304719,-0.001697537,-0.259005256
1609043659286269184,112,1609043659286269184,0.003388161,-0.022513884,0.003722997,0.003142767,-0.014437722,-0.000039676,0.999890831,-0.006641164,0.008653873,0.005632324,0.034011777,-0.006172654,0.013861439,0.000000000,0.000000000,0.000000000,-0.000000000,0.000000000,0.000000000,-0.000096797,-0.004156352,-0.001560430,0.006891964,-0.003068049,-0.000776504,-0.007304469,-0.001697652,-0.258998618
1609043659356725760,113,1609043659356725760,0.003030645,-0.022367393,0.003919113,0.002952061,-0.014399050,-0.000156680,0.999891958,-0.007002017,0.004676102,0.004430532,0.002143126,-0.005151079,-0.002982332,0.000000000,0.000000000,0.000000000,-0.000000000,0.000000000,0.000000000,0.002485142,-0.002328804,-0.001864152,0.006891962,-0.003068051,-0.000776504,-0.007304176,-0.001697783,-0.258990937
1609043659458543360,114,1609043659458543360,0.002483348,-0.021661521,0.004666790,0.002869736,-0.014373679,-0.000186299,0.999892558,-0.007811202,0.004968820,0.004585150,-0.000453666,-0.001335459,-0.002436821,0.000319772,0.000359630,0.000705250,-0.000135640,-0.000000445,0.000091017,0.003835331,0.003860018,0.007122645,0.006891967,-0.003068054,-0.000776506,-0.007305380,-0.001697255,-0.259022365
1609043659563061248,115,1609043659563061248,0.003955905,-0.024122405,0.006381882,0.002931110,-0.014318639,-0.000178528,0.999893171,-0.004917455,0.002393077,0.005665716,0.010199845,-0.004760713,0.001196139,0.004416434,-0.005773971,0.002851912,-0.000977455,-0.000671011,0.000205164,0.043878072,-0.058367137,0.028533595,0.006891930,-0.003068077,-0.000776508,-0.007310260,-0.001695146,-0.259148194
1609043659664602624,116,1609043659664602624,0.003438722,-0.024028919,0.006880441,0.002900723,-0.014304500,-0.000201674,0.999893458,-0.005395663,0.002775973,0.005316299,0.009685179,-0.003708693,0.002438056,-0.000000195,0.000000119,-0.000000102,-0.000000015,-0.000000008,0.000000020,0.000159646,-0.001323066,-0.000249096,0.006891929,-0.003068077,-0.000776508,-0.007310220,-0.001695163,-0.259147179
1609043659767888896,117,1609043659767888896,0.002308030,-0.023378280,0.007053384,0.002959627,-0.014322882,-0.000150651,0.999893031,-0.006343796,0.006431076,0.005176185,0.017274523,-0.003090586,0.006369307,-0.001023449,0.000776918,-0.000664037,-0.000109539,-0.000084160,0.000144356,-0.010296116,0.005147566,-0.007202487,0.006891935,-0.003068068,-0.000776511,-0.007308999,-0.001695676,-0.259115929
1609043659870728448,118,1609043659870728448,0.002443609,-0.025527985,0.010360636,0.003058457,-0.014315646,-0.000103949,0.999892843,-0.005531844,0.004334332,0.009199598,0.024103099,-0.006959086,0.010592100,0.001639139,-0.004774861,0.006143129,-0.000751405,-0.000699383,0.000547949,0.016093181,-0.050362102,0.060499651,0.006891903,-0.003068069,-0.000776519,-0.007319321,-0.001691438,-0.259379023
1609043659980032512,119,1609043659980032512,0.003373989,-0.026658252,0.012177774,0.003221798,-0.014302844,-0.000003842,0.999892519,-0.003688779,0.004818126,0.010631842,0.032557540,-0.007053792,0.014623634,0.003067798,-0.002163255,0.001978197,-0.000749731,-0.000896942,0.000368916,0.029802671,-0.026019332,0.019280690,0.006891888,-0.003068081,-0.000776524,-0.007322617,-0.001690133,-0.259462883
1609043660082999808,120,1609043660082999808,0.002532430,-0.026340494,0.012738050,0.003262126,-0.014316066,0.000028141,0.999892198,-0.004129527,0.004366142,0.010175931,0.032302193,-0.005516967,0.014240301,-0.000818940,0.000731933,-0.000519120,-0.000055978,-0.000033555,0.000036397,-0.008425067,0.003940485,-0.007010722,0.006891893,-0.003068074,-0.000776524,-0.007321458,-0.001690569,-0.259433440
1609043660186392832,121,1609043660186392832,0.000266598,-0.025776092,0.012614974,0.003245354,-0.014371116,0.000030284,0.999891463,-0.006994678,0.005121980,0.008944961,0.034391642,-0.006455369,0.014757116,-0.003176597,0.001291300,-0.002092348,-0.000138475,-0.000167484,0.000184275,-0.031988843,0.008801374,-0.022099884,0.006891903,-0.003068047,-0.000776527,-0.007317792,-0.001691911,-0.259340099
1609043660257445888,122,1609043660257445888,-0.003421035,-0.022574328,0.012029169,0.002904286,-0.014421489,-0.000096931,0.999891782,-0.012168667,0.004692571,0.006747217,0.001139058,-0.002792672,-0.001568963,-0.006134870,0.005882217,-0.002205797,-0.001061378,-0.000219757,0.000607707,-0.058832341,0.058645612,-0.024984994,0.006891964,-0.003068002,-0.000776536,-0.007313774,-0.001693321,-0.259238315
1609043660358417664,123,1609043660358417664,-0.005021971,-0.023407647,0.015130109,0.002924894,-0.014441918,-0.000102703,0.999891427,-0.013150843,0.004654213,0.009763999,0.005155755,-0.004698649,0.000189047,-0.000520927,-0.002720952,0.005246876,-0.000471297,-0.000192585,0.000208779,-0.005439753,-0.027709608,0.052691517,0.006891948,-0.003067994,-0.000776539,-0.007322438,-0.001690321,-0.259454661
1609043660461256704,124,1609043660461256704,-0.005193522,-0.022462355,0.015855714,0.002881635,-0.014404361,-0.000089628,0.999892095,-0.011954325,0.007175444,0.010507701,0.010275389,-0.002662169,0.002755316,0.002232738,0.000808033,-0.000683273,-0.000211913,0.000070033,0.000254042,0.022132510,0.006894172,-0.007209661,0.006891955,-0.003068012,-0.000776543,-0.007321240,-0.001690728,-0.259425232
1609043660564266496,125,1609043660564266496,-0.002734571,-0.024332163,0.015426806,0.003014257,-0.014299810,-0.000018729,0.999893209,-0.007719332,0.005107542,0.009339183,0.014362391,-0.008384870,0.004435135,0.006828056,-0.004694209,-0.003128071,-0.000696916,-0.000389839,0.000338711,0.068554799,-0.048485052,-0.032020200,0.006891921,-0.003068059,-0.000776548,-0.007315884,-0.001692529,-0.259294885
1609043660667532288,126,1609043660667532288,-0.003563897,-0.023992172,0.016296960,0.003013730,-0.014293295,-0.000020210,0.999893304,-0.007821019,0.005804459,0.009595115,0.014358392,-0.006184054,0.004794246,-0.000000316,0.000000185,-0.000000125,-0.000000023,-0.000000015,0.000000020,-0.000339422,-0.001716660,-0.000670345,0.006891919,-0.003068059,-0.000776548,-0.007315780,-0.001692562,-0.259292361
1609043660771424256,127,1609043660771424256,-0.004511317,-0.023620975,0.017139899,0.003041538,-0.014296867,0.000012295,0.999893169,-0.008118109,0.007185036,0.010060888,0.023729578,-0.008719935,0.009600694,-0.000137166,0.000020747,-0.000133481,-0.000010244,-0.000007841,0.000010422,-0.001865239,-0.002344052,-0.002146639,0.006891918,-0.003068057,-0.000776548,-0.007315435,-0.001692671,-0.259283933
1609043660873684992,128,1609043660873684992,-0.004834203,-0.025152295,0.015383658,0.003116627,-0.014280972,0.000033498,0.999893164,-0.007827936,0.004024368,0.007533634,0.028627448,-0.005853336,0.011597767,0.000951786,-0.003430187,-0.005666174,-0.000559654,-0.000431601,0.000384905,0.009775425,-0.036701169,-0.058165989,0.006891895,-0.003068057,-0.000776553,-0.007305978,-0.001695593,-0.259052015
1609043660977250560,129,1609043660977250560,-0.002490244,-0.028731339,0.016735307,0.003272527,-0.014208144,0.000077942,0.999893701,-0.004152963,-0.001251452,0.008034380,0.028315695,-0.005810991,0.011868062,0.005802228,-0.006402948,0.001655004,-0.000630437,-0.000554001,0.000032448,0.058234082,-0.067193827,0.015607392,0.006891845,-0.003068093,-0.000776554,-0.007308490,-0.001694849,-0.259113965
1609043661080220928,130,1609043661080220928,-0.006140722,-0.027356382,0.017235615,0.003244282,-0.014328797,0.000107086,0.999892069,-0.008674283,0.002724990,0.007909814,0.032624468,-0.010365183,0.014541137,-0.005643381,0.003529692,-0.000451944,-0.000673236,-0.000329436,0.000386375,-0.056771303,0.030726360,-0.005308786,0.006891881,-0.003068045,-0.000776559,-0.007307665,-0.001695074,-0.259093371
1609043661183395328,131,1609043661183395328,-0.007134599,-0.027615835,0.017846518,0.003286944,-0.014308523,0.000132488,0.999892216,-0.008510441,0.003095096,0.007403970,0.034368426,-0.004101666,0.014152514,-0.000010958,0.000054386,-0.000016516,-0.000003305,-0.000000807,0.000002911,-0.001086978,-0.003690256,-0.001082158,0.006891878,-0.003068044,-0.000776560,-0.007307506,-0.001695114,-0.259089390
1609043661286161152,132,1609043661286161152,-0.008140896,-0.027928928,0.018515504,0.003340368,-0.014314867,0.000150054,0.999891946,-0.008573846,0.003101656,0.008060482,0.034221634,-0.007428268,0.015379693,0.000001821,0.000059514,-0.000007518,-0.000003655,-0.000000584,0.000003132,-0.001043585,-0.004031968,-0.001074477,0.006891875,-0.003068043,-0.000776560,-0.007307350,-0.001695151,-0.259085480
1609043661356396800,133,1609043661356396800,-0.007832622,-0.025105117,0.017820447,0.002986266,-0.014240946,-0.000014977,0.999894133,-0.007944062,0.003062704,0.005194871,0.000533754,-0.003134937,-0.002778462,0.001484404,0.005395586,-0.002291928,-0.000506829,-0.000018091,0.000123976,0.017830755,0.053811629,-0.025205537,0.006891922,-0.003068059,-0.000776561,-0.007303593,-0.001696011,-0.258990807
1609043661458095616,134,1609043661458095616,-0.003118453,-0.026544871,0.016594416,0.002974692,-0.014093934,-0.000034712,0.999896250,-0.000271884,0.000083973,0.002440211,0.002762686,-0.003300317,-0.002255808,0.010214837,-0.003402842,-0.003747738,-0.000922831,-0.000699491,0.000123052,0.102378944,-0.033489894,-0.037311365,0.006891901,-0.003068129,-0.000776563,-0.007298060,-0.001697285,-0.258850295
1609043661561083904,135,1609043661561083904,-0.004777399,-0.023552016,0.013724743,0.002857608,-0.014154871,-0.000042161,0.999895731,-0.002722026,0.005759331,-0.001232648,0.009707797,-0.005656608,0.000938098,-0.002799467,0.005292796,-0.006866518,-0.000874628,-0.000920810,0.000158956,-0.028004309,0.051905634,-0.068537094,0.006891953,-0.003068098,-0.000776565,-0.007288182,-0.001699621,-0.258592681
1609043661664525568,136,1609043661664525568,-0.002893923,-0.025071409,0.014097559,0.002904235,-0.014119403,-0.000033188,0.999896098,0.000354317,0.004010201,-0.000113718,0.013531413,-0.006197692,0.004494670,0.004036605,-0.003659472,0.001212026,-0.000413149,-0.000828429,0.000340141,0.040291937,-0.038113516,0.011330262,0.006891925,-0.003068118,-0.000776570,-0.007289784,-0.001699210,-0.258635202
1609043661768240896,137,1609043661768240896,-0.004674110,-0.023996983,0.014626160,0.002891900,-0.014194747,-0.000025018,0.999895067,-0.002046527,0.006964035,0.000905500,0.018176310,-0.004888770,0.006098483,-0.003129147,0.001465949,0.001375834,-0.000473343,-0.001042863,-0.000016732,-0.031375453,0.012135168,0.012867629,0.006891942,-0.003068081,-0.000776570,-0.007291558,-0.001698729,-0.258683332
1609043661870469376,138,1609043661870469376,-0.004085358,-0.024867106,0.012882413,0.002985105,-0.014189363,0.000019758,0.999894870,-0.001007978,0.007428674,-0.000897797,0.020498561,-0.002741939,0.008164090,0.001601822,-0.002486997,-0.003808848,-0.000385054,-0.000770684,0.000271675,0.015858735,-0.028087439,-0.038905943,0.006891923,-0.003068083,-0.000776574,-0.007286334,-0.001700214,-0.258539724
1609043661973753088,139,1609043661973753088,-0.003149097,-0.023632479,0.012578689,0.002978126,-0.014189184,0.000051239,0.999894892,0.000506096,0.009437705,-0.001143137,0.028140038,-0.006731642,0.011554875,0.002104664,0.001448278,-0.000182621,-0.000277453,-0.000799993,0.000170528,0.020517296,0.011431799,-0.002685671,0.006891934,-0.003068090,-0.000776576,-0.007285987,-0.001700315,-0.258530060
1609043662076670464,140,1609043662076670464,-0.001416772,-0.026228632,0.011166409,0.002988740,-0.014144139,0.000005080,0.999895500,0.002825701,0.006220498,-0.001438993,0.030408014,-0.006810563,0.012911230,0.003274157,-0.005398463,-0.002510482,-0.000134438,-0.000961410,0.000116862,0.032348254,-0.058507474,-0.026959027,0.006891887,-0.003068102,-0.000776578,-0.007282525,-0.001701398,-0.258432163
1609043662183703296,141,1609043662183703296,0.000286958,-0.025390198,0.010165407,0.003075517,-0.014133839,0.000066374,0.999895380,0.004453136,0.007407388,-0.003419987,0.035083964,-0.005860012,0.014534199,0.002831254,0.001169769,-0.001464245,-0.000435010,-0.001218759,0.000052033,0.028181493,0.008163397,-0.015113147,0.006891896,-0.003068110,-0.000776579,-0.007280631,-0.001702016,-0.258377528
1609043662285902336,142,1609043662285902336,0.002315016,-0.025887084,0.010104833,0.003155334,-0.014126553,0.000107835,0.999895231,0.006575391,0.006957184,-0.002650443,0.032462887,-0.008628296,0.013880213,0.003098177,-0.001232797,0.001018219,-0.000381883,-0.001145139,0.000243474,0.030641662,-0.016755943,0.008595895,0.006891885,-0.003068120,-0.000776582,-0.007281696,-0.001701649,-0.258408912
1609043662356905728,143,1609043662356905728,0.005912759,-0.028513819,0.010885031,0.002999234,-0.014018200,-0.000010275,0.999897242,0.010633854,-0.001376139,-0.002510244,0.001232524,-0.002925255,-0.003425452,0.006316666,-0.005216761,0.002313748,-0.001079864,-0.001158878,0.000334048,0.060984528,-0.053281112,0.024055530,0.006891853,-0.003068150,-0.000776587,-0.007284490,-0.001700677,-0.258492779
1609043662457743616,144,1609043662457743616,0.006931945,-0.028653748,0.010641449,0.002947982,-0.014025538,-0.000037759,0.999897291,0.010923786,-0.002062657,-0.002282842,0.001448602,-0.003459297,-0.003810959,-0.000022863,0.000024165,-0.000015934,-0.000001338,-0.000000925,0.000000012,-0.000679356,0.000638458,-0.000227507,0.006891853,-0.003068150,-0.000776587,-0.007284465,-0.001700686,-0.258492004
1609043662561408256,145,1609043662561408256,0.005551225,-0.026301349,0.009178933,0.002895930,-0.014134787,-0.000024709,0.999895905,0.007506594,0.004807332,-0.003533869,0.009774959,-0.004866081,0.001558861,-0.004565624,0.004310800,-0.002702989,-0.001057408,-0.001096576,-0.000075109,-0.045023606,0.041490970,-0.027272091,0.006891901,-0.003068103,-0.000776586,-0.007281505,-0.001701765,-0.258397082
1609043662665227776,146,1609043662665227776,0.004318402,-0.026087956,0.008542488,0.002912150,-0.014210807,-0.000004218,0.999894781,0.004287806,0.007207455,-0.003440679,0.019050874,-0.006792460,0.006118343,-0.003457033,-0.000512848,-0.000333603,-0.000912099,-0.001283234,-0.000191931,-0.034042565,-0.007462985,-0.004524698,0.006891907,-0.003068060,-0.000776583,-0.007281032,-0.001701946,-0.258381641
1609043662767758080,147,1609043662767758080,0.004730920,-0.025630505,0.008110640,0.002929862,-0.014201212,-0.000003908,0.999894865,0.004475088,0.009538726,-0.002629176,0.017040888,-0.003959325,0.005576366,0.000000000,0.000000000,0.000000000,-0.000000000,-0.000000000,-0.000000000,-0.000249984,-0.003546771,-0.001270167,0.006891904,-0.003068060,-0.000776583,-0.007280909,-0.001701995,-0.258377566
1609043662870408448,148,1609043662870408448,0.009149440,-0.026791950,0.007217632,0.002954113,-0.014119665,-0.000006887,0.999895949,0.010055830,0.006566335,-0.003446091,0.025400167,-0.007244750,0.009881601,0.007366433,-0.003366838,-0.001011466,-0.001023669,-0.001054761,0.000241182,0.073428764,-0.035675761,-0.011172903,0.006891883,-0.003068104,-0.000776587,-0.007279745,-0.001702461,-0.258339362
1609043662973894656,149,1609043662973894656,0.005181634,-0.026250005,0.004855984,0.002941244,-0.014283363,0.000002297,0.999893662,0.003250233,0.008212656,-0.005268912,0.027379509,-0.005953869,0.011428985,-0.008612666,0.000428815,-0.004193586,-0.000787683,-0.001535384,-0.000112915,-0.086647181,0.000437659,-0.043034597,0.006891897,-0.003068016,-0.000776585,-0.007275358,-0.001704300,-0.258192770
