time,field.header.seq,field.header.stamp,field.pose.pose.position.x,field.pose.pose.position.y,field.pose.pose.position.z,field.pose.pose.orientation.x,field.pose.pose.orientation.y,field.pose.pose.orientation.z,field.pose.pose.orientation.w,field.twist.twist.linear.x,field.twist.twist.linear.y,field.twist.twist.linear.z,field.twist.twist.angular.x,field.twist.twist.angular.y,field.twist.twist.angular.z, ex,ey,ez,erx,ery,erz,evx,evy,evz,gbx,gby,gbz,abx,aby,abz
1609045337339965184,0,1609045337339965184,-0.000008999,-0.000163814,-0.000090903,0.005226314,-0.023897208,-0.000110019,0.999700754,-0.000130887,0.000065979,-0.000028144,0.010414022,-0.004942337,-0.001631657,0.000000000,0.000000000,0.000000000,-0.000000000,0.000000000,0.000000000,0.000178773,-0.000282246,-0.000439839,0.006573876,-0.002968012,-0.000971269,-0.011570794,-0.002671575,-0.241352102
1609045337442790144,1,1609045337442790144,-0.000092974,-0.000491889,-0.000199896,0.005779993,-0.024027989,-0.000062385,0.999694575,-0.001187826,-0.001729439,-0.000221323,0.012408988,-0.004627184,0.000047079,-0.002436235,-0.009305681,-0.007581208,0.000060651,-0.000002132,0.000164576,-0.023802062,-0.093759918,-0.076391209,0.006573878,-0.002968011,-0.000971269,-0.011489352,-0.002653272,-0.239651765
1609045337550874624,2,1609045337550874624,0.000009933,-0.002854960,-0.001192302,0.007049844,-0.023830459,-0.000051049,0.999691155,-0.000484307,-0.012374435,-0.004723815,0.022063572,-0.006273993,0.006612126,-0.000017185,-0.025931114,-0.022802560,-0.001063471,0.001421061,-0.000397907,0.000203006,-0.261369589,-0.228885637,0.006573884,-0.002968004,-0.000971269,-0.011143284,-0.002573193,-0.232438748
1609045337653517056,3,1609045337653517056,-0.001011566,-0.004110210,-0.002330191,0.006887975,-0.024201455,-0.000025734,0.999683372,-0.004838023,-0.012566951,-0.007889975,0.021742564,-0.005964890,0.008844391,-0.007277993,0.001695173,-0.006439531,-0.000851976,-0.000082621,0.000190356,-0.072441694,0.014771141,-0.065001575,0.006573887,-0.002968006,-0.000971269,-0.011019880,-0.002542737,-0.229863855
1609045337758701312,4,1609045337758701312,-0.003140755,-0.006636983,-0.005429407,0.007147093,-0.024601142,0.000076332,0.999671795,-0.011172011,-0.016595558,-0.015977771,0.026590867,-0.003410228,0.012279479,-0.008341544,-0.005034171,-0.015994629,-0.001206844,0.000269151,0.000369775,-0.083284792,-0.054068697,-0.161442463,0.006573895,-0.002968006,-0.000971270,-0.010654030,-0.002449369,-0.222248657
1609045337861159424,5,1609045337861159424,-0.004670439,-0.008501925,-0.008654561,0.007072084,-0.024678059,0.000062759,0.999670433,-0.013071145,-0.018778877,-0.022669066,0.025195066,-0.004126952,0.011913548,-0.002064699,0.000414185,-0.008061448,-0.000588385,0.000182610,0.000121802,-0.019749078,0.002692656,-0.079952870,0.006573897,-0.002968007,-0.000971270,-0.010451762,-0.002396604,-0.218055085
1609045337964150272,6,1609045337964150272,-0.006135780,-0.010099183,-0.012823047,0.007041662,-0.024707411,0.000099771,0.999669920,-0.014908078,-0.018499667,-0.029058005,0.027967218,-0.006992338,0.012976872,-0.000774266,0.001619005,-0.007477155,-0.000584191,0.000173693,0.000106829,-0.006397619,0.014304766,-0.074060875,0.006573899,-0.002968009,-0.000971271,-0.010249436,-0.002343000,-0.213875361
1609045338033470208,7,1609045338033470208,-0.006592248,-0.010296323,-0.016378625,0.006673706,-0.024606378,-0.000009034,0.999674941,-0.014689632,-0.022714674,-0.035155232,0.004343215,-0.001414022,-0.007283532,0.001154192,0.003140344,-0.005806118,-0.000673532,0.000273170,-0.000017331,0.016947843,0.040740629,-0.047955552,0.006573899,-0.002968011,-0.000971271,-0.010114847,-0.002307039,-0.211101485
1609045338135342336,8,1609045338135342336,-0.008065552,-0.012328547,-0.019911343,0.006670840,-0.024611515,-0.000017968,0.999674834,-0.015925847,-0.025114209,-0.038527526,0.002166552,-0.000202004,-0.009288777,0.000022954,0.000076236,-0.000111961,-0.000012822,0.000006672,-0.000001362,0.001093661,0.004296166,0.001659181,0.006573899,-0.002968011,-0.000971271,-0.010119289,-0.002308241,-0.211192723
1609045338240126720,9,1609045338240126720,-0.009913120,-0.014990331,-0.024329297,0.006718193,-0.024619102,-0.000020544,0.999674330,-0.017838031,-0.025323435,-0.041201351,0.011650629,-0.006702959,-0.000546277,0.000000931,0.000002437,-0.000001670,-0.000000268,0.000000123,-0.000000037,-0.000470220,-0.000950854,-0.002252314,0.006573899,-0.002968011,-0.000971271,-0.010112947,-0.002306516,-0.211062749
1609045338341446144,10,1609045338341446144,-0.011630722,-0.017410333,-0.028466362,0.006747126,-0.024626055,0.000010720,0.999673964,-0.018704126,-0.027641545,-0.044310327,0.009182825,-0.003383687,-0.003375639,0.000071160,0.000134968,-0.000029517,-0.000010556,0.000005974,-0.000003597,0.001605223,0.003441729,0.001916365,0.006573899,-0.002968012,-0.000971271,-0.010118229,-0.002307964,-0.211170743
1609045338446226432,11,1609045338446226432,-0.013849294,-0.020772910,-0.033823234,0.006779300,-0.024623892,0.000026286,0.999673799,-0.020544748,-0.028714667,-0.046754860,0.021132387,-0.006773513,0.005371779,0.000000000,0.000000000,0.000000000,0.000000000,0.000000000,-0.000000000,-0.001154043,-0.003455477,-0.004714733,0.006573899,-0.002968011,-0.000971271,-0.010105347,-0.002304410,-0.210907964
1609045338552102144,12,1609045338552102144,-0.015329871,-0.022757891,-0.038329280,0.006778339,-0.024600817,0.000059434,0.999674372,-0.020592823,-0.029392517,-0.049622961,0.018759055,-0.005477672,0.005634083,0.000854220,0.001874746,0.000404226,-0.000111015,0.000068600,-0.000043412,0.009574228,0.018900145,0.005686255,0.006573900,-0.002968013,-0.000971270,-0.010120854,-0.002308708,-0.211223822
1609045338655307264,13,1609045338655307264,-0.016915856,-0.025381748,-0.043437071,0.006753808,-0.024581152,0.000060451,0.999675022,-0.020412674,-0.030480709,-0.052247798,0.023232557,-0.007109390,0.007112963,0.000887290,0.001516449,0.000604957,-0.000100780,0.000072155,-0.000034466,0.008748751,0.012590418,0.004561659,0.006573902,-0.002968015,-0.000971270,-0.010133192,-0.002312142,-0.211474770
1609045338758886400,14,1609045338758886400,-0.016262556,-0.023568270,-0.046007887,0.006571497,-0.024490857,0.000063789,0.999678453,-0.016957215,-0.024641059,-0.050459650,0.024284655,-0.006802212,0.011217323,0.004379156,0.008905303,0.004889446,-0.000515326,0.000339159,-0.000151111,0.043092447,0.084567912,0.045715044,0.006573912,-0.002968027,-0.000971269,-0.010248906,-0.002344552,-0.213823568
1609045338861420288,15,1609045338861420288,-0.017780667,-0.026185542,-0.050882096,0.006600274,-0.024491470,0.000074401,0.999678248,-0.018238640,-0.025331831,-0.052815230,0.027620753,-0.007493577,0.012072075,0.000268259,0.000629279,0.000477118,-0.000029738,0.000021908,-0.000012729,0.003687444,0.003367311,0.005450186,0.006573912,-0.002968028,-0.000971269,-0.010261692,-0.002348137,-0.214082778
1609045338933745920,16,1609045338933745920,-0.016632700,-0.022942220,-0.050494271,0.006276046,-0.024374422,-0.000003057,0.999683199,-0.015551736,-0.025307006,-0.050547895,0.004654868,-0.001983844,-0.006357642,0.003263104,0.007491994,0.004389463,-0.000343269,0.000211650,-0.000160160,0.038622666,0.085968117,0.061458126,0.006573926,-0.002968041,-0.000971268,-0.010392664,-0.002384964,-0.216734668
1609045339033212928,17,1609045339033212928,-0.017865770,-0.024656476,-0.054489654,0.006324049,-0.024381269,0.000059468,0.999682728,-0.015733075,-0.027547669,-0.052827007,0.001850318,-0.001682969,-0.007642320,0.000059561,0.000148995,0.000088131,-0.000007394,0.000003915,-0.000003459,0.002656739,0.007920803,0.008772167,0.006573928,-0.002968042,-0.000971268,-0.010409367,-0.002389665,-0.217072418
1609045339136552192,18,1609045339136552192,-0.018894277,-0.025786956,-0.058247210,0.006384888,-0.024386754,0.000116450,0.999682202,-0.015971490,-0.025197062,-0.052776057,0.008004373,-0.000938630,-0.004436509,0.000579351,0.001694356,0.001305750,-0.000077677,0.000052048,-0.000030912,0.007427716,0.019968766,0.017552700,0.006573932,-0.002968045,-0.000971267,-0.010442208,-0.002398863,-0.217736718
1609045339239628800,19,1609045339239628800,-0.020455370,-0.028141842,-0.063404841,0.006351870,-0.024384311,0.000086526,0.999682475,-0.016425212,-0.027181758,-0.055384838,0.004810788,-0.002238836,-0.006224924,0.000000509,0.000001450,0.000001171,-0.000000075,0.000000053,-0.000000029,0.000548794,0.002444008,0.002434507,0.006573933,-0.002968045,-0.000971267,-0.010446260,-0.002400001,-0.217818546
1609045339343123712,20,1609045339343123712,-0.020579201,-0.025999529,-0.062758189,0.006296160,-0.024340000,0.000134260,0.999683902,-0.015007117,-0.021254087,-0.049552410,0.014464363,-0.003678589,0.000410099,0.002238704,0.007296629,0.008402251,-0.000452559,0.000345916,-0.000112066,0.022983808,0.074084538,0.085688007,0.006573957,-0.002968059,-0.000971266,-0.010590842,-0.002440378,-0.220740984
1609045339445812224,21,1609045339445812224,-0.020956830,-0.023582772,-0.062797587,0.006227370,-0.024321943,0.000159384,0.999684769,-0.014188108,-0.015335053,-0.044770018,0.015612884,-0.003690815,0.003062980,0.001620556,0.007176527,0.006761303,-0.000385465,0.000272934,-0.000076341,0.016935749,0.071304008,0.068508144,0.006573984,-0.002968071,-0.000971266,-0.010699696,-0.002470674,-0.222940961
1609045339548739840,22,1609045339548739840,-0.022478265,-0.025508373,-0.067935146,0.006282086,-0.024312447,0.000178646,0.999684654,-0.014984657,-0.015963396,-0.047042874,0.021642404,-0.005899302,0.006718224,0.000010300,0.000034175,0.000033520,-0.000002018,0.000001376,-0.000000497,-0.000090812,-0.001998702,-0.002565020,0.006573983,-0.002968071,-0.000971266,-0.010696169,-0.002469696,-0.222869766
1609045339651870976,23,1609045339651870976,-0.023082773,-0.022843453,-0.069858681,0.006211823,-0.024278274,0.000205333,0.999685919,-0.014736671,-0.010268970,-0.045748447,0.021802422,-0.007474353,0.008784636,0.001444339,0.007405046,0.004614121,-0.000318478,0.000194207,-0.000072777,0.014730902,0.070935015,0.044260035,0.006574014,-0.002968082,-0.000971265,-0.010759259,-0.002487011,-0.224146260
1609045339758233600,24,1609045339758233600,-0.024649015,-0.024393313,-0.075024054,0.006238177,-0.024280087,0.000223200,0.999685707,-0.015468379,-0.011030780,-0.046794559,0.026062585,-0.006307191,0.012301321,0.000057592,0.000163795,0.000149954,-0.000010381,0.000006938,-0.000002971,0.000224229,-0.001994406,-0.002226261,0.006574014,-0.002968082,-0.000971265,-0.010756657,-0.002486303,-0.224093653
1609045339858290432,25,1609045339858290432,-0.024516331,-0.021291751,-0.074403947,0.006053453,-0.024231849,0.000179754,0.999688022,-0.014482511,-0.007830535,-0.042212645,0.025502419,-0.007847234,0.008943784,0.002346668,0.007413074,0.007122272,-0.000467912,0.000290744,-0.000118898,0.025315576,0.072764428,0.073855417,0.006574052,-0.002968101,-0.000971264,-0.010849782,-0.002511210,-0.225982238
1609045339961101568,26,1609045339961101568,-0.025865482,-0.022412805,-0.078658995,0.006132680,-0.024233466,0.000243424,0.999687486,-0.015146223,-0.007612561,-0.043608081,0.025950236,-0.006189299,0.011492013,0.000061638,0.000151756,0.000145741,-0.000008446,0.000006185,-0.000003269,0.001515951,-0.001502925,0.001564500,0.006574052,-0.002968102,-0.000971264,-0.010851645,-0.002511698,-0.226020101
1609045340032992512,27,1609045340032992512,-0.025342506,-0.018505868,-0.076005257,0.005889242,-0.024158403,0.000208601,0.999690775,-0.013732065,-0.007975563,-0.040432065,0.001798785,-0.000764174,-0.008058069,0.002406763,0.007607601,0.008155716,-0.000435967,0.000309598,-0.000152301,0.028436895,0.081290393,0.094293169,0.006574098,-0.002968125,-0.000971262,-0.010955944,-0.002538689,-0.228142209
1609045340133539072,28,1609045340133539072,-0.025070087,-0.014699210,-0.076046085,0.005796154,-0.024123594,0.000216577,0.999692158,-0.012059036,-0.003291773,-0.036729577,0.000624559,-0.002312567,-0.006871268,0.002689205,0.007250773,0.005898189,-0.000298605,0.000226635,-0.000158363,0.027493139,0.075364354,0.060442302,0.006574142,-0.002968146,-0.000971260,-0.011020236,-0.002554903,-0.229454301
1609045340237145344,29,1609045340237145344,-0.026171927,-0.014632727,-0.079451718,0.005763724,-0.024118351,0.000188507,0.999692477,-0.012498561,-0.002467583,-0.037446934,0.003166023,-0.004817912,-0.006156356,0.000207832,0.000270089,0.000455920,-0.000008776,0.000015644,-0.000013937,0.002365209,0.003923834,0.005078434,0.006574144,-0.002968148,-0.000971260,-0.011025370,-0.002556152,-0.229559486
1609045340339724800,30,1609045340339724800,-0.027230125,-0.014719250,-0.082849568,0.005764548,-0.024109795,0.000189626,0.999692679,-0.012384101,-0.002695339,-0.039201421,0.007604372,0.001122665,-0.002979084,0.000229108,0.000178240,0.000453982,-0.000006382,0.000015065,-0.000014034,0.002736132,0.002431452,0.006324184,0.006574146,-0.002968150,-0.000971260,-0.011031393,-0.002557561,-0.229683363
1609045340442773248,31,1609045340442773248,-0.028162191,-0.014888772,-0.086193891,0.005781900,-0.024097764,0.000216729,0.999692863,-0.012228558,-0.003099432,-0.040094016,0.012771460,-0.004607544,0.000660517,0.000473345,0.000223678,0.000875996,-0.000004435,0.000029168,-0.000018656,0.005098485,0.002435837,0.009949789,0.006574147,-0.002968154,-0.000971260,-0.011040581,-0.002559630,-0.229873083
1609045340546105344,32,1609045340546105344,-0.029349145,-0.015326944,-0.090439812,0.005806601,-0.024082833,0.000209515,0.999693081,-0.012411692,-0.002945217,-0.040868822,0.017647503,-0.002702516,0.002312676,0.000122203,0.000060122,0.000186268,0.000000052,0.000005229,-0.000007196,0.001171254,-0.000618768,0.000084598,0.006574146,-0.002968155,-0.000971260,-0.011040783,-0.002559679,-0.229877252
1609045340649161728,33,1609045340649161728,-0.027553382,-0.014562932,-0.087842151,0.005818946,-0.024005437,0.000217518,0.999694869,-0.008670797,-0.002608479,-0.034748177,0.020727089,-0.008755448,0.005422618,0.005267366,0.002152152,0.011127116,-0.000029179,0.000272088,-0.000289403,0.052829886,0.021188633,0.111062765,0.006574159,-0.002968196,-0.000971256,-0.011136319,-0.002579562,-0.231868270
1609045340754080512,34,1609045340754080512,-0.028447286,-0.015245445,-0.091788582,0.005839918,-0.024015587,0.000244545,0.999694497,-0.008601934,-0.002990111,-0.035008057,0.023609933,-0.006020613,0.007342548,0.000000701,0.000000172,0.000001663,0.000000011,0.000000034,-0.000000039,-0.000232543,-0.002696069,-0.003029489,0.006574157,-0.002968195,-0.000971256,-0.011134014,-0.002579115,-0.231819816
1609045340855360256,35,1609045340855360256,-0.029282641,-0.016034738,-0.095504795,0.005835901,-0.024010319,0.000229826,0.999694650,-0.008679265,-0.004417363,-0.035170303,0.023706043,-0.005908953,0.008093573,0.000000789,0.000000274,0.000001883,0.000000013,0.000000048,-0.000000045,0.000234564,-0.002446885,-0.001352873,0.006574155,-0.002968195,-0.000971256,-0.011133028,-0.002578933,-0.231798939
1609045340958522368,36,1609045340958522368,-0.030132496,-0.016922764,-0.099398404,0.005928117,-0.024037086,0.000279587,0.999693452,-0.008590234,-0.004051363,-0.035446920,0.026928788,-0.008111540,0.011340807,0.000000000,0.000000000,0.000000000,0.000000000,0.000000000,0.000000000,0.000064609,-0.003403598,-0.002398328,0.006574153,-0.002968195,-0.000971256,-0.011131343,-0.002578637,-0.231763026
1609045341062419712,37,1609045341062419712,-0.028264857,-0.016210460,-0.095699195,0.005983392,-0.023959668,0.000332567,0.999694965,-0.004238009,-0.002312741,-0.029092786,0.026309842,-0.005909852,0.014106914,0.004748094,0.002915318,0.012806041,0.000055717,0.000268837,-0.000256452,0.046877833,0.025636791,0.126745200,0.006574170,-0.002968236,-0.000971253,-0.011224736,-0.002594953,-0.233760551
1609045341133512704,38,1609045341133512704,-0.026604128,-0.013891819,-0.090971460,0.005699136,-0.023861306,0.000210314,0.999699012,-0.001446686,-0.005260938,-0.023623506,0.001831945,0.000305118,-0.008249189,0.003382857,0.004893290,0.011253978,-0.000144749,0.000198383,-0.000378231,0.035209963,0.052669922,0.122404066,0.006574209,-0.002968268,-0.000971249,-0.011309195,-0.002609204,-0.235578419
1609045341233565184,39,1609045341233565184,-0.026706146,-0.014157000,-0.093291276,0.005676900,-0.023872998,0.000199366,0.999698861,-0.000908749,-0.005978190,-0.024010457,0.000159261,-0.000756623,-0.007154757,0.000001297,0.000001438,0.000005389,-0.000000005,0.000000096,-0.000000177,-0.000071177,0.002388921,0.000605243,0.006574211,-0.002968268,-0.000971249,-0.011309570,-0.002609262,-0.235586605
1609045341337487872,40,1609045341337487872,-0.026789465,-0.014492690,-0.095757749,0.005678385,-0.023887836,0.000185590,0.999698501,-0.000913770,-0.005482645,-0.024456183,0.004614243,-0.003134080,-0.005390717,0.000000000,0.000000000,0.000000000,-0.000000000,0.000000000,0.000000000,0.000057526,0.001517798,-0.000146644,0.006574212,-0.002968268,-0.000971249,-0.011309482,-0.002609249,-0.235584662
1609045341439461632,41,1609045341439461632,-0.026791537,-0.014815229,-0.097896294,0.005702678,-0.023887684,0.000200866,0.999698363,-0.000357781,-0.004812838,-0.023875171,0.008391725,-0.004395461,-0.002248769,0.000141210,0.000097180,0.000522287,0.000003800,0.000009113,-0.000015870,0.001166572,0.001775194,0.005143521,0.006574214,-0.002968269,-0.000971249,-0.011312709,-0.002609701,-0.235656047
1609045341543758592,42,1609045341543758592,-0.025345446,-0.014537686,-0.093511844,0.005716399,-0.023855189,0.000204744,0.999699060,0.001624186,-0.003716298,-0.017030790,0.016335614,-0.004450330,0.002691917,0.002570770,0.001477997,0.012256480,0.000083176,0.000202753,-0.000189911,0.025984357,0.014406484,0.122674183,0.006574223,-0.002968294,-0.000971246,-0.011387021,-0.002619420,-0.237314235
1609045341645858560,43,1609045341645858560,-0.025128795,-0.015040693,-0.095228614,0.005715635,-0.023856173,0.000203828,0.999699041,0.001811331,-0.004219047,-0.017507508,0.012779611,-0.004538853,0.001091018,0.000000297,0.000000208,0.000001781,0.000000016,0.000000023,-0.000000049,0.000255432,-0.000577477,0.000252184,0.006574223,-0.002968294,-0.000971246,-0.011387158,-0.002619436,-0.237317327
1609045341748830464,44,1609045341748830464,-0.024879162,-0.015630676,-0.096997487,0.005743472,-0.023845622,0.000225226,0.999699129,0.001998025,-0.003678788,-0.017024607,0.020671310,-0.007649480,0.004199614,0.000027904,0.000018687,0.000232888,0.000002927,0.000002238,-0.000004230,0.000537362,-0.001458039,0.001049753,0.006574221,-0.002968294,-0.000971246,-0.011387811,-0.002619516,-0.237332080
1609045341852291072,45,1609045341852291072,-0.024210321,-0.015540745,-0.092944845,0.005752239,-0.023840551,0.000251243,0.999699193,0.002564168,-0.003058621,-0.010818394,0.019147318,-0.006288220,0.006764706,0.000680592,0.001343009,0.010882269,0.000104521,0.000120640,-0.000296561,0.007340905,0.011684521,0.107484823,0.006574230,-0.002968302,-0.000971242,-0.011446808,-0.002625772,-0.238685801
1609045341954957312,46,1609045341954957312,-0.023828001,-0.016168772,-0.094001068,0.005807074,-0.023848954,0.000278698,0.999698668,0.003110126,-0.002247556,-0.011273405,0.024551742,-0.006656211,0.006120299,0.000022389,0.000046197,0.000473233,0.000006078,0.000004475,-0.000010149,0.000650964,-0.002558759,0.003598329,0.006574227,-0.002968303,-0.000971242,-0.011448768,-0.002625970,-0.238731125
1609045342058225408,47,1609045342058225408,-0.023520665,-0.016851843,-0.094701597,0.005792165,-0.023845180,0.000268610,0.999698848,0.003351853,-0.004048911,-0.010868420,0.024940716,-0.006612399,0.010033177,-0.000031282,0.000009857,0.000943094,0.000012798,0.000003493,-0.000020007,-0.000405268,-0.001909246,0.008944701,0.006574226,-0.002968303,-0.000971242,-0.011453369,-0.002626389,-0.238838615
1609045342161843968,48,1609045342161843968,-0.023127701,-0.017811157,-0.095859201,0.005859389,-0.023859713,0.000306541,0.999698098,0.003561791,-0.005425318,-0.010610913,0.028405838,-0.005596242,0.011476525,-0.000006372,0.000015982,0.000311465,0.000004261,0.000001944,-0.000004973,0.000218491,-0.002852547,0.001356450,0.006574223,-0.002968303,-0.000971242,-0.011454116,-0.002626459,-0.238856083
1609045342232941568,49,1609045342232941568,-0.022766381,-0.017951340,-0.095768583,0.005712515,-0.023826789,0.000249607,0.999699749,0.003664154,-0.010671245,-0.011049097,0.002514260,-0.000050097,-0.007186962,0.000207184,0.000695703,0.001526747,-0.000015921,0.000016649,-0.000047194,0.001333178,0.011284213,0.018785544,0.006574232,-0.002968304,-0.000971241,-0.011462880,-0.002627136,-0.239064489
1609045342333453568,50,1609045342333453568,-0.022411737,-0.018632452,-0.096735564,0.005752628,-0.023822813,0.000276759,0.999699607,0.003826872,-0.010865060,-0.010492000,-0.001077783,0.000111292,-0.010898238,0.000000000,0.000000000,0.000000000,-0.000000000,0.000000000,0.000000000,-0.000201532,0.002913764,0.000593338,0.006574235,-0.002968304,-0.000971241,-0.011463130,-0.002627152,-0.239070538
1609045342436954880,51,1609045342436954880,-0.022018487,-0.019486204,-0.097796186,0.005760300,-0.023812787,0.000259714,0.999699806,0.003419333,-0.011372740,-0.010484658,0.005415617,-0.003482699,-0.006523181,0.000000028,0.000001474,0.000002612,-0.000000037,0.000000023,-0.000000102,0.000367888,0.002041539,-0.000070330,0.006574236,-0.002968305,-0.000971241,-0.011463102,-0.002627151,-0.239069841
1609045342540521216,52,1609045342540521216,-0.021516355,-0.016843088,-0.094537454,0.005695347,-0.023817520,0.000269712,0.999700063,0.003432528,-0.006763477,-0.005881785,0.005593879,-0.003616286,-0.006607465,0.000274761,0.006488929,0.008208790,-0.000069548,0.000101759,-0.000419878,0.002904035,0.066609419,0.082433399,0.006574292,-0.002968312,-0.000971235,-0.011499112,-0.002629542,-0.239946417
1609045342642505216,53,1609045342642505216,-0.021257874,-0.016002843,-0.090035071,0.005641636,-0.023822901,0.000250562,0.999700244,0.003711564,-0.004321775,-0.000231927,0.009774708,-0.002792955,-0.001298141,-0.000215609,0.002688861,0.009694335,0.000027208,0.000069213,-0.000233703,-0.002257981,0.026818034,0.097157221,0.006574314,-0.002968313,-0.000971232,-0.011540528,-0.002632022,-0.240962201
1609045342745962496,54,1609045342745962496,-0.020844090,-0.016578957,-0.090077897,0.005682425,-0.023832221,0.000272953,0.999699785,0.003370991,-0.004551129,0.000502447,0.016321152,-0.004041790,0.003141525,-0.000000491,0.000000760,0.000004185,0.000000032,0.000000019,-0.000000093,0.000542976,-0.000856938,-0.000642938,0.006574314,-0.002968313,-0.000971232,-0.011540284,-0.002632011,-0.240956117
1609045342849233920,55,1609045342849233920,-0.020448196,-0.017333947,-0.090075589,0.005725834,-0.023846497,0.000306479,0.999699188,0.003147128,-0.004329328,0.001274124,0.021933790,-0.008704166,0.008272468,-0.000005310,0.000006630,0.000038564,0.000000298,0.000000144,-0.000001048,0.000541653,-0.002243733,-0.000644450,0.006574312,-0.002968313,-0.000971232,-0.011540056,-0.002632005,-0.240950380
1609045342954205440,56,1609045342954205440,-0.020138417,-0.017917971,-0.089826058,0.005753338,-0.023845839,0.000323854,0.999699040,0.003090821,-0.004723300,0.000987677,0.014494011,-0.003701084,0.002427772,-0.000040708,0.000114059,0.000486728,0.000001068,0.000001893,-0.000011610,-0.000263634,-0.000045280,0.004337395,0.006574312,-0.002968313,-0.000971232,-0.011541783,-0.002632076,-0.240993495
1609045343033104128,57,1609045343033104128,-0.019884651,-0.018269187,-0.089772723,0.005697847,-0.023845963,0.000322661,0.999699355,0.003547350,-0.009415197,-0.000707101,-0.002009023,0.000495424,-0.009825853,0.000000000,0.000000000,0.000000000,0.000000000,-0.000000000,0.000000000,-0.000726583,0.004248205,0.000904448,0.006574315,-0.002968313,-0.000971232,-0.011542098,-0.002632085,-0.241001463
1609045343133380352,58,1609045343133380352,-0.019578173,-0.018381694,-0.089350294,0.005757298,-0.023861518,0.000392095,0.999698618,0.003463645,-0.009771158,-0.000616478,-0.005301485,0.000473851,-0.013053346,0.000015582,0.000498668,0.000720997,-0.000015521,0.000005516,-0.000030827,-0.000186092,0.009547970,0.008414300,0.006574323,-0.002968313,-0.000971232,-0.011545172,-0.002632183,-0.241079087
1609045343236848384,59,1609045343236848384,-0.019166488,-0.018333077,-0.087745676,0.005756557,-0.023869143,0.000388107,0.999698442,0.003525266,-0.007330534,0.002189700,0.007532529,-0.000869640,-0.005060676,-0.000012526,0.001519639,0.003111471,-0.000064347,0.000027219,-0.000065657,0.000327911,0.015630915,0.031046196,0.006574336,-0.002968315,-0.000971231,-0.011556505,-0.002632546,-0.241365914
1609045343339487232,60,1609045343339487232,-0.018828980,-0.018852004,-0.087410949,0.005773801,-0.023887125,0.000415295,0.999697902,0.003445066,-0.007915827,0.002270447,0.007253915,-0.003324513,-0.002554747,-0.000007021,0.000136583,0.000207816,-0.000004228,0.000002315,-0.000008217,-0.000097953,0.002862018,0.002190022,0.006574339,-0.002968315,-0.000971231,-0.011557282,-0.002632570,-0.241385637
1609045343443235840,61,1609045343443235840,-0.018428183,-0.019538479,-0.087037126,0.005822681,-0.023883127,0.000443371,0.999697702,0.003506978,-0.006470239,0.003022449,0.012857079,-0.003909207,0.000063901,-0.000009296,0.000148669,0.000215782,-0.000004642,0.000002298,-0.000008705,0.000295660,0.000697525,0.001974931,0.006574339,-0.002968315,-0.000971231,-0.011557982,-0.002632593,-0.241403405
1609045343545777920,62,1609045343545777920,-0.018092166,-0.019839714,-0.086173839,0.005800472,-0.023877029,0.000403431,0.999697994,0.003544255,-0.005629531,0.003837202,0.016330978,-0.004136730,0.002670537,-0.000138341,0.000863777,0.001245932,-0.000025401,0.000009797,-0.000054874,-0.001048555,0.007552805,0.011884356,0.006574346,-0.002968315,-0.000971230,-0.011562103,-0.002632731,-0.241508249
1609045343648859648,63,1609045343648859648,-0.017906125,-0.020131037,-0.084895612,0.005772308,-0.023863344,0.000397553,0.999698486,0.003312242,-0.006047833,0.005004116,0.018902455,-0.003233571,0.005015763,-0.000401737,0.000965638,0.001956853,-0.000023190,0.000007914,-0.000056678,-0.003690212,0.008596082,0.018864383,0.006574353,-0.002968312,-0.000971229,-0.011568506,-0.002632939,-0.241671567
1609045343753595136,64,1609045343753595136,-0.017474228,-0.021087175,-0.084433955,0.005858087,-0.023872145,0.000441133,0.999697759,0.003261608,-0.005366720,0.006278956,0.024660381,-0.008130678,0.007236882,-0.000000294,0.000000857,0.000001224,-0.000000024,0.000000007,-0.000000049,0.000750586,-0.002979891,-0.001201621,0.006574351,-0.002968313,-0.000971229,-0.011568138,-0.002632929,-0.241662088
1609045343854918144,65,1609045343854918144,-0.017148112,-0.021890899,-0.083896153,0.005802656,-0.023848261,0.000395257,0.999698671,0.003582163,-0.005557238,0.006548215,0.023578122,-0.008971099,0.005486674,-0.000046860,0.000097217,0.000163080,-0.000002438,0.000000001,-0.000004561,-0.000538001,-0.001130735,0.000246637,0.006574350,-0.002968312,-0.000971229,-0.011568253,-0.002632935,-0.241664991
1609045343962770432,66,1609045343962770432,-0.016793095,-0.022740337,-0.082995326,0.005944540,-0.023871683,0.000496207,0.999697234,0.003966372,-0.004053239,0.006584874,0.026507223,-0.006879755,0.012964205,-0.000235668,0.000418430,0.000623809,-0.000011495,-0.000001568,-0.000021069,-0.001837413,-0.000418638,0.005955592,0.006574350,-0.002968311,-0.000971229,-0.011570175,-0.002632995,-0.241714401
1609045344032965888,67,1609045344032965888,-0.017029988,-0.021435491,-0.081192670,0.005758506,-0.023852390,0.000430122,0.999698814,0.003316471,-0.007631070,0.006551898,-0.000899416,-0.001051173,-0.010618401,-0.000847538,0.003052193,0.003138338,-0.000132850,0.000027458,-0.000112184,-0.009770350,0.035227338,0.029888523,0.006574380,-0.002968305,-0.000971227,-0.011579405,-0.002633310,-0.241952283
1609045344135595776,68,1609045344135595776,-0.016699355,-0.021825288,-0.080444026,0.005804094,-0.023854721,0.000450597,0.999698485,0.003206729,-0.005714416,0.007619579,0.004639968,-0.004520647,-0.006608390,-0.000001639,0.000006184,0.000006856,-0.000000292,0.000000066,-0.000000220,0.000060797,0.001349872,-0.000051367,0.006574381,-0.002968305,-0.000971227,-0.011579392,-0.002633309,-0.241951946
1609045344237783552,69,1609045344237783552,-0.016353002,-0.022171195,-0.079454314,0.005812255,-0.023860732,0.000461622,0.999698290,0.003385440,-0.005895740,0.008143574,0.008244601,-0.002668634,-0.002735927,-0.000043198,0.000177410,0.000195039,-0.000007427,0.000002062,-0.000006824,-0.000231353,0.002920085,0.002615783,0.006574383,-0.002968305,-0.000971227,-0.011580162,-0.002633339,-0.241971866
1609045344340911872,70,1609045344340911872,-0.017223743,-0.019981632,-0.074536169,0.005760886,-0.023880432,0.000488397,0.999698104,0.001454334,-0.002430028,0.012302125,0.008074846,0.000468366,-0.003923458,-0.002212841,0.004832264,0.008431283,-0.000298274,0.000064540,-0.000152834,-0.022004012,0.049373045,0.084585797,0.006574427,-0.002968291,-0.000971225,-0.011605109,-0.002634398,-0.242617272
1609045344444251648,71,1609045344444251648,-0.017110233,-0.019924464,-0.072915379,0.005801761,-0.023886391,0.000516176,0.999697711,0.001441638,-0.000852037,0.013407167,0.014180034,-0.004589249,0.000264857,-0.000167612,0.000454406,0.000524298,-0.000021041,0.000005929,-0.000016460,-0.001328600,0.004007350,0.005617439,0.006574431,-0.002968290,-0.000971225,-0.011606744,-0.002634470,-0.242659539
1609045344547606528,72,1609045344547606528,-0.017050039,-0.019826105,-0.071138548,0.005816552,-0.023893610,0.000518342,0.999697451,0.000827093,0.000340369,0.014613919,0.018063542,-0.006274573,0.004638299,-0.000245587,0.000596234,0.000685780,-0.000027949,0.000006635,-0.000023631,-0.001778215,0.004363942,0.006957285,0.006574435,-0.002968289,-0.000971224,-0.011608759,-0.002634562,-0.242711543
1609045344650313728,73,1609045344650313728,-0.016924233,-0.020043024,-0.069718300,0.005839445,-0.023886928,0.000515162,0.999697479,0.000724933,0.000605937,0.014870165,0.022958830,-0.007016328,0.007637982,-0.000042933,0.000082552,0.000108219,-0.000004725,0.000000806,-0.000003256,0.000096997,-0.001435183,0.000244177,0.006574434,-0.002968289,-0.000971224,-0.011608847,-0.002634567,-0.242713799
1609045344753411840,74,1609045344753411840,-0.016986115,-0.020070820,-0.067936348,0.005843724,-0.023895494,0.000516887,0.999697249,0.000587415,0.000744735,0.015303665,0.022092350,-0.006745953,0.008733559,-0.000430086,0.000588575,0.000765277,-0.000029792,0.000000800,-0.000022362,-0.003676313,0.003116297,0.007021983,0.006574437,-0.002968286,-0.000971224,-0.011610845,-0.002634664,-0.242765246
1609045344856489216,75,1609045344856489216,-0.016918019,-0.020397222,-0.066435377,0.005875223,-0.023905285,0.000562621,0.999696805,0.001051316,-0.000124485,0.016261078,0.025039770,-0.007189253,0.011385519,-0.000087475,0.000104858,0.000128218,-0.000005791,0.000000345,-0.000003289,-0.000836324,-0.001545816,-0.000048192,0.006574436,-0.002968285,-0.000971224,-0.011610859,-0.002634665,-0.242765602
1609045344959580672,76,1609045344959580672,-0.018176172,-0.018934749,-0.063129711,0.005907864,-0.023963726,0.000616538,0.999695182,-0.000548988,0.002147514,0.017987211,0.025314189,-0.010566764,0.011402708,-0.002515096,0.003296440,0.003981443,-0.000191540,0.000013235,-0.000050310,-0.025123706,0.030479715,0.038125381,0.006574464,-0.002968267,-0.000971223,-0.011621321,-0.002635209,-0.243034416
1609045345064862976,77,1609045345064862976,-0.018178544,-0.019265992,-0.061226525,0.005968719,-0.023971286,0.000653402,0.999694616,0.000337402,0.001126506,0.018370998,0.023488944,-0.006476602,0.012463268,-0.000033118,0.000059796,0.000067570,-0.000002227,0.000000506,-0.000001312,-0.000473231,-0.002759940,0.000942069,0.006574462,-0.002968267,-0.000971223,-0.011621572,-0.002635223,-0.243040849
1609045345133844992,78,1609045345133844992,-0.018338742,-0.019112580,-0.059892687,0.005729042,-0.023935480,0.000523168,0.999696953,0.000013005,-0.005450612,0.017097821,0.002564156,0.000136255,-0.007498886,-0.000376974,0.000593358,0.000788612,-0.000031310,0.000015262,-0.000009993,-0.003682487,0.008971504,0.002631575,0.006574470,-0.002968264,-0.000971223,-0.011622368,-0.002635269,-0.243061067
1609045345235022080,79,1609045345235022080,-0.018470782,-0.019166064,-0.058011597,0.005707355,-0.023946374,0.000535406,0.999696809,0.000527294,-0.007770256,0.016869651,-0.001302216,-0.000306999,-0.009651764,-0.000271570,0.000511264,0.000535205,-0.000019244,0.000008491,-0.000008246,-0.003149322,0.008623060,0.005126213,0.006574477,-0.002968262,-0.000971223,-0.011623710,-0.002635342,-0.243095075
1609045345337998592,80,1609045345337998592,-0.018397014,-0.019590305,-0.056326723,0.005715067,-0.023934976,0.000526425,0.999697043,0.000976291,-0.005280511,0.016891986,0.002841145,-0.002252416,-0.004906865,-0.000000764,0.000001485,0.000001478,-0.000000076,0.000000029,-0.000000020,-0.000177236,0.000758739,-0.000021972,0.006574477,-0.002968262,-0.000971223,-0.011623705,-0.002635342,-0.243094948
1609045345441191424,81,1609045345441191424,-0.018373907,-0.019914487,-0.054376207,0.005737816,-0.023944634,0.000547797,0.999696670,0.000568491,-0.004566233,0.017125964,0.008170452,-0.003898925,-0.001501746,-0.000177363,0.000292793,0.000300217,-0.000014222,0.000007030,-0.000003158,-0.001424666,0.002891139,0.003826960,0.006574480,-0.002968261,-0.000971223,-0.011624677,-0.002635390,-0.243119371
1609045345544755200,82,1609045345544755200,-0.022749041,-0.018169492,-0.046671653,0.005653559,-0.024050039,0.000557511,0.999694614,-0.005599808,-0.002635225,0.023979694,0.012324702,-0.004559798,0.000955170,-0.008254005,0.004133076,0.012733327,-0.000471750,0.000346065,0.000177190,-0.082372194,0.041638077,0.126834172,0.006574523,-0.002968203,-0.000971226,-0.011657192,-0.002636966,-0.243932320
1609045345647147776,83,1609045345647147776,-0.029415624,-0.017161967,-0.041518441,0.005612794,-0.024225793,0.000562757,0.999690598,-0.014638351,-0.001833400,0.027514069,0.019519459,-0.006998968,0.004650000,-0.011366353,0.002857096,0.006078066,-0.000089036,0.000219142,-0.000068645,-0.112854129,0.027457529,0.059565879,0.006574552,-0.002968118,-0.000971225,-0.011672476,-0.002637564,-0.244309998
1609045345750727168,84,1609045345750727168,-0.030800094,-0.017621570,-0.038928294,0.005660385,-0.024225486,0.000592686,0.999690319,-0.015143839,-0.000900694,0.028003095,0.021381572,-0.009090906,0.005991642,0.000000000,0.000000000,0.000000000,0.000000000,0.000000000,0.000000000,0.000931696,-0.002650318,-0.001557906,0.006574550,-0.002968119,-0.000971225,-0.011672101,-0.002637555,-0.244300962
1609045345853605120,85,1609045345853605120,-0.032321329,-0.018117055,-0.036238727,0.005662499,-0.024246007,0.000589982,0.999689811,-0.015729584,-0.002051401,0.027680472,0.024276398,-0.008965882,0.009237754,-0.000031106,0.000037824,0.000014463,-0.000001292,0.000001117,-0.000000601,0.000163949,-0.001829163,-0.000481973,0.006574548,-0.002968119,-0.000971225,-0.011671986,-0.002637553,-0.244298262
1609045345956710400,86,1609045345956710400,-0.033835170,-0.018695857,-0.033674372,0.005664200,-0.024248942,0.000590437,0.999689730,-0.016201892,-0.002026196,0.028035571,0.022438193,-0.008643493,0.009038408,-0.000026286,0.000035078,0.000009156,-0.000002479,0.000000386,-0.000000469,0.000587096,-0.002461700,-0.001709306,0.006574547,-0.002968119,-0.000971225,-0.011671567,-0.002637551,-0.244288612
1609045346059508480,87,1609045346059508480,-0.039619927,-0.015853006,-0.032425197,0.005523090,-0.024353587,0.000562194,0.999687992,-0.022636091,0.003208742,0.026681432,0.025031630,-0.008301379,0.010679641,-0.007684598,0.006371407,-0.002827026,-0.000023356,0.000082757,-0.000091853,-0.076043891,0.060165297,-0.029935683,0.006574599,-0.002968063,-0.000971224,-0.011663624,-0.002637587,-0.244108318
1609045346162642944,88,1609045346162642944,-0.042080445,-0.015971538,-0.029655822,0.005576512,-0.024368866,0.000600608,0.999687301,-0.023162605,0.003119032,0.027200041,0.025509249,-0.005096246,0.013892085,0.000000000,0.000000000,0.000000000,0.000000000,0.000000000,-0.000000000,-0.001028320,-0.003068564,0.000365260,0.006574596,-0.002968062,-0.000971224,-0.011663717,-0.002637584,-0.244110355
1609045346234099968,89,1609045346234099968,-0.043120569,-0.015931580,-0.028377460,0.005427558,-0.024332533,0.000531502,0.999689045,-0.023027057,-0.002237921,0.025427885,-0.001762873,0.001562990,-0.008678381,0.000000000,0.000000000,0.000000000,0.000000000,-0.000000000,0.000000000,0.009150672,0.001912111,-0.009466510,0.006574597,-0.002968069,-0.000971224,-0.011661361,-0.002637673,-0.244059588
1609045346336392960,90,1609045346336392960,-0.045351632,-0.015824202,-0.025763552,0.005408991,-0.024325294,0.000508930,0.999689334,-0.023662985,-0.001499955,0.026105668,0.007588834,-0.001371256,-0.003971606,0.000251340,0.000087979,-0.000206748,-0.000014950,0.000017039,-0.000026358,0.002650287,0.002441206,-0.001409476,0.006574599,-0.002968071,-0.000971223,-0.011660968,-0.002637692,-0.244051217
1609045346439334912,91,1609045346439334912,-0.047681955,-0.015823964,-0.023114942,0.005400288,-0.024312339,0.000493606,0.999689704,-0.024288947,-0.001662876,0.026661559,0.005678318,-0.001590615,-0.006700725,0.000000000,0.000000000,0.000000000,0.000000000,-0.000000000,0.000000000,0.000711019,0.001201277,-0.000131085,0.006574600,-0.002968072,-0.000971223,-0.011660935,-0.002637694,-0.244050523
1609045346542101248,92,1609045346542101248,-0.050152020,-0.015884166,-0.020396251,0.005386755,-0.024313203,0.000473693,0.999689765,-0.025492585,-0.000206812,0.026972417,0.009120182,-0.002481685,-0.001508024,0.000053930,-0.000011838,-0.000062327,-0.000001722,0.000002333,-0.000003330,0.000927625,-0.000363984,-0.000271295,0.006574600,-0.002968073,-0.000971223,-0.011660853,-0.002637700,-0.244048846
1609045346644128000,93,1609045346644128000,-0.052919700,-0.015867914,-0.017449424,0.005430440,-0.024321881,0.000488407,0.999689311,-0.026042604,0.001114918,0.027398429,0.015569732,-0.003351201,0.003019711,0.000006157,-0.000000489,-0.000007638,-0.000000257,0.000000228,-0.000000324,-0.001129715,-0.000685506,0.001486369,0.006574599,-0.002968072,-0.000971223,-0.011661244,-0.002637660,-0.244056569
1609045346747209984,94,1609045346747209984,-0.053819133,-0.016388286,-0.016786713,0.005464364,-0.024277684,0.000512774,0.999690188,-0.024104974,0.000519756,0.024444948,0.020294659,-0.006929471,0.004941090,0.003403754,-0.000828260,-0.004713121,-0.000126961,0.000062673,-0.000104033,0.033176278,-0.009604587,-0.045608861,0.006574591,-0.002968098,-0.000971222,-0.011648247,-0.002639043,-0.243800926
1609045346850269952,95,1609045346850269952,-0.053647782,-0.017463593,-0.018129519,0.005526265,-0.024206748,0.000534997,0.999691556,-0.021573820,-0.000503065,0.019578469,0.020197794,-0.007990805,0.006816428,0.004745547,-0.001628820,-0.007825888,-0.000151586,0.000109833,-0.000149240,0.047706042,-0.018077184,-0.078148883,0.006574576,-0.002968137,-0.000971219,-0.011625914,-0.002641630,-0.243367683
1609045346956470016,96,1609045346956470016,-0.052425239,-0.019113907,-0.026032012,0.005590227,-0.024112838,0.000550287,0.999693462,-0.016849668,-0.001590550,0.008942355,0.027491245,-0.007416809,0.010356733,0.006297554,-0.002110678,-0.020586044,-0.000372342,0.000173948,-0.000134637,0.061778436,-0.024594291,-0.205958109,0.006574557,-0.002968187,-0.000971217,-0.011567094,-0.002649050,-0.242234505
1609045347061722624,97,1609045347061722624,-0.050667064,-0.017449810,-0.028973443,0.005587377,-0.024016588,0.000593798,0.999695770,-0.012355116,0.001858493,0.004274825,0.027189679,-0.007265116,0.012803039,0.006323460,0.004180991,-0.007760084,0.000141319,-0.000170255,-0.000076538,0.062549422,0.037827023,-0.077886195,0.006574583,-0.002968238,-0.000971216,-0.011545032,-0.002652006,-0.241809489
1609045347133174784,98,1609045347133174784,-0.051334659,-0.017538349,-0.028776835,0.005423703,-0.023983407,0.000526967,0.999697505,-0.011906846,-0.004479159,0.002729751,0.001042375,0.000223673,-0.007395938,0.000000000,0.000000000,0.000000000,-0.000000000,-0.000000000,-0.000000000,0.003755543,0.002580370,-0.000569836,0.006574585,-0.002968241,-0.000971216,-0.011544886,-0.002652028,-0.241806693
1609045347233131264,99,1609045347233131264,-0.052367339,-0.017485078,-0.028488189,0.005431776,-0.023977980,0.000530146,0.999697590,-0.011915663,-0.003960003,0.003332589,-0.001563829,0.000577549,-0.010492606,0.000260104,0.000180428,-0.000255760,-0.000022905,-0.000001621,-0.000021426,0.002866216,0.004409736,-0.002102385,0.006574588,-0.002968244,-0.000971215,-0.011544312,-0.002652113,-0.241795516
1609045347336453632,100,1609045347336453632,-0.052219647,-0.017180039,-0.028843889,0.005424753,-0.023963012,0.000553074,0.999697974,-0.009651591,-0.001509784,0.002912595,0.004419053,-0.002112928,-0.004599357,0.002517211,0.000680450,-0.001720190,-0.000134793,-0.000000882,-0.000127731,0.024603489,0.007695367,-0.016694332,0.006574594,-0.002968263,-0.000971214,-0.011539870,-0.002652825,-0.241708509
1609045347443693824,101,1609045347443693824,-0.053225122,-0.017285666,-0.028519618,0.005435521,-0.023962723,0.000525378,0.999697938,-0.009438945,-0.000233481,0.003833223,0.015073501,-0.004173767,-0.000610010,0.000000000,0.000000000,0.000000000,0.000000000,-0.000000000,0.000000000,-0.000438964,-0.000586567,-0.000438707,0.006574594,-0.002968263,-0.000971214,-0.011539763,-0.002652844,-0.241706407
1609045347545498624,102,1609045347545498624,-0.054059987,-0.017523290,-0.028230799,0.005432919,-0.023949296,0.000508925,0.999698282,-0.009240790,-0.000246750,0.003545288,0.015593272,-0.003748929,0.002712552,0.000000000,0.000000000,0.000000000,0.000000000,0.000000000,0.000000000,0.000636213,-0.001518702,-0.000488460,0.006574593,-0.002968263,-0.000971214,-0.011539646,-0.002652866,-0.241704093
1609045347648868352,103,1609045347648868352,-0.054240266,-0.018518099,-0.028474251,0.005374242,-0.023907110,0.000443806,0.999699640,-0.008529393,-0.002327007,0.002995703,0.020883083,-0.005897397,0.006181586,0.001191063,-0.001006797,-0.000952827,0.000110003,-0.000042512,-0.000038806,0.012698440,-0.012046406,-0.010626451,0.006574581,-0.002968272,-0.000971213,-0.011537006,-0.002653392,-0.241650947
1609045347752139264,104,1609045347752139264,-0.051177884,-0.017146597,-0.031114522,0.005408815,-0.023809379,0.000499985,0.999701760,-0.002859605,0.000499126,-0.000037209,0.023349825,-0.006619841,0.008140800,0.006984858,0.003516803,-0.006037146,0.000242386,-0.000470289,-0.000077713,0.070401477,0.032844328,-0.061420100,0.006574600,-0.002968324,-0.000971212,-0.011522027,-0.002656588,-0.241345377
1609045347856669696,105,1609045347856669696,-0.047288877,-0.017440890,-0.031441241,0.005407392,-0.023712977,0.000482278,0.999704067,0.002889139,0.000379950,-0.000203746,0.022369757,-0.006114278,0.008043326,0.007608644,0.000163343,-0.000360722,0.000160246,-0.000795040,0.000044533,0.076374923,-0.001217422,-0.004777594,0.006574593,-0.002968375,-0.000971212,-0.011520910,-0.002656849,-0.241322135
1609045347957723392,106,1609045347957723392,-0.046687503,-0.017656173,-0.031550185,0.005422644,-0.023711498,0.000493277,0.999704014,0.003893141,0.000724155,-0.000699847,0.024914507,-0.007288062,0.011268168,0.000439109,0.000317609,0.000108133,0.000030940,-0.000064572,-0.000020510,0.004436422,0.000055200,0.000455853,0.006574592,-0.002968378,-0.000971212,-0.011521025,-0.002656822,-0.241324593
1609045348061068288,107,1609045348061068288,-0.046199698,-0.018120424,-0.031778953,0.005450303,-0.023714376,0.000486650,0.999703799,0.004488315,0.001363912,-0.000895132,0.029272322,-0.006694241,0.011150504,0.000000000,0.000000000,0.000000000,0.000000000,-0.000000000,0.000000000,0.000277387,-0.004275573,-0.001035228,0.006574589,-0.002968378,-0.000971212,-0.011520814,-0.002656883,-0.241319920
1609045348133418496,108,1609045348133418496,-0.044710054,-0.016366227,-0.033488649,0.005281173,-0.023686456,0.000429199,0.999705395,0.006552919,-0.002322251,-0.004240964,0.003439861,-0.001881896,-0.007727396,0.002398902,0.003402161,-0.003461977,0.000193185,-0.000815710,-0.000105373,0.022413307,0.037133749,-0.033785830,0.006574614,-0.002968388,-0.000971210,-0.011513695,-0.002658941,-0.241159879
1609045348232813824,109,1609045348232813824,-0.046114335,-0.017046496,-0.034494745,0.005283680,-0.023772444,0.000432350,0.999703339,0.004005440,-0.003655289,-0.005380978,-0.001122943,-0.000071425,-0.009736951,-0.003715668,-0.001480326,-0.001485588,0.000072880,-0.000795355,-0.000244674,-0.037394461,-0.012100564,-0.013860072,0.006574605,-0.002968349,-0.000971207,-0.011510866,-0.002659825,-0.241094517
1609045348336083968,110,1609045348336083968,-0.045428444,-0.017981018,-0.035933602,0.005331242,-0.023766302,0.000425298,0.999703236,0.004636702,-0.002884976,-0.006146792,0.006511495,-0.001114336,-0.006705240,0.000484926,-0.001664160,-0.002090235,0.000153592,-0.000462560,-0.000105974,0.005033871,-0.015591828,-0.020676025,0.006574591,-0.002968347,-0.000971205,-0.011506762,-0.002661200,-0.240997589
1609045348439252480,111,1609045348439252480,-0.045902164,-0.018133967,-0.035755279,0.005346668,-0.023808411,0.000419795,0.999702154,0.003755980,0.000252581,-0.004663674,0.009443600,-0.003347585,-0.000671982,-0.001713165,-0.000161712,0.001608318,-0.000189461,-0.000568861,-0.000074175,-0.017110855,-0.002436631,0.015956500,0.006574592,-0.002968326,-0.000971204,-0.011509849,-0.002660113,-0.241072013
1609045348542086400,112,1609045348542086400,-0.045547335,-0.018004901,-0.036090528,0.005467020,-0.023820299,0.000482658,0.999701191,0.003950583,0.003844238,-0.003512172,0.010904254,-0.004922419,-0.000974833,0.000029202,0.000056922,0.000052978,-0.000000434,-0.000004629,-0.000001762,-0.000092785,-0.001456656,0.000488252,0.006574591,-0.002968326,-0.000971204,-0.011509942,-0.002660080,-0.241074266
1609045348645901568,113,1609045348645901568,-0.047601240,-0.016705964,-0.035048118,0.005491186,-0.023890886,0.000487206,0.999699372,0.000638295,0.006655755,-0.001157547,0.017102741,-0.003950766,0.002292878,-0.004505884,0.001630705,0.003080903,-0.000158211,-0.000513634,-0.000231825,-0.044615251,0.015212481,0.029988650,0.006574607,-0.002968285,-0.000971201,-0.011515482,-0.002658072,-0.241211917
1609045348748370688,114,1609045348748370688,-0.047398748,-0.015924410,-0.034199892,0.005567975,-0.023910261,0.000517580,0.999698469,0.000519538,0.008169145,0.000528509,0.022961177,-0.006961133,0.006632652,0.000254309,0.000446831,0.002287942,-0.000062014,-0.000488853,-0.000270426,0.002991956,0.002654832,0.021730121,0.006574609,-0.002968282,-0.000971197,-0.011519462,-0.002656645,-0.241311409
1609045348851533824,115,1609045348851533824,-0.047277350,-0.015377288,-0.034254099,0.005635366,-0.023922772,0.000565636,0.999697766,0.000515317,0.009230031,0.001191032,0.022993751,-0.007983576,0.009149438,0.000000000,0.000000000,0.000000000,-0.000000000,0.000000000,0.000000000,0.000496494,-0.002671554,-0.001290155,0.006574607,-0.002968282,-0.000971197,-0.011519248,-0.002656723,-0.241305994
1609045348954504960,116,1609045348954504960,-0.046679067,-0.015087498,-0.033835943,0.005670801,-0.023907372,0.000558669,0.999697938,0.000706273,0.010003801,0.001543198,0.022609053,-0.006844317,0.008128516,0.000993106,-0.000366771,0.000967945,0.000036812,-0.000554914,-0.000230915,0.010577363,-0.007461665,0.008664486,0.006574600,-0.002968284,-0.000971193,-0.011520793,-0.002656197,-0.241345009
1609045349057685248,117,1609045349057685248,-0.044775669,-0.015169090,-0.032741298,0.005728382,-0.023874425,0.000577521,0.999698386,0.002950772,0.009438689,0.002990744,0.026743565,-0.008393987,0.011142561,0.003336732,-0.001110117,0.002320576,-0.000200645,-0.000552050,-0.000078351,0.033719726,-0.014724333,0.022000975,0.006574589,-0.002968303,-0.000971192,-0.011524634,-0.002654928,-0.241442663
1609045349160915456,118,1609045349160915456,-0.045038103,-0.016580612,-0.035165262,0.005840635,-0.023907672,0.000613740,0.999696921,0.002357268,0.006355731,-0.000162400,0.027954893,-0.008263580,0.014074010,-0.001004808,-0.003367669,-0.005553156,-0.000405301,-0.000560294,-0.000153603,-0.009863485,-0.036903998,-0.056331495,0.006574564,-0.002968286,-0.000971190,-0.011515008,-0.002657962,-0.241195380
1609045349233337088,119,1609045349233337088,-0.044793997,-0.016338854,-0.035298537,0.005683532,-0.023886091,0.000548372,0.999698380,0.002670549,0.000439151,-0.002142630,0.002016007,-0.000227321,-0.008042295,0.000201597,0.000145594,-0.000156482,-0.000024733,0.000002711,-0.000005954,0.001182107,0.002393811,-0.000485493,0.006574566,-0.002968288,-0.000971190,-0.011514914,-0.002657989,-0.241192986
1609045349332709888,120,1609045349332709888,-0.044428212,-0.015869554,-0.035449514,0.005700591,-0.023904039,0.000579009,0.999697837,0.003392355,-0.000373109,-0.002511634,-0.000057036,-0.000761462,-0.009550792,0.000117789,0.000070036,-0.000075093,-0.000013562,0.000001131,-0.000005825,0.000978155,0.004119413,0.000229397,0.006574569,-0.002968288,-0.000971190,-0.011514939,-0.002657982,-0.241193658
1609045349435904256,121,1609045349435904256,-0.044029795,-0.015569485,-0.035656465,0.005705513,-0.023901565,0.000551665,0.999697883,0.003517480,0.002032876,-0.002398541,0.007795158,-0.003781575,-0.003052557,0.000000000,0.000000000,0.000000000,0.000000000,0.000000000,0.000000000,0.000334890,0.000694557,0.000246981,0.006574570,-0.002968289,-0.000971190,-0.011514976,-0.002657973,-0.241194628
1609045349538886400,122,1609045349538886400,-0.043645081,-0.015344050,-0.035892166,0.005713031,-0.023887804,0.000560959,0.999698164,0.003414630,0.001182760,-0.002471722,0.013084808,-0.006275375,-0.000263021,0.000002545,0.000002631,-0.000000969,-0.000000115,-0.000000017,-0.000000175,0.000326677,0.000785025,0.000079286,0.006574571,-0.002968289,-0.000971190,-0.011514987,-0.002657970,-0.241194935
1609045349646875392,123,1609045349646875392,-0.043218077,-0.015286763,-0.036237428,0.005753906,-0.023897912,0.000588511,0.999697672,0.003515781,0.002256973,-0.001963708,0.015209390,-0.004952070,0.003159691,0.000002568,0.000000937,-0.000003423,-0.000000455,-0.000000082,-0.000000150,0.000555804,-0.001197247,-0.001138372,0.006574570,-0.002968289,-0.000971190,-0.011514819,-0.002658003,-0.241190502
1609045349749678592,124,1609045349749678592,-0.042754189,-0.015223708,-0.036584779,0.005841852,-0.023903038,0.000627880,0.999697016,0.003817928,0.003101234,-0.001043593,0.021210384,-0.006686514,0.006593892,0.000075275,0.000058093,-0.000148488,-0.000016628,-0.000002487,-0.000005645,0.001080324,-0.001385671,-0.002843170,0.006574569,-0.002968290,-0.000971190,-0.011514382,-0.002658074,-0.241179045
1609045349859791360,125,1609045349859791360,-0.041435399,-0.014799732,-0.038196848,0.005981561,-0.023912700,0.000707127,0.999695906,0.005559571,0.005761861,-0.002358458,0.029447222,-0.007158550,0.011956397,0.001521235,0.000639582,-0.002906700,-0.000320112,-0.000157770,-0.000113002,0.015475760,0.002947568,-0.030367022,0.006574574,-0.002968301,-0.000971188,-0.011509592,-0.002658711,-0.241053436
1609045349934590464,126,1609045349934590464,-0.041049454,-0.014688668,-0.038451627,0.005841275,-0.023874392,0.000624952,0.999697705,0.005768298,0.000561323,-0.003763211,0.004877789,-0.003017481,-0.006473135,0.000002241,0.000001179,-0.000000939,-0.000000216,0.000000054,-0.000000103,-0.001357023,0.000402557,0.000907549,0.006574574,-0.002968300,-0.000971188,-0.011509721,-0.002658699,-0.241056836
1609045350035774208,127,1609045350035774208,-0.040409522,-0.014388264,-0.038801414,0.005854021,-0.023875690,0.000623832,0.999697601,0.005891858,0.000157120,-0.004015463,0.005455092,0.000965356,-0.005851410,0.000064901,0.000049547,-0.000027437,-0.000007134,0.000002012,-0.000003870,0.000794402,0.002370270,0.000197709,0.006574576,-0.002968301,-0.000971188,-0.011509745,-0.002658698,-0.241057494
1609045350139122688,128,1609045350139122688,-0.039310328,-0.014054096,-0.039276498,0.005863248,-0.023875878,0.000641628,0.999697531,0.006583177,0.000261198,-0.003749654,0.008566283,-0.002025083,-0.003803696,0.000939428,0.000457008,-0.000322148,-0.000115299,0.000032759,-0.000058940,0.009393428,0.005194583,-0.003003116,0.006574581,-0.002968309,-0.000971187,-0.011509290,-0.002658713,-0.241045478
1609045350242171392,129,1609045350242171392,-0.038572955,-0.013888197,-0.039631493,0.005860242,-0.023881970,0.000629952,0.999697410,0.006401959,0.000101620,-0.003241658,0.009666051,-0.004262748,-0.001964131,0.000124136,0.000054754,-0.000057902,-0.000013505,0.000002351,-0.000006469,0.001518599,0.001473303,-0.000635515,0.006574582,-0.002968310,-0.000971187,-0.011509195,-0.002658713,-0.241042977
1609045350346286592,130,1609045350346286592,-0.037858905,-0.013882790,-0.040033450,0.005897487,-0.023870407,0.000649232,0.999697455,0.005960159,0.001757893,-0.003412363,0.015649769,-0.004043256,0.002527031,0.000000000,0.000000000,0.000000000,0.000000000,-0.000000000,0.000000000,0.000844021,-0.001218437,-0.000455493,0.006574581,-0.002968310,-0.000971187,-0.011509133,-0.002658709,-0.241041310
1609045350448590080,131,1609045350448590080,-0.037120844,-0.013891232,-0.040475665,0.005925236,-0.023869687,0.000657281,0.999697303,0.006288991,0.000484531,-0.002704729,0.019444218,-0.007260205,0.004464454,0.000216065,0.000122473,-0.000070279,-0.000026400,0.000003795,-0.000011684,0.002205849,0.000389191,-0.001777619,0.006574582,-0.002968312,-0.000971187,-0.011508884,-0.002658689,-0.241034655
1609045350550964480,132,1609045350550964480,-0.036414515,-0.014148163,-0.040894552,0.005938352,-0.023877014,0.000653578,0.999697053,0.006176366,-0.000573889,-0.002935024,0.021114908,-0.008722017,0.005696631,0.000000000,0.000000000,0.000000000,-0.000000000,0.000000000,0.000000000,0.000633338,-0.001424990,-0.000940002,0.006574581,-0.002968313,-0.000971187,-0.011508757,-0.002658673,-0.241031262
1609045350654372096,133,1609045350654372096,-0.035642223,-0.014474053,-0.041356703,0.005959517,-0.023880302,0.000673705,0.999696835,0.006134326,-0.000973400,-0.003017827,0.020099187,-0.006825761,0.007037284,0.000067177,0.000139265,-0.000018032,-0.000016727,0.000000064,-0.000006224,0.001571740,-0.000720189,-0.001324715,0.006574580,-0.002968314,-0.000971187,-0.011508578,-0.002658645,-0.241026446
1609045350757294848,134,1609045350757294848,-0.034983436,-0.014932308,-0.041761360,0.006070538,-0.023911541,0.000740161,0.999695373,0.006409149,-0.000168741,-0.002609350,0.027174696,-0.006093766,0.010939315,0.000000000,0.000000000,0.000000000,0.000000000,-0.000000000,0.000000000,0.000127121,-0.003139498,-0.001074810,0.006574578,-0.002968314,-0.000971187,-0.011508436,-0.002658618,-0.241022608
1609045350832198656,135,1609045350832198656,-0.034570063,-0.015099852,-0.041985546,0.005933898,-0.023882962,0.000692873,0.999696911,0.006820848,-0.006331784,-0.004386407,-0.002054655,-0.000832912,-0.008001789,0.000000000,0.000000000,0.000000000,-0.000000000,-0.000000000,-0.000000000,-0.001935007,0.003353227,0.001617695,0.006574581,-0.002968313,-0.000971187,-0.011508645,-0.002658665,-0.241028236
1609045350935307264,136,1609045350935307264,-0.033776639,-0.015495602,-0.042397432,0.005925042,-0.023883870,0.000691478,0.999696942,0.006921793,-0.005659848,-0.004204603,0.007279312,-0.001850330,-0.004816241,0.000001007,0.000000963,-0.000000015,-0.000000118,0.000000045,-0.000000071,0.000731579,0.001225340,0.000064325,0.006574581,-0.002968313,-0.000971187,-0.011508653,-0.002658667,-0.241028460
1609045351038373632,137,1609045351038373632,-0.033089593,-0.015910309,-0.042797472,0.005936201,-0.023868527,0.000688968,0.999697244,0.006931792,-0.005967572,-0.004577900,0.004491012,-0.000084489,-0.004368745,0.000000582,0.000000484,0.000000014,-0.000000067,0.000000026,-0.000000033,-0.000040073,0.001306446,0.000434122,0.006574582,-0.002968313,-0.000971187,-0.011508709,-0.002658683,-0.241029961
1609045351142492160,138,1609045351142492160,-0.032375365,-0.016388507,-0.043219838,0.006000394,-0.023881254,0.000733381,0.999696526,0.006699589,-0.006003946,-0.004452860,0.011136802,-0.003990998,-0.000848627,0.000014408,0.000014362,0.000002861,-0.000001739,0.000000661,-0.000000842,0.000411772,0.000968721,0.000192212,0.006574583,-0.002968314,-0.000971187,-0.011508733,-0.002658691,-0.241030629
1609045351246604544,139,1609045351246604544,-0.031665474,-0.017146370,-0.043763169,0.005987005,-0.023865156,0.000712619,0.999697005,0.006611584,-0.006198387,-0.004819154,0.019485671,-0.008405482,0.006724070,0.000000000,0.000000000,0.000000000,0.000000000,-0.000000000,-0.000000000,0.000348296,-0.000986523,-0.000461228,0.006574582,-0.002968314,-0.000971187,-0.011508675,-0.002658670,-0.241029055
1609045351352691712,140,1609045351352691712,-0.030449626,-0.017520246,-0.043821386,0.005992506,-0.023860737,0.000726093,0.999697068,0.007778908,-0.007551525,-0.004389690,0.024146916,-0.008171229,0.008901159,0.000955301,0.000949292,0.001072377,-0.000135335,0.000035870,-0.000047820,0.009431851,0.008937839,0.010343567,0.006574591,-0.002968322,-0.000971186,-0.011510077,-0.002659158,-0.241066895
1609045351455860480,141,1609045351455860480,-0.029554346,-0.018901812,-0.044448902,0.006029390,-0.023874288,0.000740545,0.999696512,0.008008833,-0.008790992,-0.004197924,0.026687574,-0.006249383,0.010770167,0.000000000,0.000000000,0.000000000,0.000000000,-0.000000000,0.000000000,0.000672972,-0.003582356,-0.001557784,0.006574588,-0.002968322,-0.000971186,-0.011509884,-0.002659081,-0.241061638
1609045351558960128,142,1609045351558960128,-0.028655635,-0.020378227,-0.045026493,0.006050811,-0.023857702,0.000753112,0.999696769,0.008483632,-0.009933200,-0.003874270,0.027141245,-0.003030830,0.011708292,0.000008180,0.000059165,0.000034892,-0.000003414,0.000001078,-0.000001211,0.000411398,-0.003050628,-0.001181999,0.006574585,-0.002968323,-0.000971186,-0.011509742,-0.002659021,-0.241057761
1609045351662139392,143,1609045351662139392,-0.027721502,-0.021704280,-0.045432358,0.006087314,-0.023849880,0.000782968,0.999696711,0.008471145,-0.011387366,-0.004296919,0.026953653,-0.007446048,0.013039783,0.000045000,0.000633628,0.000381047,-0.000039379,0.000004923,-0.000011616,0.000910511,0.002801672,0.002821227,0.006574588,-0.002968324,-0.000971186,-0.011510123,-0.002659174,-0.241068195
1609045351733427968,144,1609045351733427968,-0.027258194,-0.022475862,-0.045712049,0.005914163,-0.023827181,0.000691648,0.999698359,0.008397400,-0.017819192,-0.005436168,-0.001454875,-0.001155963,-0.009357340,0.000000921,0.000003492,0.000002121,-0.000000280,0.000000116,-0.000000119,-0.002707980,0.007308032,0.002009947,0.006574594,-0.002968322,-0.000971186,-0.011510359,-0.002659282,-0.241074719
1609045351833963520,145,1609045351833963520,-0.026324188,-0.023955376,-0.046123129,0.005901752,-0.023818129,0.000684169,0.999698654,0.008646129,-0.018172316,-0.005474407,0.002808997,-0.000666969,-0.007680211,0.000052740,0.000178093,0.000126592,-0.000016402,0.000007791,-0.000004547,0.000845210,0.003601832,0.001915437,0.006574597,-0.002968323,-0.000971186,-0.011510594,-0.002659389,-0.241081246
1609045351937256704,146,1609045351937256704,-0.025376777,-0.025707740,-0.046632080,0.005858455,-0.023816581,0.000655017,0.999698965,0.008935310,-0.018664122,-0.005225128,0.007156087,-0.003060575,-0.003569648,0.000001900,0.000093711,0.000089055,-0.000007011,0.000003195,-0.000002457,0.000396964,0.001433866,0.000724518,0.006574598,-0.002968323,-0.000971186,-0.011510687,-0.002659431,-0.241083813
1609045352041355776,147,1609045352041355776,-0.024413596,-0.027682578,-0.047190835,0.005884488,-0.023815000,0.000685237,0.999698829,0.009136740,-0.018953694,-0.005014868,0.012045319,-0.004357701,0.002731559,0.000000010,0.000000829,0.000000538,-0.000000043,0.000000016,-0.000000024,0.000354152,-0.000562939,-0.000427069,0.006574598,-0.002968323,-0.000971186,-0.011510638,-0.002659407,-0.241082441
1609045352143471360,148,1609045352143471360,-0.023481672,-0.029564647,-0.047702591,0.005898875,-0.023825631,0.000687905,0.999698489,0.009664673,-0.020680060,-0.006215493,0.010262860,-0.005895595,-0.001683174,-0.000018712,0.000119834,0.000085274,-0.000005559,0.000002377,-0.000002346,-0.000371833,0.002118795,0.001421425,0.006574599,-0.002968323,-0.000971185,-0.011510806,-0.002659489,-0.241087196
1609045352247821568,149,1609045352247821568,-0.022388048,-0.031904664,-0.048370682,0.005970962,-0.023825282,0.000717655,0.999698049,0.009729270,-0.019626293,-0.004454749,0.021991881,-0.005352702,0.004700897,0.000000000,0.000000000,0.000000000,0.000000000,-0.000000000,0.000000000,0.000860044,-0.002689288,-0.001670953,0.006574597,-0.002968324,-0.000971185,-0.011510619,-0.002659393,-0.241081868
