time,field.header.seq,field.header.stamp,field.pose.pose.position.x,field.pose.pose.position.y,field.pose.pose.position.z,field.pose.pose.orientation.x,field.pose.pose.orientation.y,field.pose.pose.orientation.z,field.pose.pose.orientation.w,field.twist.twist.linear.x,field.twist.twist.linear.y,field.twist.twist.linear.z,field.twist.twist.angular.x,field.twist.twist.angular.y,field.twist.twist.angular.z, ex,ey,ez,erx,ery,erz,evx,evy,evz,gbx,gby,gbz,abx,aby,abz
1625132070158521344,0,1625132070158521344,0.001369652,-0.003505915,-0.002458729,0.009884228,0.016828588,0.000748362,0.999809252,0.011152789,-0.034071464,-0.023078187,0.016911073,0.005592638,0.000532632,0.023136477,-0.035757668,-0.031547467,-0.000673770,-0.002910575,0.000950272,0.229608121,-0.353183967,-0.311109143,-0.000688427,-0.016327832,0.002507366,0.006316683,-0.002935296,-0.229663717
1625132070258326016,1,1625132070258326016,0.003864063,-0.009550102,-0.005480608,0.012855905,0.019054941,0.001127392,0.999735147,0.025899938,-0.059712472,-0.026807389,0.015712650,-0.009054748,-0.005060006,0.027328991,-0.029041293,-0.058853459,0.001174730,-0.001873482,0.000016183,0.268800670,-0.285841794,-0.588245623,-0.000688429,-0.016327819,0.002507365,0.005851174,-0.002696611,-0.214962006
1625132070358213120,2,1625132070358213120,0.010263316,-0.018084078,-0.009048078,0.014028274,0.021597951,-0.000955055,0.999667857,0.058121264,-0.084273063,-0.027365120,0.008522115,0.006258429,-0.043542684,0.039297976,-0.023678922,-0.039493539,-0.003636927,-0.003185208,-0.000743311,0.384354129,-0.230646804,-0.394879613,-0.000688431,-0.016327798,0.002507366,0.005408840,-0.002448212,-0.201783837
1625132070458003456,3,1625132070458003456,0.012519878,-0.025297338,-0.011945552,0.013831660,0.021486310,-0.001036333,0.999672921,0.057736934,-0.096201029,-0.030732008,0.025033714,0.008655274,0.021837921,-0.031052110,0.018516613,-0.002859673,0.000180269,-0.000246307,0.000768633,-0.318989882,0.193531458,-0.025896238,-0.000688425,-0.016327815,0.002507365,0.005369677,-0.002425413,-0.200692826
1625132070557883392,4,1625132070557883392,0.008313300,-0.031945120,-0.016284964,0.014420050,0.020543228,-0.000435304,0.999684875,0.029232412,-0.104069597,-0.036259814,0.033555830,0.008655274,0.011984225,-0.051994703,0.025727085,-0.010825252,0.001826107,-0.000654975,0.000540068,-0.523783341,0.264652091,-0.107348311,-0.000688414,-0.016327842,0.002507365,0.005174634,-0.002308800,-0.195491088
1625132070658039296,5,1625132070658039296,0.008274116,-0.041638335,-0.021072446,0.015519688,0.021192281,-0.000922980,0.999654528,0.019374669,-0.116345079,-0.038201568,0.029161614,0.001198422,-0.039414784,-0.010815069,0.008454783,-0.009299244,0.001462258,-0.000306276,-0.001899829,-0.108326792,0.091128320,-0.091388152,-0.000688416,-0.016327850,0.002507370,0.004986280,-0.002192275,-0.190573612
1625132070758319872,6,1625132070758319872,0.008023484,-0.049737186,-0.024801003,0.016625741,0.020926292,-0.002968632,0.999638366,0.012028214,-0.123883509,-0.039226697,0.033822146,-0.027031085,-0.036352149,-0.004906447,0.015468919,0.000264639,0.000438580,-0.001406759,-0.000115490,-0.049332203,0.161950755,0.003529207,-0.000688420,-0.016327856,0.002507371,0.004992768,-0.002196500,-0.190737824
1625132070858571264,7,1625132070858571264,0.000881966,-0.052207875,-0.028583434,0.016580545,0.019701647,-0.001758341,0.999666864,0.004945380,-0.112899624,-0.029466238,0.020639498,-0.021438447,0.050999535,-0.021436236,0.030067750,-0.003354314,0.000269560,-0.002882912,0.002489676,-0.222320873,0.304943450,-0.034701537,-0.000688417,-0.016327869,0.002507364,0.004905773,-0.002138395,-0.188528460
1625132070958914816,8,1625132070958914816,0.006378993,-0.055089021,-0.030790340,0.016503826,0.019807629,-0.002665009,0.999664033,0.032429061,-0.102889417,-0.032863558,0.011185277,-0.024900556,-0.060453757,0.012148389,0.022872434,0.001001380,0.001585377,-0.001792164,-0.002244465,0.111743971,0.230939186,0.015640563,-0.000688434,-0.016327874,0.002507372,0.004941704,-0.002163616,-0.189433825
1625132071059212288,9,1625132071059212288,0.012882810,-0.051940195,-0.033885963,0.015778723,0.020680501,-0.003648260,0.999654960,0.057335379,-0.084037582,-0.044001260,0.002130529,0.008788432,0.018242653,0.006363078,0.031065232,0.000198475,0.001842343,-0.001878683,0.000278641,0.055243911,0.313356085,0.010498477,-0.000688449,-0.016327884,0.002507371,0.004963222,-0.002179414,-0.189969786
1625132071159429376,10,1625132071159429376,0.019944669,-0.052777090,-0.036235992,0.015481946,0.021604574,-0.004128663,0.999638187,0.074623124,-0.080533547,-0.052461771,-0.001864213,0.002796319,-0.023169501,0.003099433,0.017096234,0.004941747,0.002166952,-0.002441438,-0.000950521,0.023389360,0.175351888,0.054704144,-0.000688461,-0.016327883,0.002507375,0.005095229,-0.002275504,-0.193246892
1625132071259477760,11,1625132071259477760,0.029458885,-0.055048132,-0.033279362,0.014978273,0.022943315,-0.005602133,0.999608859,0.099709382,-0.080806741,-0.044981700,-0.002796319,0.006524745,-0.003994742,0.002785663,0.011785034,0.014364695,0.000923238,-0.000501969,-0.000865940,0.016929699,0.122322000,0.147137350,-0.000688464,-0.016327888,0.002507380,0.005451511,-0.002534220,-0.201928054
1625132071359393024,12,1625132071359393024,0.044194101,-0.052532940,-0.033058348,0.013770772,0.024788436,-0.007905568,0.999566607,0.132507978,-0.084558909,-0.040297499,-0.016245283,0.028229508,-0.063649550,0.007530261,0.019413611,0.007090990,-0.000014651,-0.001865318,-0.002271579,0.063628072,0.204246787,0.073905981,-0.000688458,-0.016327892,0.002507391,0.005625977,-0.002658840,-0.206052232
1625132071459105792,13,1625132071459105792,0.063674341,-0.059380493,-0.036769132,0.012695669,0.027161067,-0.007190380,0.999524584,0.164305484,-0.106586906,-0.045577561,-0.004261058,0.018109495,0.068842714,0.011867273,0.001571879,0.000485532,-0.005585783,-0.007931243,0.005935546,0.110418648,0.026940125,0.008524301,-0.000688428,-0.016327847,0.002507357,0.005645164,-0.002671942,-0.206483525
1625132071558787072,14,1625132071558787072,0.064277901,-0.069006894,-0.022247835,0.012957615,0.028061782,-0.004666124,0.999511313,0.165628786,-0.134571306,-0.010888375,0.023568976,0.024234766,0.007190535,-0.025096291,0.003048487,0.026077502,-0.001822843,-0.002297652,-0.000225686,-0.263473875,0.042200615,0.259948978,-0.000688395,-0.016327803,0.002507360,0.006257314,-0.003063271,-0.219588540
1625132071658677248,15,1625132071658677248,0.052496615,-0.061825649,-0.019702856,0.012622731,0.029547684,-0.005218310,0.999470045,0.158780480,-0.119676323,-0.012355480,0.008522115,0.030493194,0.035153726,-0.044067397,0.031397626,0.004227666,-0.004739792,-0.004021034,0.001856299,-0.456051544,0.319039482,0.048765044,-0.000688290,-0.016327724,0.002507350,0.006360907,-0.003124522,-0.221616326
1625132071758424064,16,1625132071758424064,0.051090402,-0.057861153,-0.024278876,0.010667568,0.031302289,-0.000360201,0.999452970,0.162353475,-0.112535283,-0.022653864,-0.037151097,0.014247912,0.120641197,-0.025339908,0.023996219,-0.004948314,-0.003844052,-0.007121392,0.007566890,-0.265590463,0.245648169,-0.044384695,-0.000688204,-0.016327633,0.002507299,0.006246560,-0.003061050,-0.219436375
1625132071858187776,17,1625132071858187776,0.046389398,-0.061452409,-0.029649572,0.007093167,0.030977021,0.006063878,0.999476533,0.163954358,-0.121231307,-0.040122357,-0.085221155,-0.019307918,0.167379675,-0.030029644,0.010242485,-0.004096681,-0.008398384,-0.008953318,0.010799215,-0.314546189,0.109296492,-0.032925546,-0.000688096,-0.016327494,0.002507223,0.006159283,-0.003017814,-0.217879090
1625132071957895936,18,1625132071957895936,0.071090476,-0.078515702,-0.042259022,0.003036964,0.030550819,0.016000458,0.999400525,0.221452148,-0.141485432,-0.042069563,-0.072437982,-0.027164243,0.239018708,0.014362794,-0.008055998,-0.011699807,-0.007904526,-0.011366955,0.016954985,0.118601114,-0.078553728,-0.120962655,-0.000688058,-0.016327416,0.002507096,0.005871061,-0.002904071,-0.213253729
1625132072057685504,19,1625132072057685504,0.106118354,-0.101132232,-0.028242543,0.000605239,0.031895820,0.025607155,0.999162932,0.321979075,-0.145056264,0.003066717,-0.000798948,0.027963191,0.094275903,0.015740019,-0.013157234,0.022354109,-0.001396894,-0.002294062,0.003147160,0.118955421,-0.136349183,0.216371731,-0.000688093,-0.016327416,0.002507072,0.006391762,-0.003058057,-0.221100329
1625132072157737984,20,1625132072157737984,0.147031601,-0.098260810,-0.032925710,0.001967253,0.032850876,0.028160291,0.999061534,0.412210538,-0.111548407,-0.009547058,0.043143210,-0.047271109,0.108390656,0.012168562,0.027558189,-0.007240157,0.004568954,-0.014340876,0.009071955,0.087385460,0.267507845,-0.065773420,-0.000688059,-0.016327327,0.002506992,0.006228814,-0.003024335,-0.218806015
1625132072257570560,21,1625132072257570560,0.192377074,-0.108895334,-0.065230984,0.005850017,0.030089586,0.039030505,0.998767748,0.517033740,-0.091178177,-0.063259650,0.111320134,-0.081759045,0.209191304,0.006589084,0.002818992,-0.041736007,0.010063508,-0.023143402,0.008370631,0.019711297,0.017041374,-0.407372646,-0.000688167,-0.016327120,0.002506921,0.005241520,-0.002898578,-0.206058504
1625132072357815552,22,1625132072357815552,0.276062211,-0.124924379,-0.042020682,0.013159920,0.027664154,0.039530344,0.998748649,0.644023044,-0.069768735,-0.048704065,0.158058611,-0.086419577,-0.075234301,0.048206176,-0.008392773,0.041610976,0.013413905,-0.014267501,-0.007937270,0.442428374,-0.098854099,0.421793404,-0.000688387,-0.016327142,0.002506993,0.006246884,-0.003003915,-0.218482198
1625132072458063360,23,1625132072458063360,0.335986450,-0.115183752,-0.024672488,0.023300431,0.024491506,0.040121632,0.998622807,0.707265746,-0.019629630,-0.003125184,0.208259197,-0.100401173,0.135688058,-0.008164533,0.027008854,0.029762121,0.009934055,-0.016451060,0.005674349,-0.108566326,0.254683539,0.287595857,-0.000688376,-0.016326931,0.002506934,0.006893969,-0.003096934,-0.226206323
1625132072558152192,24,1625132072558152192,0.389121858,-0.115159356,-0.023879992,0.031243658,0.019762545,0.046754579,0.998222062,0.759172492,0.024669423,0.064081816,0.118244352,-0.102531702,0.067244818,-0.027694810,0.001724138,-0.001158951,0.005645879,-0.016086536,-0.005933593,-0.313131466,-0.002084847,-0.042796261,-0.000688421,-0.016326599,0.002506989,0.006795688,-0.003070539,-0.225012544
1625132072658680832,25,1625132072658680832,0.488186357,-0.102312519,-0.023839226,0.036398423,0.021868739,0.035686463,0.998460510,0.891510022,0.062648661,0.134920919,0.101466438,0.085087997,-0.464854768,0.029798133,0.014930558,-0.015453398,0.003845411,-0.005018308,-0.044236288,0.257119144,0.142148309,-0.178862276,-0.000688407,-0.016326708,0.002507416,0.006460215,-0.002909975,-0.220826174
1625132072758942464,26,1625132072758942464,0.587653790,-0.058443509,0.002314261,0.039164723,0.022839467,0.020530444,0.998760724,0.927474713,0.115483260,0.097073520,0.037017939,-0.040879523,0.109589079,0.016548900,0.060637331,0.019952448,-0.001384089,-0.008897451,0.005245987,0.155289469,0.601325692,0.226219751,-0.000688057,-0.016326742,0.002507345,0.006861130,-0.003201734,-0.225857597
1625132072858385152,27,1625132072858385152,0.658060885,-0.045839089,0.004643056,0.037829576,0.025189294,0.033771892,0.998395654,0.943366088,0.124643484,0.039319119,-0.052597432,0.031824775,0.113317504,-0.038683192,0.000955204,-0.009611365,-0.002663243,-0.004310218,0.000738642,-0.405807908,0.003833457,-0.068639359,-0.000687988,-0.016326441,0.002507336,0.006729883,-0.003080080,-0.224138233
1625132072958515968,28,1625132072958515968,0.763737599,-0.029281410,0.005807275,0.033222838,0.026452474,0.026615952,0.998743261,0.996884061,0.153198912,-0.028605715,-0.145009121,-0.028229508,-0.202799717,0.015842271,0.005450503,-0.001176446,-0.000299422,-0.000449974,-0.001846749,0.142232117,0.043453372,0.019481570,-0.000687970,-0.016326531,0.002507355,0.006762836,-0.003119161,-0.224537663
1625132073058316032,29,1625132073058316032,0.822063387,0.018468882,-0.026720460,0.024220669,0.023482519,0.029828253,0.998985588,0.993035653,0.198976236,-0.076108821,-0.176833896,-0.049268480,0.201468136,-0.070861598,0.051820332,-0.043132639,-0.006090888,-0.012072208,0.011434116,-0.731145718,0.516962282,-0.429777918,-0.000687478,-0.016325949,0.002507213,0.006062920,-0.002180558,-0.215800070
1625132073158149888,30,1625132073158149888,0.916262936,0.055488336,-0.029911506,0.014641632,0.019951006,0.037184807,0.999001937,0.995452790,0.213394406,-0.039095235,-0.198272343,-0.121573304,0.111985924,-0.006886456,0.028801373,0.005307660,-0.007427120,-0.016546114,0.018859884,-0.071606811,0.288617453,0.037285897,-0.000687183,-0.016325719,0.002506997,0.006112305,-0.002258003,-0.216406892
1625132073257562624,31,1625132073257562624,1.021382700,0.120447104,-0.019468003,0.004692589,0.013846044,0.062798209,0.997919161,1.021471566,0.272125860,0.099984315,-0.163917565,-0.093343796,0.741956680,0.010564952,0.076086856,0.016449844,0.002098990,-0.007604424,0.003001554,0.091620712,0.754791195,0.104949152,-0.000686644,-0.016325771,0.002506945,0.006252511,-0.002471815,-0.218337498
1625132073357297920,32,1625132073357297920,1.110670978,0.141597483,-0.009287292,-0.000021710,0.010944292,0.089683353,0.995910196,1.034976878,0.265400478,0.132826201,-0.007456851,-0.030626353,0.360991486,-0.024449119,-0.009773102,-0.005189694,0.004543580,0.000663485,0.000782089,-0.257794727,-0.099133710,-0.053668916,-0.000686749,-0.016325567,0.002506938,0.006189316,-0.002375845,-0.217318964
1625132073457453568,33,1625132073457453568,1.224811238,0.139569261,0.006433565,0.000028430,0.014127955,0.109506051,0.993885720,1.087702709,0.274169844,0.083526209,-0.038349520,0.089482213,0.498543756,0.015800219,-0.051400454,0.006177642,0.005209345,0.002783303,-0.017159090,0.140681278,-0.536067904,0.089090401,-0.000687265,-0.016325647,0.002507154,0.006260686,-0.002497257,-0.218803082
1625132073557752064,34,1625132073557752064,1.314587570,0.178450232,0.011233766,-0.003208223,0.018835676,0.130612619,0.991249347,1.122485019,0.313997972,-0.008145924,-0.009587380,0.089349055,0.294945091,-0.038094641,0.017336271,-0.000948844,0.001335195,-0.000175375,0.004564609,-0.406979518,0.164433847,0.032094714,-0.000687089,-0.016325334,0.002507092,0.006266403,-0.002520172,-0.219074253
1625132073658223104,35,1625132073658223104,1.414131422,0.186614702,0.008083169,-0.000109477,0.020673129,0.144793849,0.989245850,1.133544581,0.291377615,-0.070964691,0.123038042,-0.070041137,0.265117687,-0.025126827,-0.041983156,0.002389833,0.001306640,-0.001529960,0.002059392,-0.258698843,-0.422908815,0.041912896,-0.000687417,-0.016325031,0.002507078,0.006279631,-0.002542528,-0.219554428
1625132073758742016,36,1625132073758742016,1.506427662,0.183424981,-0.023252180,0.007762940,0.016366783,0.153261328,0.988019651,1.118368386,0.273714617,-0.044218875,0.112252240,-0.105061705,0.152732289,-0.036917820,-0.058632333,-0.043951838,0.006001407,-0.006300498,0.002862721,-0.374114615,-0.599819508,-0.467536778,-0.000687939,-0.016324538,0.002507055,0.006048197,-0.002267694,-0.212568243
1625132073859234560,37,1625132073859234560,1.554781099,0.209763229,-0.018433080,0.011724523,0.007905777,0.155023816,0.987809521,1.034479368,0.305798270,0.079806624,0.012516857,-0.216648155,-0.149270179,-0.109341259,-0.005470032,0.008454261,0.000994695,-0.018837380,-0.025042149,-1.097570626,-0.071746711,0.030409693,-0.000687794,-0.016323314,0.002507362,0.006026820,-0.002259081,-0.212548411
1625132073959735040,38,1625132073959735040,1.683595861,0.256599939,-0.000134311,0.009648834,0.006181902,0.142910249,0.989669311,1.138293142,0.373980247,0.197002620,-0.061385863,0.044208474,-0.159789665,0.039949700,0.024914951,0.005004231,-0.002090164,-0.003719207,-0.007055991,0.369302899,0.232595216,0.022961596,-0.000687643,-0.016323652,0.002507451,0.006037280,-0.002278917,-0.213052901
1625132074059366400,39,1625132074059366400,1.748802012,0.314553546,0.007798514,0.004635704,0.008454728,0.148542371,0.988859035,1.144466760,0.423634148,0.128253494,-0.069907979,0.103463808,0.252600829,-0.092923744,0.031996379,-0.019321908,-0.003932824,-0.004264349,0.009933261,-0.961864399,0.311917795,-0.160376628,-0.000687082,-0.016322804,0.002507300,0.006065066,-0.002210716,-0.210534706
1625132074158907392,40,1625132074158907392,1.841840019,0.363875619,-0.004102882,0.001767866,0.013055045,0.156728627,0.987553835,1.170488642,0.429726281,-0.036440224,-0.029294772,0.076033249,0.124902255,-0.042434858,0.012186482,-0.035405612,0.001760545,-0.009641226,0.010552098,-0.447021294,0.123079589,-0.288702769,-0.000686889,-0.016322323,0.002507152,0.006195931,-0.002161135,-0.206570387
1625132074258156544,41,1625132074258156544,2.008490158,0.370944989,-0.033883965,0.001329144,0.015110811,0.172027718,0.984975310,1.246673681,0.380772114,-0.168860168,-0.032091091,-0.048070058,0.546880130,0.090693728,-0.062236026,-0.036707497,0.004510397,-0.001081552,-0.005053359,0.902254606,-0.623293709,-0.329786369,-0.000687736,-0.016322968,0.002507247,0.006410609,-0.002191039,-0.202667962
1625132074357317120,42,1625132074357317120,2.107297168,0.394032362,-0.066036268,-0.000289708,0.015183060,0.201126633,0.979447532,1.218708713,0.365344040,-0.126671476,-0.050333745,0.040480049,0.428103145,-0.048221100,-0.027958754,-0.031600198,0.004775743,-0.000476679,-0.003874388,-0.481760147,-0.282067064,-0.346060980,-0.000687918,-0.016322460,0.002507303,0.006644126,-0.002265994,-0.198276958
1625132074456895488,43,1625132074456895488,2.224758493,0.439402832,-0.092106836,-0.006065919,0.016280628,0.228868893,0.973302202,1.199752475,0.422780301,0.020291559,-0.102132228,0.111320134,0.894023178,-0.006224451,0.013980871,-0.034663049,0.001604301,0.003411111,0.021274311,-0.062285383,0.113335037,-0.427687301,-0.000687812,-0.016322494,0.002507011,0.006972827,-0.002462739,-0.193286160
1625132074556585216,44,1625132074556585216,2.304702567,0.461905942,-0.074216711,-0.009045564,0.023463878,0.266425651,0.963527372,1.138113636,0.442457228,0.125676682,0.034088462,0.177233371,0.381231510,-0.074979080,-0.040207622,0.018288464,0.012684717,0.010126197,-0.019335871,-0.739979094,-0.421334027,0.157057737,-0.000688111,-0.016321797,0.002507272,0.006847632,-0.002338718,-0.194833358
1625132074657197568,45,1625132074657197568,2.397268514,0.501593622,-0.063157001,-0.009836437,0.028994908,0.283752996,0.958408460,1.083408006,0.501505003,0.077969700,-0.015978967,0.088550106,0.595882294,-0.036407152,-0.012740537,-0.000001680,0.004361585,0.004649847,-0.004591167,-0.354817743,-0.160590030,0.022730787,-0.000688182,-0.016321476,0.002507330,0.006829647,-0.002311957,-0.194940580
1625132074757758464,46,1625132074757758464,2.502422166,0.564163825,-0.065573592,-0.012563088,0.031544517,0.304317727,0.951965248,1.062686821,0.575235647,-0.022956294,-0.020373182,-0.001464739,0.109322763,-0.004446968,0.018428568,-0.012797151,0.005983512,-0.005534986,-0.000853519,-0.036765745,0.161181939,-0.085615039,-0.000688101,-0.016321438,0.002507339,0.006858522,-0.002410181,-0.193965073
1625132074858729984,47,1625132074858729984,2.588322860,0.661050072,-0.078592385,-0.010262722,0.026267894,0.305558827,0.951755471,1.004370050,0.659482786,-0.103889378,0.059521650,-0.198538659,0.165115988,-0.033711715,0.073093316,-0.011992955,0.017493671,-0.023514691,0.005484472,-0.324485263,0.713257077,-0.098710388,-0.000687580,-0.016321153,0.002507250,0.006869175,-0.002541995,-0.192869883
1625132074959139840,48,1625132074959139840,2.705364500,0.651372295,-0.069525820,-0.000883481,0.018213461,0.315335253,0.948805126,1.008742621,0.597437575,-0.001010025,0.097338538,-0.214917100,0.174437051,0.039076233,-0.138903181,0.033626442,0.006333708,-0.012901793,-0.009023787,0.397434995,-1.406953911,0.288870809,-0.000689078,-0.016320711,0.002507392,0.006848538,-0.002108690,-0.195751784
1625132075060009472,49,1625132075060009472,2.859988285,0.727106892,-0.049251789,0.006867562,0.005081340,0.299968083,0.953910984,1.057425695,0.611779890,0.152197095,0.055393751,-0.385093094,-0.627707069,0.106210463,0.035514129,0.026178049,0.004156701,-0.029911706,-0.039475066,1.063433115,0.359961560,0.212561116,-0.000689336,-0.016321423,0.002507984,0.006809082,-0.001787408,-0.198223968
1625132075160093952,50,1625132075160093952,2.970415492,0.831929393,-0.030463949,0.006038676,-0.003403001,0.287914630,0.957630994,1.098807137,0.711516909,0.225871914,-0.137818586,-0.006258429,0.180961796,0.004430586,0.076805375,-0.000337614,-0.001068875,-0.002050374,-0.001298369,0.025156314,0.749641243,-0.028749904,-0.000688680,-0.016321788,0.002508000,0.006828047,-0.001829448,-0.198103865
1625132075259517184,51,1625132075259517184,3.034121139,0.882234324,-0.037525696,0.000789847,-0.003852809,0.293312459,0.956008542,1.100140486,0.697720103,0.136175221,-0.045406897,0.005060006,-0.179097583,-0.089009229,-0.041808614,-0.057774740,0.011353231,-0.002624498,-0.020064748,-0.916683985,-0.421728312,-0.538233378,-0.000688722,-0.016320773,0.002508274,0.007356548,-0.002710937,-0.192526221
1625132075359228928,52,1625132075359228928,3.125806807,0.925179297,-0.013173232,0.002301534,-0.006696544,0.287617007,0.957719331,1.103763795,0.654398060,0.006189663,0.006791061,-0.138883851,0.199071291,-0.035454457,-0.049221132,0.031852805,0.002337020,-0.000881729,0.005173419,-0.362974822,-0.489234272,0.385053680,-0.000688983,-0.016320206,0.002508198,0.006830729,-0.002032482,-0.196018875
1625132075458200832,53,1625132075458200832,3.215368316,0.969990758,-0.039755934,0.004998356,-0.014632771,0.308065817,0.951239376,1.108582257,0.633389959,-0.076206123,-0.009187906,-0.147805440,0.353800951,-0.037383210,-0.037867971,-0.044854501,0.000962153,-0.008532751,0.003614728,-0.391957255,-0.386453771,-0.440255385,-0.000689117,-0.016319587,0.002508145,0.007629721,-0.002859318,-0.191712690
1625132075557910784,54,1625132075557910784,3.279461304,1.016626582,-0.050429829,0.004052844,-0.020131695,0.314176786,0.949142369,1.033916925,0.627518154,0.000291854,-0.122904884,-0.110388027,0.105328021,-0.084989345,-0.034528470,-0.012326172,-0.005856840,-0.007736605,-0.001905982,-0.835526557,-0.354635850,-0.162001023,-0.000688894,-0.016318609,0.002508163,0.008010277,-0.003178792,-0.190047575
1625132075657303808,55,1625132075657303808,3.376900200,1.090054868,-0.048769241,-0.000887648,-0.026399333,0.339306296,0.940305017,1.007814803,0.693652507,0.144413752,-0.152865447,-0.070041137,0.581234908,-0.008110677,0.014963581,-0.011883893,-0.007891249,-0.003146976,0.006436991,-0.075708751,0.123692189,-0.173162830,-0.000688647,-0.016318575,0.002508064,0.008519487,-0.003548307,-0.188527147
1625132075757701376,56,1625132075757701376,3.531577134,1.173319117,-0.049754175,-0.007711961,-0.023426231,0.344560200,0.938440199,1.101028977,0.771274417,0.155627386,-0.093210638,0.179097583,-0.140614906,0.095208479,0.021691495,-0.035714148,-0.001464897,0.009114601,-0.003238699,0.942572805,0.194240197,-0.361101198,-0.000688996,-0.016319582,0.002508138,0.009796822,-0.004430952,-0.185455157
1625132075857848320,57,1625132075857848320,3.638278030,1.250579314,-0.042925819,-0.014182693,-0.014249143,0.358887399,0.933164320,1.133968094,0.812404084,0.039305568,-0.025699505,0.198671817,0.636229184,-0.008481767,-0.003545572,-0.009924820,-0.000412276,0.000877145,0.000681147,-0.103855730,-0.053520170,-0.045999186,-0.000688972,-0.016319482,0.002508125,0.009981457,-0.004563577,-0.184994705
1625132075958300672,58,1625132075958300672,3.731545432,1.320052862,-0.072581629,-0.014905624,-0.006382315,0.370608032,0.928647821,1.147813474,0.829328842,-0.128626066,0.081759045,0.109988553,-0.063516392,-0.041399513,-0.024716688,-0.054740227,0.003086509,0.000471786,-0.002796850,-0.426631217,-0.263772118,-0.493938454,-0.000688964,-0.016319025,0.002508159,0.012024746,-0.006122660,-0.180596523
1625132076058967296,59,1625132076058967296,3.809819685,1.381536019,-0.089654427,-0.010667397,-0.004832624,0.373403301,0.927595185,1.088368037,0.841413057,-0.152315441,0.101732754,-0.052730590,0.156993346,-0.064984310,-0.044567455,-0.002812031,0.001040480,-0.000384567,-0.001497728,-0.644462018,-0.463344916,-0.033547264,-0.000688944,-0.016318261,0.002508167,0.012177920,-0.006247271,-0.180171812
1625132076159397888,60,1625132076159397888,3.914800919,1.452215984,-0.106350542,-0.004735628,-0.002854233,0.376200313,0.926521857,1.070265820,0.848859355,-0.061606057,0.133557529,-0.037417413,-0.007590009,-0.005953437,-0.026639870,-0.011361919,0.001508996,-0.003595497,-0.005299645,-0.049987272,-0.277208015,-0.154848468,-0.000689140,-0.016318011,0.002508249,0.012846284,-0.006799460,-0.178846918
1625132076259526144,61,1625132076259526144,3.961093219,1.536700880,-0.102467452,-0.001066534,-0.004959051,0.377704677,0.925912225,0.994708281,0.907312388,0.115404953,-0.005326322,0.029294772,-0.024900556,-0.109098253,-0.008936322,0.002570436,-0.007635281,0.004480655,-0.021074430,-1.101437062,-0.119814084,-0.039429668,-0.000688422,-0.016317159,0.002508531,0.013023298,-0.006941708,-0.178475866
1625132076359846912,62,1625132076359846912,4.119232854,1.628305682,-0.097723517,-0.003138195,0.001572977,0.366358613,0.930467111,1.119872045,0.925425489,0.095218857,0.003462109,0.134090161,-0.226235535,0.103557916,0.001117021,-0.017275234,-0.005719159,0.008685167,-0.008905864,1.012248842,0.005608623,-0.151948136,-0.000688994,-0.016318026,0.002508704,0.013695096,-0.007480991,-0.177316635
1625132076459264512,63,1625132076459264512,4.185619151,1.726104484,-0.104770837,-0.006424811,0.011288395,0.372294861,0.928023615,1.121226964,0.951380429,-0.025457393,0.055260593,0.237687127,0.301736152,-0.090042538,0.005236977,-0.026079456,0.000115102,0.010965193,0.004553298,-0.928304626,0.041667625,-0.210688744,-0.000688362,-0.016317533,0.002508601,0.014640032,-0.008249462,-0.175584376
1625132076558706432,64,1625132076558706432,4.303283660,1.798960890,-0.111120699,-0.007663983,0.021599849,0.376777850,0.926020065,1.158268949,0.936715847,-0.167342741,0.019574234,0.101599596,-0.071372717,0.006905354,-0.042688255,0.004120213,-0.001498453,0.002923917,-0.003836824,0.061736468,-0.432250611,0.103779059,-0.000688683,-0.016317332,0.002508674,0.014233019,-0.007900233,-0.176281504
1625132076658090752,65,1625132076658090752,4.377025076,1.883944260,-0.133194955,-0.009527194,0.021550186,0.383012615,0.923442558,1.097826329,0.935440447,-0.201184000,-0.035286884,0.030626353,0.365518860,-0.075204842,-0.018975150,-0.002593565,-0.008688574,0.002853099,0.012934753,-0.752466404,-0.198046577,-0.032793080,-0.000688221,-0.016316720,0.002508457,0.014373937,-0.008028710,-0.175970878
1625132076757631488,66,1625132076757631488,4.451780066,1.977157743,-0.142949287,-0.014482088,0.021940221,0.393119377,0.919111555,1.009782614,0.917941545,-0.080652840,-0.076166407,-0.076565881,0.161387562,-0.061314427,-0.002793584,0.012981317,-0.005799494,-0.002336064,0.009384127,-0.590143816,-0.015044832,0.075613301,-0.000687765,-0.016316267,0.002508298,0.014119102,-0.007766492,-0.176536843
1625132076857130752,67,1625132076857130752,4.528312643,2.056981822,-0.141004482,-0.016845779,0.020645653,0.414456479,0.909678956,0.985794491,0.950530241,0.154537724,0.007989483,0.100534331,0.366450966,-0.045209107,-0.027225378,-0.003413691,0.000615080,0.004212084,0.000847899,-0.456059570,-0.293930116,-0.123857172,-0.000687659,-0.016315801,0.002508278,0.014499359,-0.008207195,-0.175614430
1625132076957675520,68,1625132076957675520,4.661975051,2.139691555,-0.121765371,-0.018293336,0.028824816,0.415192607,0.909092725,1.013188001,0.969095790,0.151801509,0.016777915,0.119575933,0.028628982,0.063734012,-0.025078561,0.001729178,0.001963586,0.004414418,-0.000161205,0.652135425,-0.262284765,0.041922037,-0.000688319,-0.016316119,0.002508300,0.014391690,-0.008060326,-0.175886950
1625132077057807872,69,1625132077057807872,4.695528871,2.213379499,-0.132749463,-0.018319374,0.031131483,0.426709343,0.903667178,0.892822385,0.951351456,-0.055505023,0.061252705,0.009454222,0.259125574,-0.120812629,-0.046000058,-0.038663810,0.006087679,-0.002406133,-0.001339752,-1.194476576,-0.464184551,-0.306613673,-0.000687870,-0.016314991,0.002508293,0.015091847,-0.009207088,-0.173560634
1625132077158416896,70,1625132077158416896,4.797469061,2.287197827,-0.147676874,-0.010643704,0.032921848,0.424998751,0.904532434,0.883416768,0.937840557,-0.166818077,0.175102842,-0.075900091,-0.090813793,0.024499470,-0.036338886,-0.004959332,0.012889878,-0.004433238,-0.017685974,0.259621730,-0.374048282,-0.021534508,-0.000688453,-0.016314844,0.002508577,0.015145219,-0.009301980,-0.173336987
1625132077258886656,71,1625132077258886656,4.869173183,2.376946263,-0.158460885,-0.001631340,0.036090123,0.422060091,0.905847736,0.830952440,0.979754108,-0.105949804,0.180162848,0.015712650,0.020106866,-0.028925426,-0.009629560,0.008960937,0.006676115,0.001895635,-0.014995319,-0.275048207,-0.122301412,0.059570092,-0.000688419,-0.016314610,0.002508806,0.015080056,-0.009110303,-0.173730138
1625132077359246080,72,1625132077359246080,4.948714271,2.471693995,-0.160510695,0.001312126,0.040574384,0.415839785,0.908531381,0.824204527,1.043964346,0.032156064,0.027830033,0.100401173,-0.324106705,-0.003946059,-0.013103997,0.005972333,-0.008325072,0.007360869,-0.038981349,-0.046202970,-0.161594403,0.001764433,-0.000688373,-0.016314553,0.002509422,0.015074060,-0.009099208,-0.173756366
1625132077459610624,73,1625132077459610624,5.039333185,2.582447385,-0.145614679,-0.001447745,0.045453009,0.400271802,0.915267400,0.834528051,1.049064399,0.096931707,-0.092145374,0.046605319,-0.208392355,0.014535313,0.009689416,0.015744379,-0.008340578,0.000662225,-0.018237923,0.148781015,0.103658675,0.146987760,-0.000688311,-0.016314724,0.002509716,0.015026046,-0.008710744,-0.174744234
1625132077559276288,74,1625132077559276288,5.107757074,2.675518332,-0.140817037,-0.003329872,0.045947417,0.396519274,0.916869790,0.859233176,1.005549339,0.039619289,0.027696875,0.013315805,0.026365295,-0.029129326,-0.018616036,-0.010391725,-0.001640643,-0.002410247,-0.001205941,-0.314885306,-0.178442179,-0.065650197,-0.000688173,-0.016314367,0.002509731,0.015025366,-0.008877885,-0.174274886
1625132077658510848,75,1625132077658510848,5.176452852,2.758889731,-0.146148496,-0.001277726,0.046693472,0.404420019,0.913379732,0.884990600,0.990567511,-0.119304517,0.013848438,-0.014381070,0.230496592,-0.034334077,-0.031447456,-0.005494355,-0.004260983,-0.003876494,0.006815590,-0.363477062,-0.322452326,0.010564224,-0.000688055,-0.016313865,0.002509621,0.015057314,-0.008886330,-0.174262426
1625132077758003968,76,1625132077758003968,5.242484590,2.855115521,-0.157290600,-0.001221374,0.043946512,0.411486731,0.910354811,0.886967121,0.984511008,-0.147573555,-0.019840550,-0.049135322,0.222507109,-0.043864998,-0.005091859,0.009901162,-0.002315492,-0.000649881,0.004533847,-0.450601117,-0.052554275,0.094859796,-0.000687734,-0.016313546,0.002509544,0.015179805,-0.008737073,-0.174840858
1625132077857565696,77,1625132077857565696,5.335585862,2.947616501,-0.167392051,-0.005153357,0.043092422,0.422532689,0.905308021,0.892242166,0.964382887,-0.039598378,-0.134489635,-0.044341632,0.235689756,0.007960753,-0.012327989,0.002679581,-0.010682449,-0.002197741,0.020683779,0.086020781,-0.112571195,-0.027336589,-0.000687731,-0.016313484,0.002509216,0.015132160,-0.008768212,-0.174691268
1625132077957036288,78,1625132077957036288,5.416117069,3.028431263,-0.163569387,-0.012921275,0.043438286,0.441774192,0.895980870,0.892746960,0.969797546,0.166490000,-0.095873799,0.147938599,0.374040975,-0.017814905,-0.031953199,-0.006654836,-0.001686408,0.002930005,0.001194903,-0.178948709,-0.329331554,-0.141893485,-0.000687775,-0.016313164,0.002509200,0.014848726,-0.008939494,-0.173842938
1625132078057316096,79,1625132078057316096,5.500447109,3.114404230,-0.141568857,-0.018582508,0.046395343,0.445262093,0.894004380,0.841570571,0.953036481,0.175124807,-0.081625887,0.014514228,0.021038973,-0.006323019,-0.020544507,0.006777971,-0.000950869,-0.000727340,-0.001541193,-0.038810982,-0.202562846,0.079808365,-0.000687855,-0.016312976,0.002509226,0.015054153,-0.008860658,-0.174281850
1625132078157616640,80,1625132078157616640,5.568452388,3.196126152,-0.133439106,-0.022317532,0.041863876,0.447754822,0.892896950,0.792198459,0.947315151,0.047268418,-0.098936434,-0.081759045,0.055526909,-0.024681876,-0.025332481,-0.009114210,-0.003537270,-0.009012254,-0.008492396,-0.237149537,-0.259448105,-0.038128922,-0.000687785,-0.016312525,0.002509362,0.014950388,-0.008922764,-0.174007231
1625132078257917184,81,1625132078257917184,5.642826317,3.279059788,-0.145253127,-0.020571436,0.037302287,0.445299227,0.894367907,0.785206781,0.954983836,-0.086935131,0.043542684,-0.133158055,-0.068043766,-0.007335376,-0.021344845,-0.021958107,0.000630873,-0.014000746,-0.019239361,-0.072112636,-0.225689885,-0.175368847,-0.000687871,-0.016312138,0.002509673,0.014368633,-0.009144790,-0.172965918
1625132078358337536,82,1625132078358337536,5.741742318,3.363866976,-0.160108459,-0.014348122,0.033881807,0.435981918,0.899202937,0.806476635,0.982531351,-0.078189867,0.050200587,-0.091213267,-0.359260431,0.039612277,-0.020661749,-0.011316750,-0.000437450,-0.014042552,-0.035856960,0.398528694,-0.225507414,-0.130927020,-0.000688294,-0.016312012,0.002510257,0.013898353,-0.009306746,-0.172217640
1625132078458616832,83,1625132078458616832,5.796089927,3.469188513,-0.156405374,-0.010051461,0.030953994,0.424204464,0.904981431,0.777122436,1.021824603,0.062199368,0.062717444,-0.064315340,-0.060187441,-0.046556980,0.011343944,0.015124113,-0.003519421,-0.005562435,-0.019341182,-0.471738500,0.096240763,0.085757102,-0.000687834,-0.016311742,0.002510562,0.014222670,-0.009197466,-0.172726195
1625132078558801152,84,1625132078558801152,5.890971159,3.557165098,-0.139535208,-0.008521929,0.033797834,0.413650431,0.909768324,0.829278877,1.026456019,0.166751134,0.026897927,0.058056912,-0.460860027,0.031044425,-0.030088856,0.008733985,-0.013007730,0.000817235,-0.041532966,0.295983110,-0.307199135,0.061607605,-0.000688070,-0.016311677,0.002511242,0.014461978,-0.009131335,-0.173046984
1625132078659010048,85,1625132078659010048,5.973189597,3.669681443,-0.132758975,-0.012255665,0.038247084,0.396527387,0.917143931,0.866005109,1.044507844,0.126149842,-0.044208474,0.121706462,-0.078962726,-0.003159599,0.016592036,-0.022142826,-0.003330235,-0.000058673,-0.002787805,-0.051505138,0.165635003,-0.196643595,-0.000687893,-0.016311777,0.002511284,0.013675156,-0.009337442,-0.172002475
1625132078758510592,86,1625132078758510592,6.039756315,3.750644566,-0.139521431,-0.012074166,0.041346933,0.398235746,0.916271213,0.882725815,0.981671055,-0.040757227,0.079229042,-0.005858954,-0.027563717,-0.038653612,-0.039532887,-0.029261286,-0.002354725,-0.005839786,-0.006836992,-0.406533163,-0.383738106,-0.223284190,-0.000687780,-0.016311188,0.002511400,0.012728223,-0.009586724,-0.170768598
1625132078858203136,87,1625132078858203136,6.103706140,3.829175336,-0.145628157,-0.006599185,0.039500903,0.395763413,0.917478855,0.866785028,0.925052336,-0.138174444,0.070440611,-0.144476489,0.035952675,-0.045554703,-0.031990821,0.009075641,0.000447149,-0.008912367,0.002404220,-0.459717783,-0.308330635,0.119959619,-0.000687623,-0.016310586,0.002511367,0.013254003,-0.009489206,-0.171350599
1625132078957844992,88,1625132078957844992,6.173896482,3.892275401,-0.156529200,-0.000381037,0.034817404,0.400413910,0.915672597,0.865657444,0.864766966,-0.062455237,0.041678471,-0.143011751,-0.003195793,-0.031802492,-0.050793947,0.001384144,0.000835107,-0.009605214,0.003304986,-0.323324881,-0.498958850,-0.026052104,-0.000687684,-0.016309907,0.002511326,0.013137076,-0.009519633,-0.171195438
1625132079057427200,89,1625132079057427200,6.230419109,3.936540573,-0.150079666,0.007285333,0.025419411,0.410697840,0.911387986,0.837759623,0.797823858,0.105195531,0.085487471,-0.229031854,0.588159127,-0.053846495,-0.071954323,0.012920569,-0.000425829,-0.010013915,0.007905207,-0.545732953,-0.725625593,0.057992504,-0.000687698,-0.016308908,0.002511216,0.013395249,-0.009498367,-0.171463524
1625132079157144832,90,1625132079157144832,6.327748136,4.030439331,-0.142401289,0.011795711,0.026985726,0.426943711,0.903798484,0.892966117,0.881009024,0.169509668,0.084821681,0.106393286,-0.097471696,0.020165448,0.019907816,-0.018389627,-0.000189207,0.007152241,-0.012073734,0.187621848,0.170021242,-0.196730336,-0.000687736,-0.016309246,0.002511409,0.012575536,-0.009552334,-0.170504516
1625132079257858304,91,1625132079257858304,6.416295792,4.160434428,-0.143310888,0.010075511,0.034399415,0.418023684,0.907728684,0.897480991,1.001644401,0.057395854,-0.043675842,0.097072222,0.063649550,-0.002585870,0.070793975,-0.031599185,-0.006194432,0.000859207,0.000987302,-0.024442712,0.677749586,-0.268628537,-0.000687246,-0.016309757,0.002511378,0.011490740,-0.009536500,-0.169206133
1625132079358038016,92,1625132079358038016,6.488631547,4.256864425,-0.164720604,0.006340927,0.034002936,0.424961118,0.904550519,0.876192522,1.038083566,-0.125062040,-0.032091091,-0.034487936,-0.044874264,-0.029295615,-0.011131529,-0.042606950,-0.006856556,-0.007406933,-0.013037950,-0.297613496,-0.126232916,-0.362968212,-0.000687013,-0.016309408,0.002511588,0.010034044,-0.009430535,-0.167410725
1625132079458754560,93,1625132079458754560,6.576114443,4.358349639,-0.190222641,0.008904439,0.032696811,0.413672902,0.909794680,0.871673075,1.053064851,-0.160098693,0.056858489,-0.069774821,-0.252733987,0.000297586,-0.004890388,-0.022568275,-0.001444379,-0.009915983,-0.014123366,0.008104524,-0.056235327,-0.228076840,-0.000687035,-0.016309248,0.002511820,0.009145919,-0.009303633,-0.166314778
1625132079559082240,94,1625132079559082240,6.638721009,4.454330278,-0.193015556,0.015865891,0.028844746,0.407134362,0.912774816,0.831596169,1.028823874,-0.023429658,0.136886480,-0.169776519,-0.094409061,-0.041905015,-0.013903680,0.019750415,-0.000023130,-0.012716599,-0.013253774,-0.419129107,-0.136133623,0.133334963,-0.000686803,-0.016308738,0.002512032,0.009644347,-0.009415004,-0.166951701
1625132079659435520,95,1625132079659435520,6.726204902,4.545365291,-0.177870910,0.021867929,0.026631429,0.396932025,0.917200920,0.866547738,1.028345701,0.173123014,0.006125271,-0.038349520,-0.344479887,0.007887130,-0.023580514,0.013772324,-0.010107217,-0.003753442,-0.027072756,0.063298987,-0.241675783,0.079313052,-0.000686865,-0.016308536,0.002512479,0.009927512,-0.009509453,-0.167332599
1625132079759581952,96,1625132079759581952,6.798586189,4.643531226,-0.171901898,0.021795160,0.026294297,0.383360638,0.922967065,0.909032117,1.012251048,0.127394916,0.007723167,0.020905815,-0.092678006,-0.030096534,-0.007787876,-0.026617950,-0.001749710,0.000533069,-0.000041655,-0.330740207,-0.074227552,-0.236354776,-0.000686639,-0.016308296,0.002512479,0.009155370,-0.009140603,-0.166219177
1625132079858978304,97,1625132079858978304,6.877511481,4.731525601,-0.173008028,0.024215551,0.029671922,0.385848341,0.921766913,0.973114038,0.988971158,-0.056153027,0.113051188,-0.000665790,0.066712185,-0.028983598,-0.023032556,-0.015548150,-0.001059727,-0.000659661,0.001495585,-0.322329059,-0.230032897,-0.074861114,-0.000686525,-0.016307933,0.002512461,0.008906513,-0.008999856,-0.165829938
1625132079958554112,98,1625132079958554112,6.968771529,4.814415953,-0.182389123,0.028591464,0.029755479,0.383802087,0.922492871,1.015011566,0.979433501,-0.188865657,0.014514228,-0.076699039,-0.039814258,-0.015332779,-0.028857564,0.008155769,-0.001526346,-0.001354031,0.000922391,-0.173386500,-0.298064032,0.127749298,-0.000686550,-0.016307597,0.002512455,0.009237876,-0.009301771,-0.166373196
1625132080057950976,99,1625132080057950976,7.060980699,4.908365752,-0.200472555,0.027020986,0.026515343,0.388503057,0.920669418,1.037643917,0.991652117,-0.154402026,-0.113317504,-0.001997371,0.139949115,-0.018654296,-0.009399318,0.001772098,-0.011072263,-0.001013099,0.002414121,-0.201124980,-0.102701448,-0.007830815,-0.000686323,-0.016307388,0.002512419,0.009215175,-0.009278624,-0.166335734
1625132080157588224,100,1625132080157588224,7.145304513,5.010682070,-0.214799334,0.018621933,0.027037828,0.391390237,0.919638985,1.050106567,1.027881697,0.041862810,-0.148204915,0.201867611,0.098670118,-0.037113346,0.002509290,-0.013007897,-0.019213789,0.009320741,0.007419244,-0.388927712,0.003006161,-0.230239699,-0.000685786,-0.016307274,0.002512296,0.008714456,-0.008569028,-0.165340174
1625132080257158144,101,1625132080257158144,7.242878626,5.105270544,-0.197510791,0.007316364,0.031816264,0.398655774,0.916519378,1.027183078,1.046882567,0.168059514,-0.187886015,0.143411225,0.110654343,-0.011582032,-0.019992207,0.013018854,-0.016745327,0.008038980,0.003203398,-0.109400166,-0.212949010,0.094076259,-0.000685615,-0.016307141,0.002512250,0.008910571,-0.008871091,-0.165753225
1625132080357146112,102,1625132080357146112,7.323321467,5.210305025,-0.182761778,-0.004503366,0.034382158,0.399312888,0.916158722,0.969766209,1.060490446,0.076375045,-0.174836526,0.106925918,-0.103863283,-0.036190858,-0.002672716,-0.000485132,-0.013517124,0.000755079,-0.000485517,-0.351873008,-0.029545956,0.049428591,-0.000685198,-0.016306907,0.002512256,0.008992715,-0.009020753,-0.165931472
1625132080457207296,103,1625132080457207296,7.395796788,5.295132112,-0.194289262,-0.010844861,0.032208990,0.400209800,0.915793146,0.933854384,1.030516606,-0.091946230,-0.064981131,-0.042610577,0.141280696,-0.042498261,-0.038351116,-0.024263319,-0.002408723,-0.005346418,0.004518514,-0.427918399,-0.382066280,-0.188059123,-0.000685089,-0.016306312,0.002512185,0.008547709,-0.008440931,-0.165074583
1625132080557195520,104,1625132080557195520,7.492288143,5.358269402,-0.201737108,-0.006038788,0.029130857,0.407558924,0.912694171,0.951277499,0.973362262,-0.125606352,0.111053817,-0.133158055,0.074568511,0.003941288,-0.071423488,0.012046979,0.003062422,-0.005364859,0.000231597,0.036056170,-0.713015868,0.121847664,-0.000685577,-0.016305749,0.002512194,0.008806146,-0.008775199,-0.165565611
1625132080657912832,105,1625132080657912832,7.566792754,5.460816166,-0.207861555,0.000999302,0.028447847,0.396293477,0.917682517,0.917123927,0.978636569,0.015599595,0.112518556,-0.067777450,-0.237820285,-0.038256540,0.010083415,0.003729947,-0.002081032,-0.004463528,-0.012343433,-0.373301855,0.101518506,-0.032439802,-0.000685216,-0.016305540,0.002512393,0.008735806,-0.008687501,-0.165437045
1625132080758318336,106,1625132080758318336,7.601672993,5.581067535,-0.187177057,0.003048560,0.024285773,0.389651506,0.920637068,0.851297586,1.026111668,0.209069733,-0.019574234,-0.084155890,-0.189883386,-0.102053198,0.040279013,0.021974405,-0.002345115,-0.004623784,-0.007144013,-1.029550458,0.393858879,0.150340602,-0.000684173,-0.016305134,0.002512499,0.009041500,-0.009067320,-0.166045689
1625132080858928128,107,1625132080858928128,7.674577575,5.686015943,-0.164063623,-0.000127318,0.022033646,0.370975197,0.928381336,0.875856161,1.033889279,0.241610734,-0.102398544,0.044208474,-0.260989787,-0.024203031,0.003254140,-0.002503985,-0.006886115,0.002236875,-0.002183810,-0.262669766,0.029558872,-0.025790594,-0.000683870,-0.016305019,0.002512534,0.008983393,-0.008997662,-0.165928199
1625132080958533376,108,1625132080958533376,7.772272704,5.772910235,-0.165110415,-0.005230094,0.025860158,0.377062077,0.925812124,0.967727559,0.999445287,0.082931727,-0.006258429,0.072837456,0.239950814,0.012267871,-0.030455598,-0.047951566,-0.002437558,0.001529054,-0.000500921,0.086855129,-0.296038969,-0.405748291,-0.000684090,-0.016304886,0.002512550,0.008210348,-0.008047310,-0.164246464
1625132081058681856,109,1625132081058681856,7.873854928,5.839581130,-0.177872902,-0.003252059,0.027686201,0.371075745,0.928184082,1.042805687,0.923233958,-0.123628913,0.053263222,-0.031691617,-0.291216665,0.002140231,-0.057888009,-0.026016687,-0.001537333,-0.000990197,-0.000798291,-0.005358713,-0.565825397,-0.185544631,-0.000684412,-0.016304474,0.002512583,0.007844863,-0.007636795,-0.163457336
1625132081158290176,110,1625132081158290176,7.970977587,5.905392352,-0.195803677,-0.000315971,0.025243898,0.378496285,0.925258455,1.074913621,0.882967708,-0.155397818,0.031824775,-0.067910608,0.473376884,-0.015827299,-0.047269145,-0.003835858,-0.003651440,-0.000454154,0.003616661,-0.177885023,-0.473902975,-0.045586499,-0.000684528,-0.016304027,0.002512543,0.007749280,-0.007536690,-0.163255208
1625132081258280192,111,1625132081258280192,8.083044620,5.994516465,-0.200743347,-0.002737858,0.022098854,0.379720057,0.924833403,1.089017399,0.873723230,-0.012104310,-0.133957003,-0.092278532,-0.235689756,0.008533224,0.001214239,0.012733415,-0.011779448,-0.002432701,-0.000977361,0.084643095,0.017147709,0.061058675,-0.000684426,-0.016304053,0.002512558,0.007865038,-0.007659289,-0.163519908
1625132081357975808,112,1625132081357975808,8.177411487,6.061879986,-0.204775916,-0.008534625,0.020635610,0.389003112,0.920965749,1.098132781,0.857420704,0.156392962,-0.064315340,0.088816422,0.354466741,-0.028806145,-0.040418854,-0.030070349,-0.009901491,0.005956969,0.003904579,-0.300160070,-0.403560967,-0.359756799,-0.000684343,-0.016303649,0.002512510,0.007288462,-0.007059104,-0.162096537
1625132081458005504,113,1625132081458005504,8.289302596,6.147813755,-0.188955941,-0.010509105,0.025527309,0.389323077,0.920687492,1.137713763,0.828060983,0.138804715,0.065913237,0.079095884,-0.138750693,0.000776415,0.003183303,-0.001703308,-0.000522206,0.000137140,-0.000352016,-0.008099470,0.043125026,0.002727708,-0.000684303,-0.016303677,0.002512515,0.007290088,-0.007060879,-0.162101492
1625132081557942272,114,1625132081557942272,8.385637069,6.218244859,-0.190165541,-0.008469602,0.028699313,0.391999853,0.919478510,1.146840824,0.804474440,-0.029838366,0.096939064,-0.001731055,0.163917565,-0.034403497,-0.021656973,-0.019895891,0.001757348,-0.001708312,-0.000485651,-0.358917414,-0.212779219,-0.126790397,-0.000684208,-0.016303286,0.002512534,0.007067508,-0.006893852,-0.161564286
1625132081657934336,115,1625132081657934336,8.488599988,6.284926067,-0.200159145,0.001153125,0.027295216,0.390793012,0.920073075,1.141173741,0.783711216,-0.178113295,0.198006027,-0.171773890,-0.113450662,-0.022215827,-0.021668713,0.003149861,0.001663648,-0.009444855,-0.003504004,-0.223741174,-0.222108554,0.080462041,-0.000684209,-0.016302873,0.002512600,0.007175306,-0.006962636,-0.161838616
1625132081758147072,116,1625132081758147072,8.555004132,6.381981079,-0.219769923,0.011491414,0.022516125,0.382432499,0.923637567,1.082311046,0.841400275,-0.123645687,0.160721772,-0.120508039,-0.195875498,-0.086252301,0.032848644,-0.004916220,0.000366339,-0.006739855,-0.005441565,-0.866478763,0.312967495,-0.090967542,-0.000683415,-0.016302480,0.002512683,0.007024387,-0.006849032,-0.161454645
1625132081858078464,117,1625132081858078464,8.613969921,6.493350254,-0.213136070,0.017338770,0.020008500,0.378875474,0.925068864,1.030397918,0.941176139,0.096048197,-0.003861584,-0.009720538,-0.193079179,-0.089577836,0.046776648,0.022341586,-0.001953729,0.002322249,-0.011410910,-0.905895080,0.431603162,0.132298026,-0.000682457,-0.016302246,0.002512854,0.007175929,-0.006999875,-0.161929461
1625132081958638080,118,1625132081958638080,8.696606832,6.627514775,-0.202535493,0.012323463,0.023636782,0.352918754,0.935274178,1.067768912,1.017486709,0.170112847,-0.070307453,0.134489635,-0.546347498,-0.042652597,0.068397018,-0.012403006,-0.005150837,0.008233136,-0.007134740,-0.454550556,0.678515221,-0.136291994,-0.000681624,-0.016302555,0.002512947,0.007034068,-0.006808971,-0.161403763
1625132082058184960,119,1625132082058184960,8.816705529,6.710084522,-0.200095888,0.007697351,0.034118236,0.350192777,0.936024421,1.174280090,0.969967880,0.070233861,0.057124805,0.209857094,0.155129133,0.015518642,-0.035356995,-0.028732197,-0.000494668,0.006153980,-0.003374894,0.118317276,-0.339224645,-0.236010870,-0.000681922,-0.016302478,0.002513017,0.006804813,-0.006465371,-0.160520023
1625132082157915392,120,1625132082157915392,8.945936167,6.766550553,-0.208231528,0.012846878,0.040462802,0.344057287,0.937988434,1.235699905,0.868108854,-0.110573907,0.142079644,-0.004127900,-0.298806674,0.017271099,-0.069236792,-0.015341984,-0.001311475,-0.002113993,-0.004483687,0.154403823,-0.674014266,-0.085506032,-0.000682439,-0.016302084,0.002513120,0.006704372,-0.006324303,-0.160189940
1625132082257542400,121,1625132082257542400,9.047961220,6.825417672,-0.225497241,0.020382864,0.039112785,0.343280275,0.938196878,1.229396271,0.815155949,-0.155188309,0.096140115,-0.092944322,0.265250845,-0.041384517,-0.047752254,-0.005163528,0.000532323,-0.002646813,0.003655249,-0.423344938,-0.475322661,-0.050546743,-0.000682461,-0.016301460,0.002513082,0.006628880,-0.006218001,-0.159973915
1625132082357167616,122,1625132082357167616,9.147837887,6.912051394,-0.237078933,0.022235127,0.036352023,0.350505218,0.935590841,1.216724140,0.823257294,-0.018596094,0.002263687,-0.053662696,-0.046339003,-0.043095540,0.008162152,-0.000045888,-0.006681874,0.006251827,-0.001551778,-0.440254144,0.080893476,-0.074864337,-0.000682017,-0.016301309,0.002513109,0.006535664,-0.006055948,-0.159697245
1625132082457274880,123,1625132082457274880,9.272261321,6.998536139,-0.227234452,0.018071502,0.045140874,0.347107727,0.936563905,1.244974343,0.854839417,0.195232197,-0.018908444,0.143144909,0.045939529,-0.002256479,0.001652540,-0.002785994,-0.000384029,0.000488855,0.000413786,-0.015634846,0.017752482,-0.092833165,-0.000681991,-0.016301319,0.002513101,0.006426197,-0.005840768,-0.159385541
1625132082557174016,124,1625132082557174016,9.379327924,7.080571324,-0.202967003,0.014427298,0.047726027,0.355217973,0.933452876,1.209234322,0.866805499,0.213495888,-0.048469532,0.071239559,0.157259662,-0.030532524,-0.007976842,0.005561580,-0.001665847,0.000584909,-0.000148920,-0.300151609,-0.085892557,0.060334574,-0.000681817,-0.016301062,0.002513107,0.006503444,-0.005988865,-0.159573438
1625132082657723392,125,1625132082657723392,9.444078246,7.175725685,-0.195206873,0.011517039,0.047604161,0.350387778,0.935323263,1.113171921,0.882048455,0.050679455,-0.021438447,-0.043542684,-0.189617070,-0.100386163,0.014920194,-0.017006576,-0.006051707,-0.004685003,-0.000627677,-0.991259640,0.149930845,-0.101913306,-0.000680969,-0.016300448,0.002513115,0.006295539,-0.005658997,-0.159131743
1625132082758128128,126,1625132082758128128,9.534471448,7.255182496,-0.202656709,0.014156128,0.041365002,0.348482352,0.936295141,1.072638369,0.875935772,-0.078514262,0.036618465,-0.193079179,0.048869006,-0.036147044,-0.015454292,-0.012509677,-0.001839723,-0.004246522,0.000005124,-0.357518781,-0.158502033,-0.085925688,-0.000680812,-0.016300055,0.002513117,0.006119609,-0.005384815,-0.158801595
1625132082858677504,127,1625132082858677504,9.609895146,7.338509594,-0.229128299,0.018849380,0.034795686,0.340212023,0.939515695,1.040272001,0.885299994,-0.057941328,0.052730590,-0.086419577,-0.397876267,-0.057283506,-0.008679564,-0.043300690,-0.003287128,-0.009362075,-0.010929907,-0.578974966,-0.090806996,-0.462594359,-0.000680449,-0.016299499,0.002513297,0.005227464,-0.003916461,-0.157206175
1625132082958856192,128,1625132082958856192,9.713139498,7.425875692,-0.227386560,0.025908984,0.029259510,0.334540296,0.941570707,1.074759970,0.887153929,0.140931428,0.104395915,-0.094941693,0.217180787,0.000000000,0.000000000,0.000000000,0.000000000,0.000000000,0.000000000,-0.030420590,-0.009589170,-0.093617710,-0.000680437,-0.016299474,0.002513297,0.005068297,-0.003616717,-0.156916125
1625132083058917632,129,1625132083058917632,9.813853068,7.538666742,-0.216404156,0.028841770,0.031642399,0.324613642,0.944877185,1.169772959,0.905577215,0.231751943,0.076965356,0.087618000,-0.646881829,-0.020110225,0.043712278,-0.023124921,-0.003263902,0.007968873,-0.012937772,-0.250090600,0.443788270,-0.255392194,-0.000679918,-0.016299713,0.002513499,0.004645686,-0.002696861,-0.156061994
1625132083158897920,130,1625132083158897920,9.922161625,7.614103776,-0.213250669,0.030954586,0.038909558,0.307398742,0.950280945,1.236730333,0.861118446,0.117874915,0.096406431,0.134489635,0.054328486,-0.024550025,-0.025723587,-0.041941264,0.001797434,0.008338140,-0.001353522,-0.277258746,-0.247567154,-0.360917133,-0.000679933,-0.016299477,0.002513533,0.004063875,-0.001273077,-0.154846424
1625132083258268160,131,1625132083258268160,10.046384481,7.680690631,-0.218856841,0.035809431,0.042481340,0.309183861,0.949377881,1.266314117,0.804126812,-0.081215412,0.105461179,-0.040080574,-0.188951279,-0.001973084,-0.032384970,-0.018099776,-0.001864806,-0.000292236,-0.001847518,-0.030665282,-0.313093873,-0.108403854,-0.000680104,-0.016299253,0.002513575,0.003880873,-0.000797155,-0.154473267
1625132083358057984,132,1625132083358057984,10.158124839,7.754309951,-0.229035216,0.040752617,0.037698543,0.300451527,0.952180090,1.244516492,0.791587126,-0.134457336,0.021438447,-0.113051188,0.018242653,-0.026643705,-0.010907252,0.007458935,-0.002023591,-0.001044018,-0.000236563,-0.265899465,-0.111163430,0.076600746,-0.000679983,-0.016298986,0.002513586,0.003994112,-0.001142870,-0.154700684
1625132083457490432,133,1625132083457490432,10.264865540,7.822526982,-0.243952691,0.038961332,0.032335402,0.306207577,0.950617355,1.210022489,0.767938386,-0.004131899,-0.077098514,-0.073503246,0.226768167,-0.029186162,-0.021220449,-0.012002905,-0.014541063,0.001532729,0.010096732,-0.291123000,-0.206713315,-0.195220015,-0.000679759,-0.016298665,0.002513429,0.003704744,-0.000146223,-0.154078471
1625132083557001728,134,1625132083557001728,10.385410411,7.901980536,-0.230818001,0.034118877,0.035544904,0.317305881,0.947042470,1.206972245,0.763056031,0.179853831,-0.055526909,0.039547942,0.069508504,-0.003223948,0.003361728,0.007729828,-0.000713937,0.000439553,-0.000084741,-0.022076275,0.044324957,0.017572579,-0.000679703,-0.016298683,0.002513430,0.003734656,-0.000252310,-0.154147103
1625132083657357312,135,1625132083657357312,10.462352183,8.000293703,-0.204096645,0.029931554,0.034790370,0.310343063,0.949516148,1.129368492,0.798928760,0.174135667,-0.074967985,-0.022636869,-0.149802811,-0.077004013,0.039053772,0.015920862,-0.010506742,-0.001024063,-0.005300510,-0.759553685,0.388336241,0.180607857,-0.000678801,-0.016298364,0.002513521,0.003944264,-0.001228068,-0.154653402
1625132083757646336,136,1625132083757646336,10.542168101,8.084646369,-0.199068676,0.026610841,0.029314895,0.306045693,0.951193216,1.071824553,0.823576956,0.007128169,-0.095208009,-0.135288583,-0.119176459,-0.057543937,0.005956804,-0.012810875,-0.008240340,-0.007064110,-0.005437884,-0.569650618,0.054879631,-0.059010536,-0.000678305,-0.016297902,0.002513615,0.003849145,-0.000836324,-0.154416763
1625132083858098432,137,1625132083858098432,10.629656136,8.146454798,-0.219290747,0.027646906,0.019758893,0.298290189,0.953870116,1.047386273,0.797279439,-0.082244294,-0.002263687,-0.178298635,-0.190416018,-0.033884804,-0.037573066,-0.032941282,-0.007924751,-0.006310364,-0.013062612,-0.343456172,-0.375762735,-0.323770847,-0.000678262,-0.016297349,0.002513835,0.003506217,0.001083811,-0.153401446
1625132083958687232,138,1625132083958687232,10.686459149,8.268107143,-0.226802202,0.030267617,0.013220173,0.283718358,0.958338662,1.000460673,0.828729423,0.040060397,0.117978036,-0.156993346,-0.274971383,-0.087891012,0.078930069,-0.010126729,-0.000050520,-0.000357952,-0.014444834,-0.886625306,0.801980798,-0.160673922,-0.000677138,-0.016297200,0.002514077,0.003377132,0.002067566,-0.152871833
1625132084059324672,139,1625132084059324672,10.783844316,8.372885404,-0.213250690,0.034928320,0.012003766,0.258369608,0.965339871,1.052485385,0.824417676,0.211022136,0.068975872,0.030626353,-0.673247124,-0.009704548,0.039882169,0.001508171,-0.006503714,0.013989215,-0.024067011,-0.121990572,0.416200816,-0.046885998,-0.000676662,-0.016297546,0.002514472,0.003366049,0.002339172,-0.152736030
1625132084159422976,140,1625132084159422976,10.908862642,8.431077641,-0.198283709,0.032016841,0.016727190,0.236089187,0.971059740,1.131358254,0.773997967,0.234679001,-0.102798018,0.134622793,-0.225836060,0.030424638,-0.045772838,-0.023475213,-0.010798704,0.018439761,-0.011857690,0.279434098,-0.451009619,-0.229221483,-0.000677029,-0.016297721,0.002514673,0.003381784,0.003711895,-0.152059338
1625132084259041280,141,1625132084259041280,11.030083278,8.490507946,-0.196765263,0.028744050,0.021577781,0.223363592,0.974072320,1.212003722,0.734883369,0.034650916,-0.015446334,0.065114289,-0.265916635,0.007274805,-0.033134281,-0.034230682,-0.006102309,0.016098445,-0.007826787,0.041497308,-0.327303240,-0.255719118,-0.000677217,-0.016297774,0.002514812,0.003439766,0.005288308,-0.151275060
1625132084358454784,142,1625132084358454784,11.156628254,8.537588368,-0.219407345,0.029054761,0.025940772,0.218511218,0.975056791,1.271807235,0.665695508,-0.158933106,0.005060006,0.044607948,0.124369623,0.001942921,-0.047660569,-0.037720234,-0.003250203,0.011497561,0.007680482,0.001434408,-0.459442536,-0.316794488,-0.000677520,-0.016297674,0.002514700,0.003549384,0.007232454,-0.150319081
1625132084457566976,143,1625132084457566976,11.277847968,8.582981090,-0.246616409,0.028845193,0.027524422,0.228623029,0.972698243,1.290612429,0.577291056,-0.120972578,-0.003462109,0.020106866,0.106260127,-0.013957009,-0.034743279,-0.025148463,-0.007835045,0.004668656,0.001581974,-0.150144671,-0.321501819,-0.292071826,-0.000677588,-0.016297447,0.002514689,0.003669182,0.009013385,-0.149456921
1625132084557249280,144,1625132084557249280,11.401559991,8.621660501,-0.251643507,0.028077455,0.025953038,0.229845075,0.972475880,1.310679014,0.510893233,0.085492751,0.018242653,-0.022503711,0.246608717,-0.010762749,-0.031362831,0.000076842,-0.001759430,0.003963545,0.005601336,-0.126856497,-0.297041789,-0.102581336,-0.000677733,-0.016297238,0.002514610,0.003720504,0.009609402,-0.149176937
1625132084656763904,145,1625132084656763904,11.506226976,8.663415772,-0.230105616,0.030205578,0.030229833,0.243503653,0.968958075,1.313359084,0.474673192,0.218833572,0.063383234,0.103463808,0.079761675,-0.054274585,-0.015983879,0.011078248,-0.002135781,0.013170695,-0.001139449,-0.554533251,-0.147972828,0.074609820,-0.000677515,-0.016296880,0.002514653,0.003680937,0.009170851,-0.149380177
1625132084757123840,146,1625132084757123840,11.629964536,8.764632471,-0.206701644,0.027378427,0.038001711,0.238211566,0.970083265,1.321030669,0.545907699,0.168710623,-0.053929012,0.123570675,-0.171773890,-0.016059588,0.096425281,0.004672959,-0.006666300,0.010791892,-0.002873039,-0.162322319,0.964478378,0.081431451,-0.000676565,-0.016297399,0.002514679,0.003641636,0.008719741,-0.149582138
1625132084857641216,147,1625132084857641216,11.728319935,8.849614736,-0.209205302,0.022476037,0.038941456,0.231065064,0.971898826,1.274092706,0.576849193,-0.036343461,-0.065247447,-0.035153726,-0.172972313,-0.060854310,0.055608814,-0.025808124,-0.003221235,-0.000275168,-0.000806922,-0.605797285,0.564898343,-0.175194286,-0.000675778,-0.016297215,0.002514696,0.003675091,0.009897989,-0.149020670
1625132084958035200,148,1625132084958035200,11.809325123,8.911080381,-0.234040516,0.024833942,0.033056228,0.225737573,0.973310387,1.235685867,0.548637088,-0.129875023,0.095341167,-0.135688058,-0.066312711,-0.085435785,0.011266233,-0.032290574,0.000327700,-0.002599505,-0.004712183,-0.867980906,0.128004584,-0.319595074,-0.000675257,-0.016296577,0.002514796,0.003699659,0.011924132,-0.148069994
1625132085058531328,149,1625132085058531328,11.921070009,8.968450009,-0.243650495,0.032334039,0.029392695,0.209850228,0.976756603,1.232130945,0.500425490,-0.002827672,0.162186510,-0.118910143,-0.337555668,-0.023664027,0.009148433,-0.004304817,0.001912756,0.002022795,-0.009945793,-0.239323761,0.114756959,-0.101782386,-0.000675072,-0.016296473,0.002514966,0.003706086,0.012545429,-0.147783899
1625132085158574592,150,1625132085158574592,12.013986273,9.050499140,-0.230378802,0.038221257,0.026989263,0.197185327,0.979249030,1.242603599,0.505657626,0.176835378,0.077764304,-0.003462109,-0.341683568,-0.057875799,0.061367939,0.010344716,-0.002554534,0.005408688,-0.010095110,-0.604026377,0.631297977,0.037427298,-0.000674213,-0.016296362,0.002515139,0.003700018,0.012367962,-0.147857935
