time,field.header.seq,field.header.stamp,field.pose.pose.position.x,field.pose.pose.position.y,field.pose.pose.position.z,field.pose.pose.orientation.x,field.pose.pose.orientation.y,field.pose.pose.orientation.z,field.pose.pose.orientation.w,field.twist.twist.linear.x,field.twist.twist.linear.y,field.twist.twist.linear.z,field.twist.twist.angular.x,field.twist.twist.angular.y,field.twist.twist.angular.z,gbx,gby,gbz,abx,aby,abz
1609054400873860608,0,1609054400873860608,-0.000532612,-0.001152201,-0.000089338,0.006704570,-0.027166798,0.000901557,0.999608024,-0.006358581,-0.009085962,-0.000927580,0.014170081,0.000485072,0.000767459,0.006914245,-0.003419142,-0.002280442,-0.009653997,-0.002135913,-0.189369776
1609054400967617024,1,1609054400967617024,-0.002201900,-0.002613684,-0.000528113,0.006948735,-0.027903617,0.000937835,0.999586026,-0.015161820,-0.015317206,-0.004297421,0.012084113,0.000208865,-0.004467380,0.006914256,-0.003419146,-0.002280442,-0.009444902,-0.002087644,-0.185370824
1609054401061506304,2,1609054401061506304,-0.004777092,-0.004051019,-0.002682977,0.006744448,-0.028226327,0.000984308,0.999578320,-0.024059152,-0.019390558,-0.014850821,0.004150289,0.002342282,-0.007744336,0.006914267,-0.003419154,-0.002280443,-0.008769599,-0.001927993,-0.172678182
1609054401173677056,3,1609054401173677056,-0.009141742,-0.006837923,-0.005497028,0.007016122,-0.028489460,0.001011572,0.999568958,-0.037257474,-0.021167901,-0.020937640,0.014011648,-0.000225779,-0.000783462,0.006914282,-0.003419164,-0.002280444,-0.008418433,-0.001844545,-0.166168471
1609054401267473920,4,1609054401267473920,-0.014078663,-0.010219869,-0.008118563,0.007201649,-0.028557847,0.000973192,0.999565725,-0.046411432,-0.027684134,-0.025518278,0.013953194,-0.003067292,-0.004003065,0.006914300,-0.003419177,-0.002280444,-0.008325220,-0.001822199,-0.164458953
1609054401361264128,5,1609054401361264128,-0.018777080,-0.013613774,-0.011190365,0.007211655,-0.028449291,0.000993821,0.999568728,-0.051627991,-0.034722622,-0.030480664,0.003317040,0.000476141,-0.008310707,0.006914316,-0.003419193,-0.002280445,-0.008224711,-0.001797853,-0.162629994
1609054401474870016,6,1609054401474870016,-0.024239247,-0.017067775,-0.014218162,0.007119848,-0.028183117,0.001016122,0.999576904,-0.055711886,-0.033422158,-0.031895508,0.018607505,-0.002247287,0.000418540,0.006914333,-0.003419212,-0.002280445,-0.008294955,-0.001815044,-0.163899779
1609054401567376384,7,1609054401567376384,-0.027474377,-0.019217105,-0.018812520,0.006855182,-0.027827463,0.000971833,0.999588763,-0.054769022,-0.034920716,-0.038626994,0.013077674,0.000398689,-0.005313871,0.006914347,-0.003419234,-0.002280445,-0.008132877,-0.001775160,-0.160979477
1609054401661370112,8,1609054401661370112,-0.028899825,-0.019791190,-0.018721530,0.006553163,-0.027375806,0.000958811,0.999603272,-0.050707811,-0.032318837,-0.033632876,0.002766184,0.001102482,-0.008774037,0.006914358,-0.003419256,-0.002280445,-0.008463180,-0.001856685,-0.166922511
1609054401773677568,9,1609054401773677568,-0.030408192,-0.021795487,-0.019872890,0.006439615,-0.026981642,0.000981758,0.999614705,-0.046685174,-0.029335721,-0.030822910,0.012145331,-0.003601513,-0.001613635,0.006914367,-0.003419277,-0.002280445,-0.008663581,-0.001906074,-0.170532520
1609054401867427840,10,1609054401867427840,-0.031859542,-0.020284251,-0.018733705,0.006093221,-0.026766139,0.000931984,0.999622718,-0.043576476,-0.023979914,-0.025319810,0.013033772,-0.003261496,-0.004204730,0.006914378,-0.003419301,-0.002280444,-0.008930144,-0.001971640,-0.175345990
1609054401961331200,11,1609054401961331200,-0.030041258,-0.019785292,-0.013994169,0.005911567,-0.026429374,0.000930381,0.999632771,-0.034744407,-0.021924706,-0.015582113,0.002505548,0.000575961,-0.008524428,0.006914385,-0.003419324,-0.002280444,-0.009326211,-0.002068424,-0.182521355
1609054402073986560,12,1609054402073986560,-0.032294476,-0.017042984,-0.018626589,0.005701512,-0.026263223,0.000959526,0.999638342,-0.033524731,-0.011028631,-0.021650031,0.014594467,0.000124355,-0.000861447,0.006914401,-0.003419344,-0.002280444,-0.009189826,-0.002035450,-0.180035411
1609054402167703552,13,1609054402167703552,-0.032380613,-0.016668090,-0.020641749,0.005626850,-0.026081298,0.000946970,0.999643540,-0.030098445,-0.010186439,-0.023579844,0.013561118,-0.000311017,-0.002910917,0.006914405,-0.003419362,-0.002280442,-0.009194402,-0.002036539,-0.180119392
1609054402261711872,14,1609054402261711872,-0.029760709,-0.017721392,-0.017009700,0.005603319,-0.025839070,0.000964481,0.999649946,-0.023002019,-0.012933361,-0.016489816,0.003382960,0.000601232,-0.008088743,0.006914406,-0.003419383,-0.002280441,-0.009419105,-0.002089435,-0.184267701
1609054402373874944,15,1609054402373874944,-0.031761396,-0.018307245,-0.025147400,0.005576380,-0.025777262,0.000982129,0.999651675,-0.023352895,-0.009976757,-0.024866647,0.016188795,0.000868879,-0.002303508,0.006914414,-0.003419399,-0.002280442,-0.009199185,-0.002038549,-0.180165503
1609054402467696384,16,1609054402467696384,-0.032570174,-0.018194566,-0.018405185,0.005483260,-0.025749237,0.000940093,0.999652953,-0.021519138,-0.011127894,-0.014937700,0.008062131,0.002507874,-0.007324038,0.006914421,-0.003419412,-0.002280442,-0.009488581,-0.002104434,-0.185613902
1609054402561929216,17,1609054402561929216,-0.030465092,-0.018387757,-0.016162039,0.005466175,-0.025614208,0.000974022,0.999656483,-0.016006857,-0.010561253,-0.010897917,0.006345644,-0.000421946,-0.008011541,0.006914425,-0.003419435,-0.002280442,-0.009595585,-0.002128312,-0.187650042
1609054402673858560,18,1609054402673858560,-0.029935531,-0.019114830,-0.018119995,0.005507228,-0.025467952,0.000989984,0.999659979,-0.013094721,-0.006752899,-0.011914964,0.019940922,-0.001139831,0.000979545,0.006914426,-0.003419448,-0.002280441,-0.009575631,-0.002123963,-0.187265017
1609054402767964672,19,1609054402767964672,-0.029834184,-0.018235711,-0.016843355,0.005410797,-0.025379851,0.000940712,0.999662794,-0.011270782,-0.005831053,-0.009683911,0.011407724,-0.000645797,-0.002778357,0.006914439,-0.003419459,-0.002280440,-0.009634114,-0.002136437,-0.188409407
1609054402861785088,20,1609054402861785088,-0.030893573,-0.018525881,-0.017592028,0.005415889,-0.025365279,0.000985092,0.999663093,-0.010718141,-0.006060511,-0.009561879,0.003905364,0.003202636,-0.008222476,0.006914440,-0.003419460,-0.002280440,-0.009636144,-0.002136854,-0.188450006
1609054402973661440,21,1609054402973661440,-0.028975767,-0.020200629,-0.015560004,0.005462233,-0.025292549,0.000984631,0.999664685,-0.007441947,-0.004326525,-0.005764309,0.013228493,0.000353802,-0.000047003,0.006914433,-0.003419479,-0.002280439,-0.009699351,-0.002149613,-0.189729268
1609054403068194304,22,1609054403068194304,-0.028483622,-0.020759810,-0.017130160,0.005461210,-0.025287267,0.000968128,0.999664840,-0.005090108,-0.004339250,-0.006663459,0.012926972,-0.003386855,-0.001878733,0.006914441,-0.003419490,-0.002280439,-0.009678174,-0.002145450,-0.189293099
1609054403161856768,23,1609054403161856768,-0.028925628,-0.021029010,-0.017624062,0.005468265,-0.025318448,0.001015899,0.999663965,-0.004275424,-0.005233126,-0.007635450,0.005943148,-0.000920656,-0.006950225,0.006914441,-0.003419490,-0.002280439,-0.009680097,-0.002145807,-0.189334004
1609054403274002688,24,1609054403274002688,-0.030171289,-0.020705483,-0.016923749,0.005486030,-0.025279060,0.001025068,0.999664855,-0.005102836,-0.001017358,-0.006290813,0.016949087,0.001001725,0.000649167,0.006914455,-0.003419486,-0.002280439,-0.009706849,-0.002150745,-0.189907832
1609054403367282176,25,1609054403367282176,-0.029212983,-0.020469025,-0.016716290,0.005475827,-0.025219769,0.001030363,0.999666403,-0.002799118,-0.001190033,-0.005603804,0.010902807,-0.002537617,-0.002053424,0.006914466,-0.003419500,-0.002280438,-0.009718406,-0.002152801,-0.190161352
1609054403461115392,26,1609054403461115392,-0.026940186,-0.019971242,-0.016316875,0.005438418,-0.025150370,0.001058610,0.999668326,0.000796881,-0.001385333,-0.005148035,0.006053726,-0.000072240,-0.006678956,0.006914478,-0.003419523,-0.002280437,-0.009731789,-0.002155101,-0.190461632
1609054403573681664,27,1609054403573681664,-0.026528525,-0.020119499,-0.016737988,0.005468702,-0.025134313,0.001045417,0.999668578,0.001312518,0.001046013,-0.004904896,0.019029763,-0.004179717,0.001454474,0.006914478,-0.003419525,-0.002280436,-0.009733234,-0.002155341,-0.190494762
1609054403667495680,28,1609054403667495680,-0.026382772,-0.020061797,-0.017115596,0.005457626,-0.025152542,0.001050211,0.999668175,0.002436483,0.000313106,-0.005374215,0.012171122,-0.000081699,-0.003210624,0.006914478,-0.003419525,-0.002280436,-0.009734177,-0.002155485,-0.190517343
1609054403761391104,29,1609054403761391104,-0.025677281,-0.019580583,-0.014741976,0.005422924,-0.025157648,0.001064417,0.999668221,0.003386354,-0.000594332,-0.002836463,0.008591953,0.002099478,-0.006537601,0.006914492,-0.003419527,-0.002280433,-0.009771342,-0.002161143,-0.191413402
1609054403873744128,30,1609054403873744128,-0.025095022,-0.019623458,-0.014983803,0.005470635,-0.025145851,0.001056787,0.999668266,0.003855261,0.001118731,-0.002217681,0.017814834,-0.002534620,0.000467405,0.006914493,-0.003419528,-0.002280432,-0.009771120,-0.002161111,-0.191407922
1609054403967506432,31,1609054403967506432,-0.024861435,-0.019574627,-0.015065226,0.005441394,-0.025146393,0.001040184,0.999668429,0.004329832,0.000537463,-0.002597579,0.011887475,-0.002673487,-0.003002937,0.006914496,-0.003419525,-0.002280432,-0.009772612,-0.002161313,-0.191446009
1609054404061492736,32,1609054404061492736,-0.024480278,-0.019299976,-0.015218326,0.005428798,-0.025145301,0.001083300,0.999668479,0.005148407,-0.000236815,-0.003190649,0.004551026,0.000752745,-0.007984187,0.006914497,-0.003419525,-0.002280432,-0.009773314,-0.002161397,-0.191464736
1609054404173678592,33,1609054404173678592,-0.023909323,-0.019069990,-0.015500953,0.005482006,-0.025149082,0.001084505,0.999668092,0.004838597,0.002000543,-0.002989353,0.013900792,0.000042661,-0.001993744,0.006914498,-0.003419525,-0.002280432,-0.009773379,-0.002161404,-0.191466519
1609054404267392512,34,1609054404267392512,-0.023478081,-0.018839378,-0.015695464,0.005473468,-0.025171750,0.001083784,0.999667570,0.005473844,0.001200301,-0.003336154,0.008590169,-0.000588964,-0.006146499,0.006914498,-0.003419525,-0.002280432,-0.009773904,-0.002161459,-0.191481257
1609054404361479424,35,1609054404361479424,-0.023025871,-0.018843059,-0.016217486,0.005502730,-0.025183450,0.001122356,0.999667072,0.006013060,0.001256095,-0.004264566,0.005870187,-0.001899776,-0.007250591,0.006914497,-0.003419523,-0.002280431,-0.009771574,-0.002161196,-0.191416797
1609054404473576704,36,1609054404473576704,-0.024358934,-0.018670300,-0.014758308,0.005547701,-0.025216140,0.001113356,0.999666009,0.003277516,0.004892509,-0.002164532,0.018845052,-0.003237802,0.001076734,0.006914507,-0.003419494,-0.002280428,-0.009789565,-0.002163083,-0.191929678
1609054404567915776,37,1609054404567915776,-0.024027846,-0.018459125,-0.015097187,0.005500341,-0.025215536,0.001093171,0.999666308,0.004012133,0.001651495,-0.002897646,0.007878285,0.001601017,-0.007265651,0.006914506,-0.003419494,-0.002280428,-0.009788138,-0.002162936,-0.191888605
1609054404661332992,38,1609054404661332992,-0.024057762,-0.018433536,-0.015564405,0.005475604,-0.025229594,0.001095694,0.999666087,0.003528076,0.001155476,-0.002825563,0.005867932,0.001271111,-0.008054083,0.006914509,-0.003419489,-0.002280427,-0.009785824,-0.002162715,-0.191820254
1609054404773445120,39,1609054404773445120,-0.023623437,-0.018076395,-0.016201317,0.005540414,-0.025205022,0.001104517,0.999666340,0.003353163,0.005149761,-0.002482253,0.017856181,-0.001751453,0.000328710,0.006914511,-0.003419489,-0.002280426,-0.009782106,-0.002162387,-0.191708127
1609054404867273728,40,1609054404867273728,-0.023386851,-0.017833189,-0.016356304,0.005513233,-0.025234959,0.001114626,0.999665723,0.003484576,0.002613871,-0.002689729,0.011290710,-0.003881974,-0.004047460,0.006914510,-0.003419488,-0.002280426,-0.009782381,-0.002162406,-0.191716914
1609054404961496832,41,1609054404961496832,-0.023101030,-0.017389707,-0.016501812,0.005515753,-0.025249885,0.001146250,0.999665297,0.003772170,0.000406563,-0.002705734,0.001939870,0.000142369,-0.011650256,0.006914513,-0.003419487,-0.002280426,-0.009782660,-0.002162424,-0.191725959
1609054405073533184,42,1609054405073533184,-0.022762256,-0.017245179,-0.016787217,0.005557648,-0.025226171,0.001136155,0.999665675,0.004503202,0.002425088,-0.003378574,0.013812577,0.002594534,-0.000251559,0.006914512,-0.003419486,-0.002280425,-0.009782334,-0.002162395,-0.191716011
1609054405167301376,43,1609054405167301376,-0.022349287,-0.017030462,-0.017022935,0.005568179,-0.025238037,0.001170246,0.999665278,0.005318657,0.001658286,-0.003265803,0.012587195,-0.002687198,-0.002780083,0.006914512,-0.003419485,-0.002280425,-0.009782566,-0.002162410,-0.191723657
1609054405261336064,44,1609054405261336064,-0.022052122,-0.017128974,-0.017922597,0.005570748,-0.025245688,0.001197333,0.999665038,0.005278169,-0.001045569,-0.004612783,0.001097590,0.000233150,-0.010073644,0.006914512,-0.003419482,-0.002280424,-0.009778051,-0.002162060,-0.191578067
1609054405374491904,45,1609054405374491904,-0.021480332,-0.017609850,-0.017988738,0.005615424,-0.025230037,0.001180588,0.999665203,0.005472050,0.001607640,-0.003567123,0.019117061,-0.003460291,0.003453775,0.006914506,-0.003419480,-0.002280422,-0.009780779,-0.002162271,-0.191667007
1609054405467295232,46,1609054405467295232,-0.020955861,-0.017610610,-0.018257406,0.005576920,-0.025260451,0.001172824,0.999664660,0.006170168,-0.000644349,-0.003919261,0.011752618,-0.002048286,-0.003271263,0.006914506,-0.003419479,-0.002280422,-0.009781067,-0.002162290,-0.191676743
1609054405561595648,47,1609054405561595648,-0.020413114,-0.017486330,-0.018505409,0.005582086,-0.025285511,0.001203435,0.999663961,0.006962322,-0.002484245,-0.003439570,0.002347016,0.000311406,-0.009399627,0.006914508,-0.003419479,-0.002280422,-0.009781279,-0.002162305,-0.191684006
1609054405674577408,48,1609054405674577408,-0.020162220,-0.017940556,-0.018718924,0.005644038,-0.025258213,0.001213480,0.999664291,0.006195199,0.000521868,-0.002571189,0.018295676,-0.001483734,0.003235729,0.006914505,-0.003419469,-0.002280421,-0.009781895,-0.002162356,-0.191704415
1609054405767358720,49,1609054405767358720,-0.020039440,-0.018956757,-0.018749997,0.005615263,-0.025266616,0.001219360,0.999664234,0.006434568,-0.003378715,-0.002489659,0.009371076,-0.000654367,-0.005207727,0.006914497,-0.003419460,-0.002280419,-0.009783032,-0.002162449,-0.191742723
1609054405862248704,50,1609054405862248704,-0.020560001,-0.019466450,-0.018653591,0.005639307,-0.025288045,0.001247427,0.999663522,0.004885821,-0.006001224,-0.001550442,0.005056547,-0.001061956,-0.008648598,0.006914501,-0.003419442,-0.002280415,-0.009784529,-0.002162580,-0.191793273
1609054405973615616,51,1609054405973615616,-0.020210255,-0.020262619,-0.018926787,0.005679529,-0.025302579,0.001236352,0.999662940,0.004529250,-0.003409099,-0.000979439,0.015703877,-0.005261937,0.001188344,0.006914500,-0.003419439,-0.002280413,-0.009783203,-0.002162456,-0.191748627
1609054406067150848,52,1609054406067150848,-0.020883222,-0.021064766,-0.019139773,0.005661194,-0.025351948,0.001262089,0.999661761,0.003548883,-0.005972460,-0.002023154,0.008591434,0.000659521,-0.006930729,0.006914501,-0.003419422,-0.002280409,-0.009782494,-0.002162384,-0.191724952
1609054406161259008,53,1609054406161259008,-0.020547775,-0.021490690,-0.019287763,0.005643881,-0.025362944,0.001247463,0.999661598,0.004132994,-0.007392308,-0.002358083,0.006344875,-0.002298526,-0.007188250,0.006914503,-0.003419422,-0.002280409,-0.009782669,-0.002162402,-0.191730945
1609054406274150912,54,1609054406274150912,-0.020408105,-0.022004407,-0.019804430,0.005638082,-0.025351011,0.001247257,0.999661934,0.003957991,-0.005814278,-0.002756449,0.014490278,-0.002851939,-0.000921955,0.006914510,-0.003419418,-0.002280408,-0.009780885,-0.002162204,-0.191671333
1609054406367122944,55,1609054406367122944,-0.020188957,-0.022403935,-0.020112066,0.005573271,-0.025360599,0.001237001,0.999662067,0.004761387,-0.007424057,-0.003425551,0.009086146,-0.000075282,-0.005888555,0.006914517,-0.003419415,-0.002280407,-0.009780467,-0.002162156,-0.191657549
1609054406463081984,56,1609054406463081984,-0.019995544,-0.022837253,-0.020659721,0.005548880,-0.025366451,0.001227128,0.999662067,0.004045655,-0.007548728,-0.003336816,0.008926137,0.000895955,-0.006289477,0.006914524,-0.003419412,-0.002280405,-0.009778767,-0.002161961,-0.191601281
1609054406559400192,57,1609054406559400192,-0.019645699,-0.023331122,-0.020907234,0.005514898,-0.025388339,0.001233484,0.999661691,0.004317770,-0.008935820,-0.003778705,0.005974622,-0.001973566,-0.006652275,0.006914526,-0.003419411,-0.002280405,-0.009779015,-0.002161989,-0.191609545
1609054406668809216,58,1609054406668809216,-0.019231278,-0.024077893,-0.021183275,0.005505595,-0.025392338,0.001216575,0.999661662,0.004380824,-0.006984414,-0.004008967,0.014041305,-0.004377870,-0.001568167,0.006914527,-0.003419411,-0.002280405,-0.009779376,-0.002162028,-0.191621416
1609054406762711552,59,1609054406762711552,-0.019223948,-0.024141806,-0.021245212,0.005466044,-0.025414393,0.001196804,0.999661342,0.004268439,-0.008231672,-0.004112314,0.005778676,-0.003589280,-0.008268573,0.006914539,-0.003419406,-0.002280403,-0.009780999,-0.002162200,-0.191674074
1609054406859551744,60,1609054406859551744,-0.018910448,-0.024561236,-0.021538053,0.005461774,-0.025419296,0.001238857,0.999661189,0.004299530,-0.009719970,-0.004390881,0.001082230,-0.001462254,-0.011182114,0.006914542,-0.003419405,-0.002280403,-0.009781270,-0.002162227,-0.191682857
1609054406968643328,61,1609054406968643328,-0.019134345,-0.025078108,-0.021536991,0.005450427,-0.025408824,0.001197222,0.999661568,0.002439618,-0.005823265,-0.003616680,0.013860914,-0.001273652,-0.000712759,0.006914548,-0.003419397,-0.002280401,-0.009783542,-0.002162440,-0.191755090
1609054407062545408,62,1609054407062545408,-0.018947828,-0.025484679,-0.021784636,0.005456882,-0.025439375,0.001237201,0.999660707,0.002228352,-0.007252980,-0.003784434,0.004549280,-0.002186867,-0.007850752,0.006914549,-0.003419397,-0.002280401,-0.009783782,-0.002162460,-0.191762707
1609054407159109888,63,1609054407159109888,-0.019320697,-0.025286890,-0.021892998,0.005447156,-0.025476103,0.001292826,0.999659755,0.001267811,-0.007135609,-0.003561656,0.002342002,-0.001496489,-0.010816831,0.006914562,-0.003419391,-0.002280399,-0.009784654,-0.002162534,-0.191789919
1609054407269333248,64,1609054407269333248,-0.019863228,-0.025420292,-0.021886173,0.005418624,-0.025518475,0.001265076,0.999658865,-0.000067608,-0.005848898,-0.002895992,0.008366877,0.002075402,-0.005908717,0.006914570,-0.003419384,-0.002280397,-0.009786309,-0.002162663,-0.191840758
1609054407363734016,65,1609054407363734016,-0.020288907,-0.025201334,-0.022400681,0.005430123,-0.025532569,0.001285877,0.999658416,-0.000435281,-0.004307164,-0.003289507,0.008351410,0.001461774,-0.004911183,0.006914582,-0.003419380,-0.002280395,-0.009784653,-0.002162543,-0.191790685
1609054407459258880,66,1609054407459258880,-0.020476743,-0.024854676,-0.022869822,0.005416590,-0.025526593,0.001311696,0.999658608,0.000083108,-0.005995926,-0.003464704,0.001321410,0.001960264,-0.010860897,0.006914594,-0.003419381,-0.002280393,-0.009783397,-0.002162457,-0.191753287
1609054407568443392,67,1609054407568443392,-0.020936192,-0.025077306,-0.023083933,0.005416458,-0.025512238,0.001295996,0.999658996,-0.000519270,-0.005974650,-0.003163795,0.009836523,0.001462869,-0.005909189,0.006914599,-0.003419376,-0.002280390,-0.009783760,-0.002162479,-0.191763932
1609054407662591232,68,1609054407662591232,-0.021014981,-0.025471766,-0.023282975,0.005393847,-0.025525881,0.001326359,0.999658730,-0.000814902,-0.006707105,-0.001942337,0.005016504,-0.000891321,-0.007997338,0.006914601,-0.003419377,-0.002280390,-0.009783648,-0.002162473,-0.191760685
1609054407759235328,69,1609054407759235328,-0.021134175,-0.025881841,-0.023400250,0.005391066,-0.025574878,0.001355064,0.999657454,-0.001118684,-0.008063978,-0.002577783,0.003111179,0.000588074,-0.008281218,0.006914603,-0.003419377,-0.002280390,-0.009783905,-0.002162484,-0.191767984
1609054407868832000,70,1609054407868832000,-0.021648206,-0.025878188,-0.023461657,0.005391044,-0.025621998,0.001329163,0.999656283,-0.001622482,-0.005741180,-0.002534642,0.012216616,-0.000650854,-0.003560708,0.006914613,-0.003419376,-0.002280386,-0.009784778,-0.002162519,-0.191792382
1609054407962866432,71,1609054407962866432,-0.021445799,-0.025736514,-0.023799943,0.005358315,-0.025602845,0.001333502,0.999656943,-0.000723815,-0.005443831,-0.002427643,0.007499850,0.000830033,-0.006275446,0.006914622,-0.003419384,-0.002280383,-0.009783982,-0.002162492,-0.191770507
1609054408059130880,72,1609054408059130880,-0.021139851,-0.025340247,-0.023789078,0.005339731,-0.025559192,0.001343205,0.999658147,-0.000122837,-0.005998489,-0.002258774,0.002894066,-0.000362565,-0.011669356,0.006914633,-0.003419393,-0.002280380,-0.009784959,-0.002162517,-0.191796910
1609054408168604160,73,1609054408168604160,-0.021214235,-0.025292796,-0.023547184,0.005350219,-0.025526694,0.001312337,0.999658962,-0.001054357,-0.001722112,-0.001014106,0.011844429,-0.002744695,-0.002210008,0.006914636,-0.003419396,-0.002280377,-0.009787010,-0.002162552,-0.191851663
1609054408262886400,74,1609054408262886400,-0.020988263,-0.025089585,-0.022714609,0.005325712,-0.025535107,0.001326195,0.999658860,-0.000137643,-0.003468923,-0.000904373,0.005593212,-0.002097382,-0.007322543,0.006914641,-0.003419404,-0.002280373,-0.009792082,-0.002162602,-0.191985685
1609054408359160064,75,1609054408359160064,-0.020867065,-0.024931869,-0.022770632,0.005335311,-0.025576150,0.001341646,0.999657739,-0.001267723,-0.002731362,-0.001417146,0.005925352,-0.004374975,-0.008403694,0.006914645,-0.003419411,-0.002280370,-0.009792028,-0.002162601,-0.191984220
1609054408468926976,76,1609054408468926976,-0.020988957,-0.024865498,-0.022763455,0.005338440,-0.025584395,0.001320508,0.999657539,-0.000927305,-0.000410401,-0.001159391,0.009661844,-0.001048276,-0.003311713,0.006914646,-0.003419415,-0.002280366,-0.009792586,-0.002162598,-0.191998570
1609054408562790912,77,1609054408562790912,-0.021074853,-0.024825202,-0.022806924,0.005299217,-0.025610794,0.001331796,0.999657057,-0.000549168,-0.002340182,-0.001786509,0.006168650,-0.001413486,-0.008355512,0.006914647,-0.003419415,-0.002280366,-0.009792834,-0.002162593,-0.192004850
1609054408659123456,78,1609054408659123456,-0.020858423,-0.024480503,-0.023051434,0.005289645,-0.025575339,0.001327023,0.999658022,-0.000298602,-0.002798024,-0.002213472,0.003303111,0.001655869,-0.009295955,0.006914653,-0.003419422,-0.002280363,-0.009792298,-0.002162603,-0.191991334
1609054408768761344,79,1609054408768761344,-0.021792989,-0.023877336,-0.022617187,0.005262909,-0.025549087,0.001265562,0.999658914,-0.002164462,0.001444190,-0.001126524,0.012021991,-0.001449530,-0.003905338,0.006914661,-0.003419415,-0.002280359,-0.009795558,-0.002162503,-0.192072573
1609054408862690048,80,1609054408862690048,-0.021925428,-0.023609448,-0.022667788,0.005255697,-0.025565754,0.001260871,0.999658532,-0.002058569,0.001334875,-0.001119029,0.008081480,0.000579603,-0.007553508,0.006914661,-0.003419418,-0.002280358,-0.009795522,-0.002162503,-0.192071635
1609054408958965504,81,1609054408958965504,-0.022168009,-0.023252121,-0.022702002,0.005268167,-0.025604369,0.001258447,0.999657481,-0.002352310,-0.000691232,-0.001853022,0.001547588,-0.000294292,-0.010880955,0.006914663,-0.003419418,-0.002280358,-0.009795795,-0.002162488,-0.192078271
1609054409068454400,82,1609054409068454400,-0.022686815,-0.022844282,-0.022812391,0.005264585,-0.025632544,0.001247726,0.999656791,-0.002570504,-0.000366867,-0.002619260,0.008044898,0.001797992,-0.006483437,0.006914668,-0.003419418,-0.002280355,-0.009796085,-0.002162470,-0.192085226
1609054409162939904,83,1609054409162939904,-0.023421230,-0.022041700,-0.022570572,0.005240551,-0.025631241,0.001242197,0.999656958,-0.003256940,-0.000058492,-0.002156220,0.002135872,0.001927720,-0.008040723,0.006914677,-0.003419418,-0.002280350,-0.009798279,-0.002162327,-0.192137673
1609054409259214592,84,1609054409259214592,-0.023070142,-0.021639135,-0.022777505,0.005240331,-0.025568931,0.001249480,0.999658545,-0.002663165,-0.000521663,-0.002108035,0.003733157,0.002072499,-0.012705825,0.006914677,-0.003419431,-0.002280348,-0.009797800,-0.002162361,-0.192126260
1609054409368637440,85,1609054409368637440,-0.022808247,-0.021314650,-0.022447968,0.005262003,-0.025505357,0.001233108,0.999660076,-0.002927121,0.002046769,-0.000814038,0.010745643,-0.002381448,-0.002091702,0.006914675,-0.003419443,-0.002280344,-0.009800248,-0.002162157,-0.192184058
1609054409462863360,86,1609054409462863360,-0.022686451,-0.021227497,-0.022180815,0.005263566,-0.025532795,0.001265856,0.999659326,-0.002369629,-0.000299700,-0.000107805,0.004774350,-0.000803705,-0.008817106,0.006914671,-0.003419451,-0.002280341,-0.009801738,-0.002162024,-0.192219123
1609054409559236864,87,1609054409559236864,-0.022483835,-0.020999433,-0.022232896,0.005275886,-0.025549750,0.001256274,0.999658840,-0.001782256,0.001026652,-0.000430663,0.003707685,0.000236219,-0.009727877,0.006914669,-0.003419461,-0.002280338,-0.009801183,-0.002162076,-0.192206055
1609054409669027584,88,1609054409669027584,-0.022750145,-0.020577019,-0.022200166,0.005289118,-0.025566904,0.001261497,0.999658325,-0.002359393,0.002893558,0.000097900,0.011416258,-0.001644315,-0.004110736,0.006914669,-0.003419461,-0.002280338,-0.009801221,-0.002162072,-0.192206942
1609054409763786496,89,1609054409763786496,-0.023010025,-0.020119272,-0.022098568,0.005303523,-0.025568027,0.001298192,0.999658173,-0.002615769,0.002209342,0.000510294,0.005177452,-0.002729602,-0.008500276,0.006914670,-0.003419461,-0.002280338,-0.009801286,-0.002162064,-0.192208441
1609054409859276288,90,1609054409859276288,-0.022307882,-0.019727130,-0.022064935,0.005307247,-0.025489787,0.001310777,0.999660135,-0.001502526,0.001582966,0.000631797,0.003495588,0.003215449,-0.010348789,0.006914669,-0.003419478,-0.002280336,-0.009800820,-0.002162113,-0.192197631
1609054409968606720,91,1609054409968606720,-0.021735645,-0.019985058,-0.021037356,0.005360291,-0.025440486,0.001330384,0.999661082,-0.001481233,0.002728384,0.002567884,0.013016095,-0.003233357,-0.002357190,0.006914659,-0.003419493,-0.002280330,-0.009805179,-0.002161642,-0.192298916
1609054410064834304,92,1609054410064834304,-0.021890038,-0.019669716,-0.020769044,0.005356050,-0.025477827,0.001323213,0.999660163,-0.001678753,0.002285578,0.002646898,0.006976618,-0.000456220,-0.006317658,0.006914659,-0.003419493,-0.002280330,-0.009805185,-0.002161641,-0.192299056
1609054410158784512,93,1609054410158784512,-0.021392313,-0.019919300,-0.020885007,0.005421141,-0.025508357,0.001337673,0.999659015,-0.000557745,0.000567012,0.001890256,0.003555588,-0.002610304,-0.011594881,0.006914650,-0.003419504,-0.002280326,-0.009803063,-0.002161863,-0.192249533
1609054410268425216,94,1609054410268425216,-0.021261227,-0.019805546,-0.021085073,0.005428547,-0.025517450,0.001336547,0.999658744,-0.000356549,0.002383284,0.001688828,0.010340290,-0.001253560,-0.004788611,0.006914646,-0.003419509,-0.002280323,-0.009800655,-0.002162099,-0.192193329
1609054410362285824,95,1609054410362285824,-0.020799526,-0.019616037,-0.021194169,0.005397509,-0.025491014,0.001320026,0.999659608,0.000866517,0.000379609,0.001281397,0.005454745,-0.000295852,-0.006953480,0.006914645,-0.003419518,-0.002280320,-0.009799171,-0.002162236,-0.192158712
1609054410458904832,96,1609054410458904832,-0.020745742,-0.019268921,-0.020955775,0.005375397,-0.025440891,0.001326771,0.999660995,0.000893696,0.000574012,0.002035459,0.004745197,0.001272302,-0.008319311,0.006914647,-0.003419518,-0.002280320,-0.009799189,-0.002162235,-0.192159118
1609054410568568320,97,1609054410568568320,-0.020385831,-0.019493975,-0.020493119,0.005390731,-0.025391393,0.001321319,0.999662179,0.000830868,0.001976039,0.001853543,0.011719789,-0.001020292,-0.003640716,0.006914639,-0.003419524,-0.002280317,-0.009800027,-0.002162160,-0.192178887
1609054410662791424,98,1609054410662791424,-0.019974098,-0.019646293,-0.020160858,0.005369411,-0.025414366,0.001312598,0.999661721,0.001338215,0.000219214,0.002028678,0.005969167,-0.002278204,-0.008276015,0.006914633,-0.003419530,-0.002280314,-0.009800465,-0.002162122,-0.192189312
1609054410758918656,99,1609054410758918656,-0.019877724,-0.019369221,-0.019943150,0.005374153,-0.025446068,0.001297481,0.999660909,0.001147293,0.000751245,0.002079310,0.005129708,0.000548750,-0.009814735,0.006914634,-0.003419530,-0.002280313,-0.009800188,-0.002162145,-0.192182673
1609054410868296448,100,1609054410868296448,-0.019801291,-0.018969960,-0.019554332,0.005357494,-0.025464923,0.001276869,0.999660545,0.001169879,0.003470637,0.002444547,0.010046691,-0.000344153,-0.002977479,0.006914634,-0.003419530,-0.002280313,-0.009800402,-0.002162127,-0.192187795
1609054410962547200,101,1609054410962547200,-0.020091763,-0.018886317,-0.018872494,0.005372798,-0.025481723,0.001295434,0.999660011,0.000915203,0.001918795,0.002771289,0.003105572,0.001855822,-0.008576484,0.006914632,-0.003419528,-0.002280309,-0.009802176,-0.002161984,-0.192230562
1609054411059254528,102,1609054411059254528,-0.020056106,-0.018318733,-0.018510703,0.005360745,-0.025443570,0.001296455,0.999661046,0.001059195,0.002697370,0.002835040,0.001797156,-0.000722903,-0.010263668,0.006914633,-0.003419528,-0.002280309,-0.009802288,-0.002161975,-0.192233274
1609054411169037056,103,1609054411169037056,-0.019615299,-0.018688872,-0.018057587,0.005416983,-0.025391294,0.001286949,0.999662084,0.000640797,0.004107890,0.004581642,0.013619324,-0.003159819,-0.001697586,0.006914620,-0.003419536,-0.002280304,-0.009802168,-0.002161985,-0.192230352
1609054411263201792,104,1609054411263201792,-0.019289275,-0.018394718,-0.018210735,0.005455099,-0.025437910,0.001333614,0.999660630,0.001316464,0.002202218,0.004291087,0.006444969,-0.002883228,-0.008176526,0.006914620,-0.003419543,-0.002280300,-0.009799486,-0.002162176,-0.192164487
1609054411359087104,105,1609054411359087104,-0.019154597,-0.018028545,-0.017871853,0.005438841,-0.025487084,0.001356713,0.999659435,0.001926940,0.000607176,0.003869006,0.001821683,-0.000774358,-0.009784076,0.006914621,-0.003419543,-0.002280299,-0.009799010,-0.002162206,-0.192152769
1609054411468455424,106,1609054411468455424,-0.019110391,-0.018580359,-0.018396991,0.005479115,-0.025492641,0.001359619,0.999659070,0.001621940,0.000952822,0.002617402,0.008708952,-0.000139123,-0.002420042,0.006914611,-0.003419544,-0.002280295,-0.009794778,-0.002162439,-0.192048414
1609054411562402816,107,1609054411562402816,-0.018746839,-0.018772960,-0.019127546,0.005461147,-0.025460107,0.001368461,0.999659985,0.002293876,-0.001345343,0.000663615,0.004371953,0.003459242,-0.008636500,0.006914608,-0.003419550,-0.002280292,-0.009790639,-0.002162626,-0.191946301
1609054411659335168,108,1609054411659335168,-0.018439350,-0.019179292,-0.019514351,0.005498299,-0.025427346,0.001387614,0.999660589,0.001659497,-0.001377437,-0.000164668,0.001806523,-0.001088247,-0.011509776,0.006914603,-0.003419555,-0.002280286,-0.009788552,-0.002162699,-0.191894550
1609054411768463360,109,1609054411768463360,-0.018580327,-0.019611453,-0.019653820,0.005512907,-0.025410864,0.001357256,0.999660969,-0.000092376,0.000803125,0.000276264,0.011987044,-0.003532253,-0.002003895,0.006914597,-0.003419553,-0.002280282,-0.009787647,-0.002162720,-0.191871912
1609054411862405888,110,1609054411862405888,-0.018572484,-0.019905374,-0.020404127,0.005514189,-0.025450162,0.001361363,0.999659957,-0.000520820,-0.001205033,0.000328826,0.006924321,-0.004497598,-0.007150291,0.006914593,-0.003419555,-0.002280279,-0.009784005,-0.002162757,-0.191780416
1609054411959164416,111,1609054411959164416,-0.018489529,-0.019929086,-0.020943485,0.005508705,-0.025506940,0.001366213,0.999658534,-0.000130807,-0.003544418,-0.000363400,0.002333637,-0.001703662,-0.011276276,0.006914596,-0.003419559,-0.002280276,-0.009781575,-0.002162750,-0.191719331
1609054412069110528,112,1609054412069110528,-0.018863452,-0.020613423,-0.021490589,0.005550520,-0.025507741,0.001358785,0.999658292,-0.001293478,-0.001933543,-0.001299618,0.012623541,-0.000169097,-0.002264991,0.006914590,-0.003419557,-0.002280272,-0.009779409,-0.002162716,-0.191665066
1609054412165400064,113,1609054412165400064,-0.018771094,-0.021080782,-0.021870292,0.005517514,-0.025474632,0.001338986,0.999659346,-0.000343993,-0.003816366,-0.002421300,0.010365700,0.002319966,-0.004961152,0.006914589,-0.003419561,-0.002280269,-0.009778413,-0.002162688,-0.191640166
1609054412260230656,114,1609054412260230656,-0.018857785,-0.021198521,-0.021475517,0.005480087,-0.025436049,0.001322941,0.999660555,-0.000798287,-0.005050462,-0.001508010,0.006992179,-0.001726017,-0.008078992,0.006914597,-0.003419564,-0.002280264,-0.009780520,-0.002162771,-0.191693003
1609054412370381312,115,1609054412370381312,-0.018999474,-0.021527932,-0.021557776,0.005500113,-0.025423071,0.001315199,0.999660786,-0.001803406,-0.003007217,-0.001321005,0.013389154,-0.003441049,-0.003109733,0.006914596,-0.003419564,-0.002280264,-0.009780580,-0.002162774,-0.191694533
1609054412464720128,116,1609054412464720128,-0.019182292,-0.021684417,-0.021583291,0.005526051,-0.025481309,0.001331333,0.999659139,-0.002261298,-0.003108220,-0.000609263,0.007410848,-0.002462702,-0.007475242,0.006914597,-0.003419564,-0.002280264,-0.009780623,-0.002162777,-0.191695608
1609054412559495936,117,1609054412559495936,-0.019413345,-0.021706494,-0.021576970,0.005521590,-0.025533110,0.001349285,0.999657817,-0.001751076,-0.004903290,-0.001067871,0.001455470,-0.002034329,-0.010745210,0.006914600,-0.003419564,-0.002280264,-0.009780754,-0.002162787,-0.191698924
1609054412671982336,118,1609054412671982336,-0.019660913,-0.021945610,-0.021641655,0.005512284,-0.025495212,0.001316970,0.999658879,-0.002113595,-0.001866391,-0.001335349,0.016070381,0.001547920,-0.000458913,0.006914599,-0.003419564,-0.002280264,-0.009780783,-0.002162790,-0.191699644
1609054412772087296,119,1609054412772087296,-0.019866058,-0.022220053,-0.021726921,0.005479447,-0.025447943,0.001315746,0.999660266,-0.002179471,-0.003029794,-0.001644148,0.014071702,0.002479357,-0.001359986,0.006914600,-0.003419564,-0.002280264,-0.009780875,-0.002162798,-0.191701980
1609054412867723008,120,1609054412867723008,-0.020052443,-0.022438362,-0.021780730,0.005465687,-0.025424783,0.001324336,0.999660919,-0.002217119,-0.005664363,-0.001719343,0.009385735,-0.000652574,-0.006788381,0.006914602,-0.003419565,-0.002280264,-0.009781037,-0.002162813,-0.191706064
1609054412959221248,121,1609054412959221248,-0.020300052,-0.022708448,-0.021827752,0.005479808,-0.025458501,0.001359445,0.999659936,-0.002491867,-0.006221092,-0.001760410,0.002409413,0.000261266,-0.010331838,0.006914603,-0.003419565,-0.002280264,-0.009781157,-0.002162825,-0.191709119
1609054413071641856,122,1609054413071641856,-0.019963233,-0.023087852,-0.022257127,0.005493083,-0.025489266,0.001347285,0.999659096,-0.002150736,-0.004814899,-0.002259353,0.016048025,-0.001311508,-0.000784381,0.006914607,-0.003419576,-0.002280261,-0.009780185,-0.002162733,-0.191684531
1609054413168034816,123,1609054413168034816,-0.020171349,-0.023554993,-0.022418241,0.005493890,-0.025533363,0.001347606,0.999657966,-0.001802349,-0.005828398,-0.002664093,0.011506882,-0.002004350,-0.002618859,0.006914608,-0.003419576,-0.002280261,-0.009780291,-0.002162745,-0.191687200
1609054413259433984,124,1609054413259433984,-0.020085190,-0.023329876,-0.022803232,0.005491445,-0.025536407,0.001391273,0.999657842,-0.001111776,-0.007101298,-0.003204332,0.007046539,0.000263412,-0.007974053,0.006914620,-0.003419582,-0.002280257,-0.009779608,-0.002162674,-0.191670100
1609054413371543552,125,1609054413371543552,-0.020238038,-0.023977663,-0.023075074,0.005506010,-0.025496477,0.001378889,0.999658798,-0.001619934,-0.005107427,-0.002924436,0.014660450,0.000279374,-0.001624815,0.006914619,-0.003419583,-0.002280257,-0.009779618,-0.002162676,-0.191670349
1609054413465514240,126,1609054413465514240,-0.019574946,-0.023852638,-0.022999124,0.005517640,-0.025488072,0.001436731,0.999658867,-0.000355806,-0.006179708,-0.001442900,0.009059358,-0.001858007,-0.003862251,0.006914628,-0.003419596,-0.002280252,-0.009780438,-0.002162767,-0.191690745
1609054413558970112,127,1609054413558970112,-0.019626922,-0.024231704,-0.023033636,0.005468158,-0.025519645,0.001462308,0.999658296,-0.000614678,-0.009724409,-0.001266935,0.000232670,-0.002135868,-0.012611539,0.006914632,-0.003419597,-0.002280252,-0.009780522,-0.002162777,-0.191692848
1609054413672212224,128,1609054413672212224,-0.019770078,-0.025041647,-0.023052088,0.005482075,-0.025547475,0.001420247,0.999657570,-0.001490579,-0.006482698,-0.000830180,0.012895457,-0.000524106,-0.002936014,0.006914631,-0.003419597,-0.002280252,-0.009780594,-0.002162786,-0.191694619
1609054413765676800,129,1609054413765676800,-0.019643712,-0.025179533,-0.023103505,0.005458040,-0.025554599,0.001397024,0.999657552,-0.001085482,-0.006322560,-0.000587348,0.011627534,-0.000224124,-0.003784967,0.006914638,-0.003419603,-0.002280249,-0.009780439,-0.002162769,-0.191690815
1609054413859589888,130,1609054413859589888,-0.019469310,-0.025082128,-0.023268878,0.005463974,-0.025565876,0.001441949,0.999657167,-0.000536567,-0.007767699,-0.001064490,-0.001234110,0.000414317,-0.011821136,0.006914648,-0.003419610,-0.002280245,-0.009779894,-0.002162707,-0.191677554
1609054413971652864,131,1609054413971652864,-0.019550048,-0.025567239,-0.023407706,0.005478446,-0.025520115,0.001403520,0.999658312,-0.001368778,-0.005332223,-0.001863191,0.014173273,0.002224370,-0.000562523,0.006914651,-0.003419613,-0.002280243,-0.009779845,-0.002162702,-0.191676361
1609054414067266816,132,1609054414067266816,-0.019668989,-0.026157388,-0.023556669,0.005473385,-0.025511998,0.001418181,0.999658526,-0.001512278,-0.006027769,-0.002100694,0.011844836,0.000263835,-0.001942238,0.006914651,-0.003419614,-0.002280243,-0.009779913,-0.002162710,-0.191677991
1609054414159121664,133,1609054414159121664,-0.019312412,-0.025035341,-0.023259545,0.005445731,-0.025534122,0.001460536,0.999658051,-0.001418495,-0.006137470,-0.001409939,0.002611189,0.000181121,-0.010987282,0.006914676,-0.003419626,-0.002280237,-0.009781302,-0.002162869,-0.191711351
1609054414271600896,134,1609054414271600896,-0.019603561,-0.025017768,-0.022959053,0.005463913,-0.025534082,0.001440099,0.999657983,-0.003186686,-0.001648951,0.000181765,0.017177314,-0.003399155,0.000836827,0.006914682,-0.003419629,-0.002280232,-0.009782475,-0.002162997,-0.191739362
1609054414365254144,135,1609054414365254144,-0.021623161,-0.020220790,-0.017349120,0.005297231,-0.025583294,0.001402701,0.999657675,-0.005500754,0.003514653,0.006075247,0.007838264,0.001225311,-0.005876422,0.006914763,-0.003419621,-0.002280216,-0.009801753,-0.002165059,-0.192197320
1609054414462148864,136,1609054414462148864,-0.021031534,-0.020062403,-0.018361183,0.005312979,-0.025535149,0.001414455,0.999658806,-0.004149319,0.002911291,0.004898069,0.008818507,-0.000711667,-0.007186580,0.006914757,-0.003419643,-0.002280212,-0.009795745,-0.002164530,-0.192055794
1609054414558851328,137,1609054414558851328,-0.020574947,-0.020188878,-0.019136643,0.005356364,-0.025501090,0.001426302,0.999659427,-0.003456285,0.002166084,0.004311860,0.003414071,0.001391160,-0.008947263,0.006914747,-0.003419660,-0.002280207,-0.009790990,-0.002164177,-0.191944071
1609054414668603136,138,1609054414668603136,-0.019755207,-0.020518517,-0.019011748,0.005361119,-0.025444997,0.001391843,0.999660879,-0.002398475,0.003690757,0.004046577,0.012334098,-0.000412239,-0.002784957,0.006914733,-0.003419680,-0.002280202,-0.009789601,-0.002164096,-0.191911348
1609054414762166016,139,1609054414762166016,-0.019998572,-0.020116389,-0.018616177,0.005370988,-0.025462330,0.001427104,0.999660335,-0.002586726,0.002456164,0.003902461,0.008703941,-0.000295953,-0.005180523,0.006914733,-0.003419681,-0.002280201,-0.009789410,-0.002164086,-0.191906827
1609054414860432896,140,1609054414860432896,-0.019705902,-0.020062480,-0.019072706,0.005370200,-0.025457806,0.001417285,0.999660469,-0.001483929,0.002116450,0.002908565,0.006057292,-0.003188223,-0.008123252,0.006914728,-0.003419692,-0.002280197,-0.009786343,-0.002163955,-0.191833858
1609054414969217280,141,1609054414969217280,-0.019489105,-0.020274256,-0.019349260,0.005427423,-0.025427583,0.001415278,0.999660932,-0.000924948,0.004689512,0.001838333,0.012637272,-0.000131185,-0.001736655,0.006914718,-0.003419699,-0.002280194,-0.009784382,-0.002163888,-0.191786921
1609054415062453248,142,1609054415062453248,-0.019447780,-0.018022137,-0.018665618,0.005349928,-0.025418712,0.001405296,0.999661589,-0.000387301,0.004862867,0.002217833,0.006258290,-0.000394067,-0.007448914,0.006914750,-0.003419708,-0.002280181,-0.009785912,-0.002163936,-0.191823802
1609054415159574016,143,1609054415159574016,-0.018847116,-0.018166676,-0.018960401,0.005413930,-0.025400735,0.001443745,0.999661647,0.000555195,0.003472628,0.001844332,0.004222897,0.002441234,-0.010458062,0.006914739,-0.003419720,-0.002280177,-0.009784064,-0.002163891,-0.191778817
1609054415269281792,144,1609054415269281792,-0.018663343,-0.017966138,-0.018965258,0.005434268,-0.025405514,0.001445497,0.999661412,0.000118944,0.005038156,0.002659420,0.013251334,-0.000922292,-0.003080945,0.006914733,-0.003419723,-0.002280174,-0.009783013,-0.002163869,-0.191752959
1609054415362461696,145,1609054415362461696,-0.018567890,-0.018254413,-0.019086972,0.005454926,-0.025423647,0.001450800,0.999660831,0.000335474,0.002993187,0.001901994,0.006771899,-0.002377921,-0.007317791,0.006914723,-0.003419726,-0.002280168,-0.009781760,-0.002163842,-0.191721828
1609054415459398144,146,1609054415459398144,-0.017943721,-0.018116523,-0.019501060,0.005466043,-0.025406756,0.001431520,0.999661228,0.001493711,0.002913063,0.001250698,0.003555884,0.002940036,-0.009328011,0.006914720,-0.003419736,-0.002280163,-0.009779684,-0.002163790,-0.191669819
1609054415568372736,147,1609054415568372736,-0.020611994,-0.016491164,-0.018808634,0.005439807,-0.025474872,0.001408196,0.999659670,-0.002186026,0.006108557,0.002338276,0.012611141,-0.001014334,-0.002730316,0.006914746,-0.003419702,-0.002280152,-0.009781130,-0.002163831,-0.191706460
1609054415666883584,148,1609054415666883584,-0.020642695,-0.017554380,-0.018834787,0.005486274,-0.025455917,0.001404386,0.999659905,-0.001761414,0.003746107,0.001161703,0.008754350,0.000307509,-0.007162075,0.006914723,-0.003419705,-0.002280145,-0.009780451,-0.002163811,-0.191689231
1609054415760654080,149,1609054415760654080,-0.020204063,-0.017599432,-0.019501357,0.005498367,-0.025451379,0.001399621,0.999659960,-0.001327611,0.002919106,0.000315719,0.005918980,-0.000113371,-0.006326271,0.006914716,-0.003419717,-0.002280141,-0.009777904,-0.002163720,-0.191624486
1609054415874499840,150,1609054415874499840,-0.020109701,-0.018797509,-0.019030321,0.005609827,-0.025432696,0.001417668,0.999659791,-0.002282517,0.004247823,0.001765184,0.018824030,-0.003582987,0.003007077,0.006914693,-0.003419723,-0.002280133,-0.009778847,-0.002163763,-0.191648557
1609054415967223552,151,1609054415967223552,-0.019855864,-0.018862463,-0.019766845,0.005566518,-0.025434919,0.001401658,0.999659999,-0.000998843,0.001754699,0.000229554,0.011047573,0.000613754,-0.005114461,0.006914691,-0.003419731,-0.002280130,-0.009776261,-0.002163608,-0.191582310
1609054416060900864,152,1609054416060900864,-0.019082579,-0.019374732,-0.020026138,0.005580904,-0.025420502,0.001418287,0.999660262,-0.000015313,0.000013751,0.000126582,0.005262221,-0.001805730,-0.007448702,0.006914683,-0.003419746,-0.002280124,-0.009775273,-0.002163532,-0.191556882
1609054416177806336,153,1609054416177806336,-0.019648972,-0.019884701,-0.019395569,0.005630538,-0.025422886,0.001418823,0.999659923,-0.001387728,0.000016376,0.000715124,0.017237116,-0.002534284,0.001045652,0.006914678,-0.003419739,-0.002280116,-0.009776820,-0.002163684,-0.191597057
1609054416270381056,154,1609054416270381056,-0.019316894,-0.020205724,-0.019780044,0.005563508,-0.025405519,0.001379681,0.999660794,-0.000232830,-0.002567334,-0.000438069,0.012293137,0.000427125,-0.002336739,0.006914678,-0.003419747,-0.002280113,-0.009775570,-0.002163542,-0.191564434
1609054416364276736,155,1609054416364276736,-0.019376817,-0.020361199,-0.019780864,0.005576458,-0.025420577,0.001414461,0.999660291,-0.000548252,-0.003302674,0.000024848,0.009855469,-0.000390975,-0.002913244,0.006914679,-0.003419747,-0.002280113,-0.009775526,-0.002163537,-0.191563289
1609054416460371456,156,1609054416460371456,-0.019453165,-0.021106089,-0.020516291,0.005596547,-0.025438280,0.001441398,0.999659690,-0.000541371,-0.006190860,-0.000428101,0.004010622,-0.000575380,-0.009153154,0.006914675,-0.003419748,-0.002280106,-0.009773296,-0.002163212,-0.191504367
1609054416570194688,157,1609054416570194688,-0.019604846,-0.022238034,-0.020427556,0.005632122,-0.025430483,0.001415831,0.999659725,-0.001173363,-0.004951299,-0.000863917,0.014086280,-0.002167724,-0.001450742,0.006914670,-0.003419748,-0.002280099,-0.009773677,-0.002163275,-0.191514498
1609054416664018432,158,1609054416664018432,-0.019474313,-0.022946283,-0.020906273,0.005615246,-0.025458100,0.001430866,0.999659095,-0.000184345,-0.006560195,-0.002074404,0.008779676,0.000429344,-0.006409376,0.006914673,-0.003419753,-0.002280092,-0.009772621,-0.002163080,-0.191486454
1609054416761210112,159,1609054416761210112,-0.019615516,-0.023230663,-0.021700728,0.005597987,-0.025468246,0.001442004,0.999658918,-0.000246160,-0.007516968,-0.002706635,0.004849435,0.000041740,-0.008700310,0.006914680,-0.003419753,-0.002280087,-0.009770848,-0.002162717,-0.191439359
1609054416872062976,160,1609054416872062976,-0.021109838,-0.020141651,-0.021422845,0.005530549,-0.025490609,0.001412611,0.999658765,-0.002841984,0.000885237,-0.002355839,0.016755803,-0.004989446,0.003305642,0.006914748,-0.003419741,-0.002280075,-0.009772362,-0.002163051,-0.191479534
1609054416965483776,161,1609054416965483776,-0.020879508,-0.020224584,-0.021840602,0.005498469,-0.025485073,0.001409085,0.999659088,-0.001933886,-0.000434341,-0.002924552,0.010453238,-0.000197133,-0.003716999,0.006914748,-0.003419750,-0.002280071,-0.009771804,-0.002162929,-0.191464792
1609054417060499968,162,1609054417060499968,-0.021060189,-0.023004653,-0.021222254,0.005551019,-0.025494878,0.001390418,0.999658574,-0.001625197,-0.006012682,-0.002883936,0.003223996,0.001895059,-0.009617497,0.006914710,-0.003419751,-0.002280063,-0.009774163,-0.002163446,-0.191526814
1609054417171416064,163,1609054417171416064,-0.020512833,-0.025433559,-0.021405040,0.005627633,-0.025477744,0.001384699,0.999658590,-0.001471835,-0.006580203,-0.002262435,0.016133800,-0.000876898,-0.000274517,0.006914681,-0.003419763,-0.002280059,-0.009774247,-0.002163465,-0.191528998
1609054417265791232,164,1609054417265791232,-0.020384467,-0.025399347,-0.021851478,0.005585669,-0.025467000,0.001363873,0.999659128,-0.001125594,-0.006779877,-0.003040679,0.010869316,-0.000042189,-0.004909610,0.006914695,-0.003419768,-0.002280056,-0.009773538,-0.002163297,-0.191510549
1609054417361926400,165,1609054417361926400,-0.019864227,-0.025248408,-0.022344722,0.005553782,-0.025453578,0.001376929,0.999659630,-0.000240171,-0.007285693,-0.004307351,0.008284947,-0.003247941,-0.008787994,0.006914708,-0.003419779,-0.002280053,-0.009772960,-0.002163154,-0.191495489
1609054417472058880,166,1609054417472058880,-0.019915231,-0.025893277,-0.022737447,0.005595258,-0.025439230,0.001369364,0.999659774,-0.000763307,-0.005180742,-0.003733303,0.015349853,0.000529706,-0.000231505,0.006914708,-0.003419779,-0.002280053,-0.009772944,-0.002163150,-0.191495078
1609054417566003200,167,1609054417566003200,-0.020066114,-0.025818889,-0.022766669,0.005566561,-0.025452725,0.001366108,0.999659595,-0.000951605,-0.004913914,-0.003016049,0.011316642,-0.002329086,-0.003240119,0.006914720,-0.003419779,-0.002280049,-0.009773511,-0.002163300,-0.191509895
1609054417660468736,168,1609054417660468736,-0.019942586,-0.024685473,-0.022535825,0.005515114,-0.025465953,0.001369949,0.999659538,-0.000672646,-0.004411356,-0.002754326,0.001941408,-0.000278611,-0.012539211,0.006914745,-0.003419786,-0.002280044,-0.009774703,-0.002163624,-0.191541057
1609054417770445056,169,1609054417770445056,-0.020367871,-0.024971587,-0.022824927,0.005563468,-0.025456130,0.001374842,0.999659514,-0.001957646,-0.001614969,-0.002058859,0.014596600,0.001513796,-0.000094047,0.006914746,-0.003419782,-0.002280041,-0.009774472,-0.002163562,-0.191535018
1609054417864468224,170,1609054417864468224,-0.020201448,-0.024502170,-0.023054021,0.005534149,-0.025454700,0.001392894,0.999659688,-0.001239574,-0.002968008,-0.003528884,0.008848753,0.000468489,-0.006446887,0.006914759,-0.003419789,-0.002280038,-0.009774402,-0.002163544,-0.191533194
1609054417959754240,171,1609054417959754240,-0.020223043,-0.024210881,-0.023123365,0.005526601,-0.025438383,0.001402694,0.999660131,-0.001038149,-0.002392427,-0.003464665,0.006309873,0.000766979,-0.009161385,0.006914768,-0.003419792,-0.002280033,-0.009774907,-0.002163685,-0.191546403
1609054418070196480,172,1609054418070196480,-0.020382629,-0.024210225,-0.023423738,0.005540979,-0.025422379,0.001411257,0.999660447,-0.001252439,-0.000526238,-0.003205988,0.011161329,-0.001512389,-0.004403997,0.006914769,-0.003419792,-0.002280033,-0.009774932,-0.002163692,-0.191547082
1609054418164486400,173,1609054418164486400,-0.020695503,-0.023084888,-0.022062719,0.005476657,-0.025439112,0.001390384,0.999660405,-0.001264822,-0.000194310,-0.001448755,0.011045070,-0.000286658,-0.004119892,0.006914790,-0.003419792,-0.002280025,-0.009778996,-0.002164824,-0.191654504
1609054418259320320,174,1609054418259320320,-0.020625725,-0.022954463,-0.022168457,0.005469591,-0.025463988,0.001406393,0.999659788,-0.000905549,-0.002405899,-0.001782085,0.001711608,-0.001267972,-0.009660854,0.006914793,-0.003419797,-0.002280021,-0.009778919,-0.002164804,-0.191652472
1609054418370117376,175,1609054418370117376,-0.020819092,-0.022738780,-0.021860442,0.005502661,-0.025436160,0.001387469,0.999660341,-0.001295807,0.001489138,-0.001045919,0.016970389,0.001419020,-0.000414257,0.006914798,-0.003419798,-0.002280015,-0.009780068,-0.002165102,-0.191682892
1609054418464111104,176,1609054418464111104,-0.020808002,-0.022475350,-0.021827497,0.005516346,-0.025437024,0.001398167,0.999660229,-0.000809449,0.001259948,-0.001001138,0.010632096,-0.000308931,-0.004322323,0.006914802,-0.003419801,-0.002280012,-0.009780258,-0.002165151,-0.191687936
1609054418559254272,177,1609054418559254272,-0.020497226,-0.022325709,-0.022270804,0.005505880,-0.025417950,0.001400071,0.999660769,-0.000299107,0.000105410,-0.002122087,0.002626542,0.001514962,-0.010148561,0.006914803,-0.003419808,-0.002280009,-0.009779347,-0.002164919,-0.191663732
1609054418669648128,178,1609054418669648128,-0.020601998,-0.022100641,-0.022352442,0.005520023,-0.025385305,0.001379483,0.999661549,-0.001205060,0.003689417,-0.001206350,0.014560780,-0.000071175,-0.001735740,0.006914802,-0.003419808,-0.002280008,-0.009779427,-0.002164939,-0.191665876
1609054418763825408,179,1609054418763825408,-0.020592656,-0.021781801,-0.022384272,0.005504997,-0.025414233,0.001387232,0.999660886,-0.000717682,0.002491013,-0.001906038,0.008910444,-0.001065002,-0.005491348,0.006914804,-0.003419810,-0.002280005,-0.009779632,-0.002164990,-0.191671402
1609054418858804480,180,1609054418858804480,-0.020473583,-0.021700238,-0.021738465,0.005523089,-0.025433721,0.001411451,0.999660257,-0.000268978,0.000256095,-0.000748250,0.007323466,-0.002697470,-0.008429445,0.006914804,-0.003419813,-0.002280000,-0.009781365,-0.002165420,-0.191718389
1609054418969802240,181,1609054418969802240,-0.020298695,-0.022005119,-0.021269707,0.005499691,-0.025413608,0.001363712,0.999660964,-0.000084759,0.000209435,-0.000503498,0.011078172,-0.002903894,-0.003836313,0.006914800,-0.003419817,-0.002279994,-0.009782607,-0.002165723,-0.191752165
1609054419063722240,182,1609054419063722240,-0.020134110,-0.021896570,-0.021185050,0.005479964,-0.025391534,0.001339730,0.999661665,0.000924955,-0.000233487,-0.000659501,0.010572512,-0.000233086,-0.007919536,0.006914802,-0.003419820,-0.002279991,-0.009782798,-0.002165769,-0.191757387
1609054419159015424,183,1609054419159015424,-0.020008235,-0.021628089,-0.021329175,0.005469074,-0.025381897,0.001340464,0.999661969,0.000993353,-0.001608817,-0.001668466,0.001368370,-0.000741516,-0.010358471,0.006914807,-0.003419822,-0.002279988,-0.009782580,-0.002165718,-0.191751373
1609054419270012672,184,1609054419270012672,-0.019942448,-0.021536787,-0.021450181,0.005463474,-0.025375150,0.001324061,0.999662192,0.000533740,0.000551290,-0.001475181,0.013143221,-0.002008438,-0.000664712,0.006914807,-0.003419822,-0.002279988,-0.009782624,-0.002165727,-0.191752606
1609054419363985664,185,1609054419363985664,-0.019862936,-0.023080331,-0.021217847,0.005505070,-0.025392148,0.001325892,0.999661530,0.000970890,-0.003050590,-0.001128622,0.005780106,-0.000849428,-0.008646858,0.006914785,-0.003419822,-0.002279985,-0.009783301,-0.002165873,-0.191771742
1609054419459335168,186,1609054419459335168,-0.019817314,-0.023032338,-0.021210412,0.005482137,-0.025417046,0.001335396,0.999661011,0.001034808,-0.004554179,-0.001212361,0.000969856,-0.000448702,-0.011111420,0.006914788,-0.003419822,-0.002279985,-0.009783419,-0.002165899,-0.191775117
1609054419570042368,187,1609054419570042368,-0.020001671,-0.023196348,-0.020988280,0.005497908,-0.025414084,0.001310886,0.999661032,0.000203511,-0.001560384,-0.001180117,0.015777288,0.002029185,-0.001370677,0.006914791,-0.003419819,-0.002279983,-0.009784097,-0.002166037,-0.191794498
1609054419663929344,188,1609054419663929344,-0.019877123,-0.023045035,-0.021205020,0.005481662,-0.025414531,0.001314000,0.999661106,0.000483160,-0.001944847,-0.001615291,0.007912030,0.001222396,-0.006413779,0.006914798,-0.003419821,-0.002279981,-0.009783787,-0.002165975,-0.191785649
1609054419759082496,189,1609054419759082496,-0.019938505,-0.022717674,-0.021393418,0.005488127,-0.025409727,0.001320739,0.999661184,0.000073984,-0.001605089,-0.001974281,0.004636928,-0.001109771,-0.008828570,0.006914805,-0.003419822,-0.002279978,-0.009783600,-0.002165937,-0.191780272
1609054419869924096,190,1609054419869924096,-0.019986968,-0.022654980,-0.021492485,0.005539165,-0.025403086,0.001334008,0.999661053,-0.000834515,0.000539166,-0.001786989,0.011721644,-0.000126083,-0.002402176,0.006914805,-0.003419822,-0.002279978,-0.009783651,-0.002165947,-0.191781753
1609054419963737600,191,1609054419963737600,-0.019770968,-0.022683495,-0.021701622,0.005512070,-0.025411996,0.001327295,0.999660985,-0.000555197,-0.000244977,-0.002132107,0.010063185,-0.000129339,-0.006498904,0.006914806,-0.003419827,-0.002279975,-0.009783488,-0.002165914,-0.191777050
1609054420058952448,192,1609054420058952448,-0.019979505,-0.022410283,-0.021976829,0.005495369,-0.025437987,0.001332988,0.999660409,-0.000412591,-0.001297207,-0.002461652,0.002563981,0.000431205,-0.010769759,0.006914811,-0.003419826,-0.002279972,-0.009783172,-0.002165849,-0.191767930
1609054420170028544,193,1609054420170028544,-0.020102025,-0.022146145,-0.022089117,0.005519818,-0.025406363,0.001320824,0.999661094,-0.001028725,0.002966742,-0.002283547,0.013029673,-0.000724152,-0.002460379,0.006914813,-0.003419827,-0.002279970,-0.009783356,-0.002165885,-0.191773264
1609054420263888896,194,1609054420263888896,-0.020100680,-0.021848485,-0.022035814,0.005517219,-0.025400398,0.001335182,0.999661241,-0.000916328,0.003145856,-0.002291063,0.010980517,-0.001619061,-0.003363631,0.006914815,-0.003419829,-0.002279967,-0.009783836,-0.002165981,-0.191787194
1609054420359045376,195,1609054420359045376,-0.019501351,-0.022945646,-0.022168811,0.005550618,-0.025395436,0.001369003,0.999661137,-0.000417234,-0.001284546,-0.002448447,0.002198731,-0.002069923,-0.011076055,0.006914796,-0.003419838,-0.002279963,-0.009783931,-0.002166001,-0.191789965
1609054420469975296,196,1609054420469975296,-0.019600581,-0.022784853,-0.022361080,0.005539859,-0.025389478,0.001324545,0.999661408,-0.001193072,0.001486573,-0.002448489,0.012001732,-0.001246632,-0.002915957,0.006914796,-0.003419838,-0.002279963,-0.009783963,-0.002166007,-0.191790914
1609054420563677952,197,1609054420563677952,-0.019985627,-0.022315635,-0.022096624,0.005496820,-0.025407892,0.001322238,0.999661180,-0.001573403,0.000129032,-0.002887708,0.005538700,-0.000174217,-0.008352651,0.006914804,-0.003419836,-0.002279959,-0.009784869,-0.002166199,-0.191817567
1609054420658852352,198,1609054420658852352,-0.020244435,-0.021957828,-0.022285712,0.005503827,-0.025398506,0.001320783,0.999661382,-0.001703991,0.000329129,-0.002902389,0.001806593,0.002329289,-0.009544658,0.006914808,-0.003419836,-0.002279957,-0.009784932,-0.002166213,-0.191819431
1609054420770562816,199,1609054420770562816,-0.020749557,-0.021504383,-0.021894429,0.005478636,-0.025381278,0.001287658,0.999662001,-0.002343107,0.002349905,-0.001993496,0.010364611,-0.000536286,-0.003398028,0.006914813,-0.003419832,-0.002279954,-0.009786136,-0.002166464,-0.191855177
1609054420864519936,200,1609054420864519936,-0.020931695,-0.021346170,-0.021892472,0.005459690,-0.025371909,0.001285504,0.999662346,-0.002102645,0.001417559,-0.001531280,0.010783412,-0.002541708,-0.004218012,0.006914812,-0.003419833,-0.002279954,-0.009786379,-0.002166512,-0.191862425
1609054420959661824,201,1609054420959661824,-0.021154602,-0.021008313,-0.021970454,0.005477842,-0.025397935,0.001311913,0.999661551,-0.001583842,0.000246613,-0.001971106,0.003032525,0.002679757,-0.010230067,0.006914814,-0.003419833,-0.002279954,-0.009786447,-0.002166525,-0.191864481
1609054421070539776,202,1609054421070539776,-0.021733993,-0.021325893,-0.021693506,0.005500889,-0.025420017,0.001292065,0.999660889,-0.002477267,0.002386750,-0.001906441,0.013027580,-0.000314677,0.000128958,0.006914806,-0.003419827,-0.002279951,-0.009787324,-0.002166688,-0.191890858
1609054421165136384,203,1609054421165136384,-0.021962875,-0.021136797,-0.021720644,0.005468386,-0.025430064,0.001285950,0.999660820,-0.002258795,0.000754259,-0.000732048,0.008980331,-0.000664447,-0.007008426,0.006914807,-0.003419827,-0.002279951,-0.009787344,-0.002166692,-0.191891464
1609054421259689216,204,1609054421259689216,-0.022565004,-0.021252507,-0.021473160,0.005429880,-0.025427628,0.001251779,0.999661135,-0.002241801,-0.000677716,-0.000438225,0.006937862,0.000788390,-0.008539073,0.006914805,-0.003419822,-0.002279949,-0.009787799,-0.002166768,-0.191905038
1609054421370331904,205,1609054421370331904,-0.022877818,-0.021090698,-0.021428056,0.005440594,-0.025410269,0.001235099,0.999661539,-0.002828930,0.001769742,-0.000467217,0.012234856,-0.000368085,-0.003176098,0.006914805,-0.003419822,-0.002279949,-0.009787852,-0.002166776,-0.191906620
1609054421464591360,206,1609054421464591360,-0.022919628,-0.021170017,-0.021222354,0.005468405,-0.025402152,0.001253146,0.999661571,-0.002653797,0.001113009,-0.000341525,0.005783665,0.000287898,-0.008520573,0.006914802,-0.003419826,-0.002279945,-0.009788172,-0.002166822,-0.191916179
1609054421559391744,207,1609054421559391744,-0.022966953,-0.021009193,-0.021232128,0.005464029,-0.025420307,0.001263186,0.999661121,-0.001639185,0.000189860,-0.000953490,0.002029485,0.000572281,-0.009746189,0.006914801,-0.003419829,-0.002279944,-0.009788112,-0.002166813,-0.191914388
1609054421670470400,208,1609054421670470400,-0.023206947,-0.020741600,-0.021315180,0.005502980,-0.025447283,0.001257200,0.999660229,-0.002259891,0.002750827,-0.001230622,0.012467937,-0.001414011,-0.003088494,0.006914801,-0.003419829,-0.002279944,-0.009788128,-0.002166815,-0.191914878
