time,field.header.seq,field.header.stamp,field.pose.pose.position.x,field.pose.pose.position.y,field.pose.pose.position.z,field.pose.pose.orientation.x,field.pose.pose.orientation.y,field.pose.pose.orientation.z,field.pose.pose.orientation.w,field.twist.twist.linear.x,field.twist.twist.linear.y,field.twist.twist.linear.z,field.twist.twist.angular.x,field.twist.twist.angular.y,field.twist.twist.angular.z,gbx,gby,gbz,abx,aby,abz
1609055136294738176,0,1609055136294738176,0.000091827,0.000135239,0.000085628,0.002476857,-0.031549594,-0.000001582,0.999499119,0.000839456,0.001058733,0.001175334,0.018287830,-0.005725328,0.006267237,0.007022806,-0.003655665,-0.002309867,-0.010984947,-0.000264174,-0.172306544
1609055136397681920,1,1609055136397681920,0.000212770,-0.001181639,-0.000739570,0.003444484,-0.031472342,0.000019156,0.999498688,0.001313904,-0.009245641,-0.005301929,0.021877954,-0.008731577,0.008140497,0.007022814,-0.003655659,-0.002309867,-0.010308488,-0.000231964,-0.161661987
1609055136469608448,2,1609055136469608448,0.000156392,-0.002917858,-0.002551805,0.003715661,-0.031521368,-0.000139087,0.999496162,0.000406015,-0.023846791,-0.016684166,-0.002082998,-0.000116970,-0.011042463,0.007022822,-0.003655657,-0.002309866,-0.009577456,-0.000186434,-0.150140764
1609055136569804288,3,1609055136569804288,-0.000440790,-0.006104530,-0.008252357,0.003887811,-0.031744022,-0.000229023,0.999488444,-0.002616118,-0.033293786,-0.037868805,0.000996398,0.002431320,-0.011959755,0.007022834,-0.003655657,-0.002309865,-0.008104038,-0.000072979,-0.126898812
1609055136672887552,4,1609055136672887552,-0.003507951,-0.010282898,-0.017507928,0.003990362,-0.032484541,-0.000311884,0.999464224,-0.013026647,-0.041620521,-0.062353488,0.001359467,-0.001933411,-0.010726664,0.007022849,-0.003655659,-0.002309865,-0.006720702,0.000047635,-0.105095902
1609055136775919360,5,1609055136775919360,-0.009304833,-0.015177437,-0.027512266,0.003928851,-0.033189751,-0.000305034,0.999441300,-0.027892396,-0.046851899,-0.078198396,0.007578692,-0.002848286,-0.003538103,0.007022872,-0.003655670,-0.002309865,-0.006131780,0.000103382,-0.095858626
1609055136879291136,6,1609055136879291136,-0.007464865,-0.019216127,-0.039678617,0.003756547,-0.032393648,-0.000323036,0.999468076,-0.017713292,-0.049199388,-0.096585643,0.011012062,-0.004749999,-0.001562118,0.007022881,-0.003655683,-0.002309864,-0.005466868,0.000169379,-0.085498548
1609055136982205952,7,1609055136982205952,-0.012367456,-0.023992349,-0.049639118,0.003621342,-0.032659799,-0.000359799,0.999459901,-0.026633966,-0.054128255,-0.106029840,0.011036105,-0.006922430,0.000346201,0.007022901,-0.003655698,-0.002309863,-0.005505214,0.000165431,-0.086094755
1609055137085417472,8,1609055137085417472,-0.016527914,-0.024912911,-0.062068446,0.003143340,-0.032744621,-0.000383271,0.999458735,-0.031359000,-0.049162818,-0.118088347,0.011604260,-0.006682175,-0.000450919,0.007022910,-0.003655714,-0.002309864,-0.005368756,0.000179715,-0.083978647
1609055137188630016,9,1609055137188630016,-0.023835987,-0.026418563,-0.070343201,0.002836970,-0.032966669,-0.000434137,0.999452331,-0.041157409,-0.044770861,-0.117919219,0.014470326,-0.005108766,0.002592635,0.007022924,-0.003655737,-0.002309862,-0.005772664,0.000137423,-0.090223375
1609055137291611136,10,1609055137291611136,-0.028153642,-0.027681009,-0.070323479,0.002654096,-0.032905544,-0.000414814,0.999454856,-0.042850468,-0.039427502,-0.102219858,0.019827371,-0.008811510,0.008275551,0.007022931,-0.003655762,-0.002309861,-0.006810208,0.000030345,-0.106203901
1609055137394832640,11,1609055137394832640,-0.032867451,-0.030563281,-0.078550715,0.002572196,-0.032941345,-0.000398455,0.999453897,-0.045157987,-0.040250646,-0.104880036,0.021116434,-0.007953186,0.008857582,0.007022933,-0.003655766,-0.002309861,-0.007001037,0.000011073,-0.109133850
1609055137497732864,12,1609055137497732864,-0.033205678,-0.025411228,-0.078736522,0.002163610,-0.032685706,-0.000446061,0.999463238,-0.039351727,-0.027476352,-0.093437964,0.021856887,-0.010896817,0.009809329,0.007022936,-0.003655798,-0.002309857,-0.007676775,-0.000055439,-0.119475451
1609055137569763840,13,1609055137569763840,-0.020014311,-0.028433143,-0.072833318,0.002067081,-0.031766355,-0.000472564,0.999493073,-0.015375973,-0.036259108,-0.080984269,-0.000690467,0.000695566,-0.011567636,0.007022943,-0.003655881,-0.002309859,-0.008387575,-0.000123379,-0.130334200
1609055137670088192,14,1609055137670088192,-0.015216537,-0.019401917,-0.074304427,0.001552392,-0.031435147,-0.000499124,0.999504463,-0.005156057,-0.019440330,-0.074999351,-0.000368355,0.000061696,-0.009285311,0.007022956,-0.003655923,-0.002309856,-0.008728414,-0.000154483,-0.135555434
1609055137773097728,15,1609055137773097728,-0.013690807,-0.021728768,-0.071153049,0.001540064,-0.031206389,-0.000552010,0.999511623,-0.001544478,-0.021298150,-0.063264509,0.003243738,-0.001487755,-0.008208429,0.007022968,-0.003655970,-0.002309855,-0.009213483,-0.000195469,-0.143018828
1609055137876194560,16,1609055137876194560,-0.008194377,-0.025256145,-0.065105466,0.001552479,-0.030953719,-0.000542570,0.999519466,0.007556082,-0.023694733,-0.049825667,0.007236089,-0.001667054,-0.004325693,0.007022966,-0.003656008,-0.002309855,-0.009727260,-0.000235214,-0.150970108
1609055137979385600,17,1609055137979385600,-0.006208890,-0.026359626,-0.061353662,0.001506366,-0.030901636,-0.000554109,0.999521142,0.010930148,-0.023006231,-0.040466688,0.007080071,-0.003986415,-0.004177787,0.007022976,-0.003656027,-0.002309853,-0.010053612,-0.000258176,-0.156058185
1609055138082436864,18,1609055138082436864,-0.003612802,-0.028368665,-0.064575113,0.001480718,-0.030805397,-0.000561539,0.999524147,0.014734786,-0.024025745,-0.041390056,0.007500224,-0.002897334,-0.001734670,0.007022987,-0.003656048,-0.002309853,-0.010088265,-0.000260345,-0.156602946
1609055138185598464,19,1609055138185598464,-0.006763562,-0.025132662,-0.045559924,0.001298762,-0.030874622,-0.000539156,0.999522276,0.011171709,-0.016444386,-0.014086661,0.015317064,-0.007190263,0.003311568,0.007023023,-0.003656055,-0.002309850,-0.010811537,-0.000299342,-0.168084234
1609055138288430592,20,1609055138288430592,-0.007922113,-0.029554549,-0.045814206,0.001356950,-0.030928021,-0.000553284,0.999520540,0.009742735,-0.021692189,-0.013873657,0.015829377,-0.007307200,0.003747449,0.007023022,-0.003656046,-0.002309849,-0.010847637,-0.000300935,-0.168662321
1609055138391639808,21,1609055138391639808,0.000609935,-0.024792930,-0.045065969,0.001196534,-0.030726219,-0.000533688,0.999526980,0.020269843,-0.013249739,-0.012041570,0.018619880,-0.009508071,0.006330338,0.007023057,-0.003656102,-0.002309854,-0.010908498,-0.000302941,-0.169646505
1609055138498102784,22,1609055138498102784,-0.001688812,-0.022526496,-0.041842006,0.001132975,-0.030828365,-0.000482534,0.999523934,0.017349518,-0.009261794,-0.007924376,0.021699317,-0.011322748,0.008433449,0.007023086,-0.003656092,-0.002309855,-0.011024578,-0.000305329,-0.171545168
1609055138570419456,23,1609055138570419456,-0.001269824,-0.025340157,-0.042848709,0.001131436,-0.030795887,-0.000510300,0.999524924,0.017639630,-0.017852641,-0.011225010,-0.000096423,0.001738717,-0.011073766,0.007023079,-0.003656095,-0.002309854,-0.011017391,-0.000305225,-0.171426995
1609055138671918336,24,1609055138671918336,-0.000784440,-0.021838061,-0.043768643,0.000957941,-0.030773130,-0.000558377,0.999525780,0.017949672,-0.011217482,-0.010687032,0.000430179,0.000648405,-0.009397836,0.007023119,-0.003656104,-0.002309850,-0.011019900,-0.000305185,-0.171469235
1609055138775399424,25,1609055138775399424,-0.002652210,-0.023446624,-0.040362312,0.000960324,-0.030793485,-0.000553643,0.999525154,0.014971526,-0.011377148,-0.005386328,0.006835303,-0.002944122,-0.005460130,0.007023125,-0.003656092,-0.002309851,-0.011115036,-0.000303124,-0.173078052
1609055138879186688,26,1609055138879186688,0.004328454,-0.024373768,-0.036246680,0.000979545,-0.030657579,-0.000562491,0.999529308,0.023187908,-0.010245824,-0.000299728,0.005775305,-0.007128943,-0.003645803,0.007023120,-0.003656141,-0.002309852,-0.011209707,-0.000299436,-0.174698995
1609055138981231616,27,1609055138981231616,-0.002843278,-0.028693339,-0.041535390,0.001073540,-0.030860667,-0.000541749,0.999522973,0.014164538,-0.012830513,-0.004955377,0.011709723,-0.004979545,-0.000137482,0.007023098,-0.003656094,-0.002309856,-0.011106898,-0.000305281,-0.172913416
1609055139084480768,28,1609055139084480768,-0.002064861,-0.026281710,-0.041649894,0.000960081,-0.030889698,-0.000548834,0.999522188,0.015662206,-0.007292586,-0.004883299,0.015280122,-0.008062633,0.001683583,0.007023141,-0.003656105,-0.002309857,-0.011115424,-0.000304642,-0.173063340
1609055139188335360,29,1609055139188335360,-0.004714971,-0.028575483,-0.052858252,0.000958945,-0.030951719,-0.000563395,0.999520262,0.012445044,-0.008362466,-0.016443890,0.018366177,-0.007381663,0.006002652,0.007023138,-0.003656085,-0.002309858,-0.010926992,-0.000322013,-0.169715948
1609055139289583872,30,1609055139289583872,-0.002332838,-0.026850207,-0.055630184,0.000893809,-0.030849327,-0.000538612,0.999523501,0.016488733,-0.004555070,-0.018401931,0.018271077,-0.007772432,0.005985863,0.007023165,-0.003656118,-0.002309863,-0.010911057,-0.000323781,-0.169429887
1609055139392522240,31,1609055139392522240,-0.013368212,-0.027445567,-0.062229185,0.000916140,-0.031091897,-0.000491749,0.999515989,0.002097748,-0.003500965,-0.023553078,0.020779002,-0.007613809,0.007744255,0.007023182,-0.003656011,-0.002309869,-0.010836190,-0.000333625,-0.168069189
1609055139496001280,32,1609055139496001280,-0.010748819,-0.028896835,-0.056861594,0.000980064,-0.031000123,-0.000473913,0.999518788,0.006168660,-0.003195853,-0.015894780,0.019930301,-0.005662926,0.007487784,0.007023170,-0.003656068,-0.002309866,-0.010958707,-0.000315325,-0.170311606
1609055139599014400,33,1609055139599014400,-0.012784080,-0.027539942,-0.052967247,0.000926685,-0.031050184,-0.000503973,0.999517270,0.004647269,0.000253445,-0.009026060,0.021483805,-0.009509509,0.009957176,0.007023189,-0.003656064,-0.002309865,-0.011044156,-0.000300974,-0.171888727
1609055139669296384,34,1609055139669296384,-0.010538469,-0.025987767,-0.051315802,0.000800927,-0.030933746,-0.000553154,0.999520963,0.009030093,-0.003492094,-0.009458495,0.000666443,-0.001362144,-0.010131066,0.007023209,-0.003656119,-0.002309861,-0.011081921,-0.000293945,-0.172591357
1609055139771072768,35,1609055139771072768,-0.010643864,-0.024778170,-0.056305050,0.000763477,-0.030810530,-0.000536639,0.999524807,0.010619647,-0.000163295,-0.014115737,0.002858790,-0.001629979,-0.007223193,0.007023236,-0.003656167,-0.002309866,-0.011021668,-0.000306224,-0.171461661
1609055139874389760,36,1609055139874389760,-0.008751405,-0.024831007,-0.051458064,0.000797977,-0.030684842,-0.000481377,0.999528675,0.013841780,-0.000232080,-0.007139382,0.002821024,-0.001020328,-0.007158821,0.007023236,-0.003656210,-0.002309871,-0.011110092,-0.000286403,-0.173138249
1609055139977259520,37,1609055139977259520,-0.005914895,-0.021310100,-0.041740717,0.000710660,-0.030599974,-0.000509089,0.999531329,0.018004482,0.004770198,0.004654697,0.007215180,-0.002133931,-0.006243438,0.007023269,-0.003656248,-0.002309866,-0.011253622,-0.000251322,-0.175896572
1609055140080521472,38,1609055140080521472,-0.004061612,-0.022274576,-0.042435668,0.000765397,-0.030600460,-0.000513652,0.999531271,0.020565346,0.003596788,0.003874146,0.006275041,-0.008125992,-0.004561997,0.007023246,-0.003656272,-0.002309868,-0.011237340,-0.000255664,-0.175579037
1609055140183890432,39,1609055140183890432,-0.009039538,-0.026762409,-0.053350810,0.000925733,-0.030738303,-0.000478333,0.999526924,0.013820721,-0.001210570,-0.008948479,0.012549856,-0.008468916,0.000829146,0.007023185,-0.003656215,-0.002309882,-0.011092594,-0.000297139,-0.172717095
1609055140286782464,40,1609055140286782464,-0.008009502,-0.023470093,-0.044560874,0.000884983,-0.030716314,-0.000470494,0.999527640,0.016234253,0.003996256,0.000822814,0.012230476,-0.005643255,0.000333421,0.007023229,-0.003656232,-0.002309876,-0.011214189,-0.000260546,-0.175146011
1609055140389881856,41,1609055140389881856,-0.004550421,-0.022371520,-0.042970320,0.000889952,-0.030588764,-0.000456579,0.999531554,0.021263297,0.005213599,0.002427038,0.018329274,-0.006400797,0.006787241,0.007023232,-0.003656273,-0.002309873,-0.011233365,-0.000254486,-0.175533365
1609055140493188096,42,1609055140493188096,-0.001298516,-0.022617172,-0.042532895,0.000931928,-0.030513996,-0.000419123,0.999533817,0.024528668,0.004364702,0.003271815,0.020862075,-0.006437893,0.008296098,0.007023223,-0.003656298,-0.002309878,-0.011236339,-0.000253516,-0.175594072
1609055140596115200,43,1609055140596115200,0.000589120,-0.022455131,-0.042714720,0.000978968,-0.030551112,-0.000368716,0.999532658,0.025819785,0.004786545,0.002922296,0.022321122,-0.010192563,0.009494430,0.007023220,-0.003656294,-0.002309879,-0.011231590,-0.000255189,-0.175495064
1609055140700333824,44,1609055140700333824,-0.001149598,-0.023734483,-0.042037733,0.001034623,-0.030706195,-0.000404804,0.999527836,0.022326212,0.003666547,0.003717385,0.021060064,-0.012335422,0.007635825,0.007023195,-0.003656244,-0.002309879,-0.011236974,-0.000253244,-0.175608405
1609055140769939968,45,1609055140769939968,-0.005315024,-0.023181890,-0.050671174,0.000923238,-0.030746484,-0.000460893,0.999526682,0.016872959,-0.001301479,-0.008716027,0.000104799,-0.003340892,-0.009451581,0.007023214,-0.003656209,-0.002309880,-0.011142436,-0.000288594,-0.173598781
1609055140871591168,46,1609055140871591168,-0.002662962,-0.021783912,-0.050849677,0.000878871,-0.030652253,-0.000459041,0.999529617,0.021290013,-0.000304402,-0.008311530,-0.000092649,0.001013260,-0.010120048,0.007023230,-0.003656242,-0.002309877,-0.011148696,-0.000286174,-0.173732963
1609055140974408704,47,1609055140974408704,-0.004373885,-0.021373788,-0.060149585,0.000855003,-0.030668965,-0.000476285,0.999529117,0.018067645,-0.000334432,-0.017662003,-0.000198628,0.000827847,-0.009963712,0.007023243,-0.003656203,-0.002309877,-0.011061349,-0.000320709,-0.171845815
1609055141077489408,48,1609055141077489408,-0.006620198,-0.019604226,-0.057274526,0.000847473,-0.030737211,-0.000475921,0.999527028,0.014496390,0.003397688,-0.012385509,0.006811999,-0.002656855,-0.006327552,0.007023254,-0.003656164,-0.002309873,-0.011107590,-0.000301914,-0.172852897
1609055141181153024,49,1609055141181153024,-0.004436568,-0.022943715,-0.046209647,0.001005409,-0.030732172,-0.000440681,0.999527052,0.017445470,-0.000648001,0.002933211,0.010986574,-0.008628230,0.000233979,0.007023186,-0.003656190,-0.002309873,-0.011227239,-0.000252313,-0.175468218
1609055141283681536,50,1609055141283681536,-0.006667682,-0.022364047,-0.059683315,0.001016520,-0.030812004,-0.000473330,0.999524568,0.014324547,-0.001040991,-0.012435689,0.008687443,-0.005512653,-0.002353123,0.007023187,-0.003656173,-0.002309870,-0.011096685,-0.000306769,-0.172604762
1609055141386656256,51,1609055141386656256,-0.010716888,-0.021894385,-0.058457752,0.001032179,-0.030903059,-0.000454688,0.999521750,0.009085079,-0.000515321,-0.010212256,0.015876468,-0.004064853,0.002829202,0.007023194,-0.003656127,-0.002309867,-0.011120526,-0.000296802,-0.173128069
1609055141489892352,52,1609055141489892352,-0.009534235,-0.019007203,-0.054900185,0.000981118,-0.030794480,-0.000434444,0.999525162,0.011549179,0.004474728,-0.004784851,0.019863550,-0.010669992,0.005986337,0.007023237,-0.003656164,-0.002309864,-0.011163875,-0.000278776,-0.174077258
1609055141592767488,53,1609055141592767488,-0.006978312,-0.021736258,-0.044050611,0.001082563,-0.030688948,-0.000453536,0.999528294,0.014801393,0.000955268,0.008931015,0.017330553,-0.011307269,0.005880272,0.007023182,-0.003656201,-0.002309861,-0.011266017,-0.000235933,-0.176319555
1609055141696143616,54,1609055141696143616,-0.006874984,-0.018274962,-0.056163176,0.001089671,-0.030702808,-0.000392129,0.999527887,0.014910621,0.006901531,-0.005296468,0.023281308,-0.009751018,0.010014027,0.007023227,-0.003656222,-0.002309860,-0.011152464,-0.000283436,-0.173814747
1609055141799069184,55,1609055141799069184,-0.005385167,-0.021870971,-0.045991602,0.001283382,-0.030728259,-0.000360544,0.999526887,0.017683540,0.001627149,0.007199634,0.023940969,-0.006782646,0.010644621,0.007023156,-0.003656239,-0.002309857,-0.011244926,-0.000244728,-0.175861511
1609055141869473792,56,1609055141869473792,-0.007564881,-0.024264644,-0.052518674,0.001201772,-0.030720342,-0.000435637,0.999527202,0.015019616,-0.008036776,-0.003504458,-0.002435208,0.000120030,-0.012128057,0.007023138,-0.003656229,-0.002309857,-0.011185835,-0.000269257,-0.174549426
1609055141971397376,57,1609055141971397376,-0.008645970,-0.027415766,-0.055314978,0.001262156,-0.030720775,-0.000416884,0.999527122,0.013914231,-0.010895329,-0.005837402,0.000751505,-0.003306638,-0.009101650,0.007023118,-0.003656216,-0.002309855,-0.011164337,-0.000277967,-0.174071272
1609055142074043136,58,1609055142074043136,-0.003156233,-0.024377105,-0.050912658,0.001161729,-0.030537440,-0.000423750,0.999532859,0.022220071,-0.004816706,0.000530573,0.002618483,-0.000795934,-0.008121168,0.007023175,-0.003656286,-0.002309852,-0.011204825,-0.000262046,-0.174974204
1609055142177167360,59,1609055142177167360,-0.003710907,-0.027564015,-0.048669093,0.001204488,-0.030553641,-0.000433812,0.999532309,0.020541423,-0.008246379,0.003795626,0.005325439,-0.002562336,-0.004077704,0.007023149,-0.003656260,-0.002309853,-0.011221601,-0.000255523,-0.175352019
1609055142280574208,60,1609055142280574208,-0.005280637,-0.027929756,-0.053103828,0.001191303,-0.030612443,-0.000452684,0.999530517,0.017879909,-0.007255973,-0.001817853,0.009703109,-0.008116613,-0.004124652,0.007023164,-0.003656252,-0.002309853,-0.011183646,-0.000269946,-0.174491668
1609055142383740672,61,1609055142383740672,-0.003190372,-0.028737686,-0.053326732,0.001223259,-0.030679021,-0.000460845,0.999528433,0.020300404,-0.005503319,-0.001298460,0.015053585,-0.008812330,0.002363442,0.007023163,-0.003656253,-0.002309853,-0.011183404,-0.000270037,-0.174486096
1609055142487863296,62,1609055142487863296,-0.013947719,-0.028198111,-0.058183394,0.001186042,-0.030918868,-0.000434812,0.999521099,0.005664619,-0.003374184,-0.007195816,0.016067959,-0.005133761,0.004280870,0.007023209,-0.003656129,-0.002309853,-0.011148758,-0.000282510,-0.173697437
1609055142590128128,63,1609055142590128128,-0.008299837,-0.027823306,-0.057335609,0.001169496,-0.030708762,-0.000445984,0.999527591,0.014615535,-0.002579676,-0.005575518,0.019415796,-0.009079404,0.005747122,0.007023216,-0.003656219,-0.002309848,-0.011161511,-0.000278067,-0.173985094
1609055142692801536,64,1609055142692801536,-0.005566442,-0.027644400,-0.061251519,0.001171703,-0.030635711,-0.000425605,0.999529839,0.018527365,-0.002411298,-0.009496021,0.020845320,-0.005563451,0.007466351,0.007023227,-0.003656249,-0.002309851,-0.011138023,-0.000286095,-0.173454376
1609055142795998208,65,1609055142795998208,-0.009438138,-0.025332882,-0.059159115,0.001086995,-0.030740343,-0.000415783,0.999526726,0.013069223,0.001087524,-0.005620292,0.019296274,-0.006874597,0.008688572,0.007023279,-0.003656204,-0.002309850,-0.011160704,-0.000278456,-0.173968672
1609055142898846208,66,1609055142898846208,-0.006442494,-0.023515811,-0.048267655,0.001079953,-0.030729405,-0.000401635,0.999527076,0.017587768,0.004572027,0.007894342,0.021489475,-0.009616366,0.009332348,0.007023299,-0.003656246,-0.002309847,-0.011242477,-0.000251108,-0.175817527
1609055142969356288,67,1609055142969356288,-0.004793896,-0.027075361,-0.043795464,0.001062680,-0.030665548,-0.000444338,0.999529038,0.019752543,-0.006806384,0.009822495,-0.000885480,0.001697613,-0.010735402,0.007023261,-0.003656268,-0.002309849,-0.011271026,-0.000241594,-0.176462637
1609055143073289472,68,1609055143073289472,-0.004441602,-0.022741884,-0.038384099,0.000956274,-0.030700236,-0.000405689,0.999528097,0.019643884,0.000983150,0.015299289,0.004104996,-0.002851471,-0.006279645,0.007023344,-0.003656263,-0.002309839,-0.011301686,-0.000231477,-0.177156134
1609055143173997824,69,1609055143173997824,-0.001044592,-0.021962552,-0.035729060,0.000968733,-0.030654267,-0.000372825,0.999529509,0.023511509,0.002700674,0.017228088,0.002898555,-0.002252102,-0.007538401,0.007023356,-0.003656290,-0.002309838,-0.011309696,-0.000228828,-0.177337092
1609055143277559040,70,1609055143277559040,-0.001945357,-0.020369091,-0.040114242,0.000920371,-0.030752379,-0.000394029,0.999526532,0.020809817,0.005270566,0.010922797,0.007411198,-0.006003853,-0.004014986,0.007023379,-0.003656250,-0.002309833,-0.011266613,-0.000243154,-0.176363036
1609055143381267456,71,1609055143381267456,-0.000676281,-0.018697371,-0.038557485,0.000915499,-0.030813212,-0.000387007,0.999524666,0.020986967,0.006062051,0.011345036,0.007152057,-0.006885741,-0.003700470,0.007023392,-0.003656245,-0.002309827,-0.011269616,-0.000242153,-0.176430574
1609055143483867904,72,1609055143483867904,-0.001159478,-0.021259478,-0.038519189,0.001006795,-0.030912272,-0.000410067,0.999521510,0.019409610,0.002352319,0.010370872,0.012364788,-0.006716524,-0.000746319,0.007023351,-0.003656216,-0.002309824,-0.011261616,-0.000244831,-0.176252330
1609055143586970112,73,1609055143586970112,-0.002256973,-0.024041000,-0.036715956,0.001078072,-0.031016895,-0.000413658,0.999518193,0.017016701,-0.001982541,0.011211883,0.016861852,-0.007021523,0.002618644,0.007023313,-0.003656172,-0.002309816,-0.011267098,-0.000243017,-0.176372917
1609055143690078464,74,1609055143690078464,-0.005763687,-0.028679689,-0.036178897,0.001208514,-0.031124777,-0.000417630,0.999514689,0.012363277,-0.007372532,0.011660969,0.017520303,-0.008925747,0.006146992,0.007023266,-0.003656107,-0.002309813,-0.011263187,-0.000244274,-0.176288354
1609055143793278464,75,1609055143793278464,-0.008507745,-0.026921705,-0.036052165,0.001138170,-0.031178386,-0.000410481,0.999513104,0.008495464,-0.002663684,0.010744980,0.019737003,-0.007903214,0.009294542,0.007023323,-0.003656077,-0.002309810,-0.011256776,-0.000246237,-0.176152624
1609055143896555008,76,1609055143896555008,-0.006292986,-0.024598044,-0.034873902,0.001053760,-0.031128470,-0.000423705,0.999514746,0.011761972,0.001298369,0.011022149,0.021792701,-0.009361191,0.011222513,0.007023365,-0.003656113,-0.002309803,-0.011258178,-0.000245823,-0.176181644
1609055143999362048,77,1609055143999362048,-0.010145256,-0.021037062,-0.039973692,0.000965326,-0.031277293,-0.000419589,0.999510192,0.006591763,0.005967272,0.003870124,0.022753894,-0.010291907,0.010165037,0.007023418,-0.003656073,-0.002309794,-0.011216429,-0.000258009,-0.175335827
1609055144069704448,78,1609055144069704448,-0.015926558,-0.023607721,-0.048969977,0.000928656,-0.031303708,-0.000486707,0.999509369,-0.000399961,-0.004892429,-0.008996168,-0.001267808,0.001336219,-0.010552408,0.007023402,-0.003656060,-0.002309795,-0.011152460,-0.000276529,-0.174063798
1609055144171433472,79,1609055144171433472,-0.013119318,-0.023516526,-0.046813185,0.000887877,-0.031214624,-0.000520228,0.999512175,0.005513588,-0.004501022,-0.006700872,0.000626535,-0.000734284,-0.010013718,0.007023404,-0.003656125,-0.002309791,-0.011174321,-0.000270283,-0.174486037
1609055144274325248,80,1609055144274325248,-0.010994547,-0.022413632,-0.050766937,0.000870655,-0.031145035,-0.000571612,0.999514333,0.010213438,-0.001744219,-0.011206751,0.001042714,0.000352721,-0.008755326,0.007023417,-0.003656177,-0.002309787,-0.011150608,-0.000277008,-0.174038469
1609055144377553920,81,1609055144377553920,-0.011464426,-0.021023841,-0.057818821,0.000847857,-0.031090772,-0.000558467,0.999516049,0.010709474,0.002624018,-0.017297919,0.006411698,-0.002659134,-0.003158557,0.007023437,-0.003656181,-0.002309786,-0.011107191,-0.000289391,-0.173231116
1609055144482353408,82,1609055144482353408,-0.009753191,-0.020523800,-0.051146046,0.000879039,-0.030913406,-0.000465796,0.999521571,0.013502745,0.002864185,-0.007102588,0.008549906,-0.000783629,-0.001195129,0.007023432,-0.003656206,-0.002309789,-0.011167049,-0.000272138,-0.174333541
1609055144584256512,83,1609055144584256512,-0.004895207,-0.022105075,-0.042183888,0.001000645,-0.030759103,-0.000500618,0.999526201,0.019574458,0.000749006,0.003770853,0.016815290,-0.003082055,0.000931641,0.007023390,-0.003656262,-0.002309785,-0.011236404,-0.000251897,-0.175607463
1609055144691247104,84,1609055144691247104,-0.007072933,-0.026884812,-0.031506099,0.001090761,-0.030864859,-0.000485376,0.999522854,0.016699807,-0.004384444,0.016220290,0.016476914,-0.008816303,0.005070279,0.007023332,-0.003656213,-0.002309786,-0.011308290,-0.000230709,-0.176934875
1609055144794765824,85,1609055144794765824,-0.008121249,-0.024957230,-0.035066049,0.001060503,-0.030875835,-0.000426429,0.999522574,0.015613893,-0.000525083,0.010873266,0.020966625,-0.007072840,0.007504126,0.007023379,-0.003656207,-0.002309792,-0.011272684,-0.000241028,-0.176276640
1609055144897527552,86,1609055144897527552,-0.009009349,-0.024330711,-0.036113571,0.001089965,-0.030965078,-0.000438731,0.999519776,0.013589720,0.001596251,0.008696659,0.024749780,-0.007055846,0.011340215,0.007023398,-0.003656176,-0.002309789,-0.011258420,-0.000245133,-0.176013099
1609055144969637120,87,1609055144969637120,-0.013280199,-0.024799413,-0.045232621,0.000930818,-0.031015590,-0.000502242,0.999518341,0.008114723,-0.004555614,-0.004491544,-0.000706376,0.000223542,-0.008965955,0.007023409,-0.003656149,-0.002309788,-0.011192640,-0.000263914,-0.174803333
1609055145069844992,88,1609055145069844992,-0.009686445,-0.021683184,-0.039744939,0.000855908,-0.030915505,-0.000510018,0.999521505,0.014469361,0.001631718,0.002394129,0.000725575,-0.000778307,-0.011390435,0.007023456,-0.003656203,-0.002309780,-0.011232263,-0.000252604,-0.175526936
1609055145172804352,89,1609055145172804352,-0.008608698,-0.020746040,-0.044076245,0.000806901,-0.030841465,-0.000575044,0.999523798,0.016756015,0.004482714,-0.003089609,0.003780318,-0.001577733,-0.006464833,0.007023476,-0.003656226,-0.002309775,-0.011201229,-0.000261639,-0.174961211
1609055145275603712,90,1609055145275603712,-0.006078550,-0.021285289,-0.036223465,0.000864278,-0.030734823,-0.000515204,0.999527067,0.020294460,0.004516956,0.006318799,0.006630801,-0.001708498,-0.004341700,0.007023463,-0.003656256,-0.002309770,-0.011255205,-0.000245498,-0.175948457
1609055145383765248,91,1609055145383765248,-0.002363662,-0.021941000,-0.039258189,0.000924828,-0.030653804,-0.000534050,0.999529491,0.024917447,0.004609275,0.003417655,0.014186729,-0.005680750,-0.000327096,0.007023440,-0.003656284,-0.002309769,-0.011230603,-0.000253062,-0.175493754
1609055145486662656,92,1609055145486662656,-0.001050220,-0.021130094,-0.043865613,0.000902278,-0.030651869,-0.000551492,0.999529562,0.025112141,0.005981154,-0.002118032,0.016923226,-0.004783245,0.004206591,0.007023445,-0.003656275,-0.002309773,-0.011200026,-0.000262685,-0.174920991
1609055145589866752,93,1609055145589866752,-0.013485913,-0.027631539,-0.048524347,0.001036623,-0.030882656,-0.000471217,0.999522368,0.008036704,-0.003202378,-0.007192747,0.019385284,-0.006580856,0.004664762,0.007023400,-0.003656160,-0.002309798,-0.011173102,-0.000271378,-0.174410287
1609055145694107392,94,1609055145694107392,-0.009556588,-0.026928877,-0.045310448,0.000997176,-0.030777658,-0.000509561,0.999525628,0.014214475,-0.001753091,-0.002635901,0.019228321,-0.007982388,0.004912190,0.007023417,-0.003656218,-0.002309795,-0.011197643,-0.000263512,-0.174875503
1609055145795924736,95,1609055145795924736,-0.009207391,-0.021281550,-0.047631201,0.000829924,-0.030680528,-0.000448679,0.999528797,0.015247726,0.007226907,-0.005024291,0.021529399,-0.007189444,0.009916044,0.007023517,-0.003656262,-0.002309805,-0.011185997,-0.000267276,-0.174653142
1609055145899274240,96,1609055145899274240,-0.005326603,-0.022789811,-0.043092490,0.000893169,-0.030572815,-0.000433129,0.999532049,0.020273522,0.004587185,0.001234056,0.020699102,-0.011711655,0.007825627,0.007023480,-0.003656303,-0.002309804,-0.011216381,-0.000256968,-0.175241263
1609055145969696000,97,1609055145969696000,-0.001951035,-0.022596064,-0.042585749,0.000800143,-0.030489599,-0.000512989,0.999534632,0.024146611,-0.001580517,-0.000391861,-0.002072699,0.001124072,-0.012339913,0.007023479,-0.003656336,-0.002309802,-0.011219463,-0.000255893,-0.175301737
1609055146073385472,98,1609055146073385472,-0.004054819,-0.023046554,-0.043418646,0.000830735,-0.030594479,-0.000475898,0.999531421,0.020024879,-0.003288908,-0.002033547,-0.000603105,-0.001796457,-0.010392898,0.007023484,-0.003656295,-0.002309805,-0.011214561,-0.000257677,-0.175203521
1609055146174312704,99,1609055146174312704,-0.003884964,-0.024018846,-0.048704438,0.000893470,-0.030649251,-0.000445289,0.999529703,0.020138114,-0.003767386,-0.008172154,0.000212560,0.000403287,-0.009957895,0.007023471,-0.003656282,-0.002309799,-0.011186094,-0.000268363,-0.174624656
1609055146277687552,100,1609055146277687552,-0.006144015,-0.024340588,-0.059318281,0.000864785,-0.030699557,-0.000514358,0.999528151,0.016583288,-0.002465060,-0.018497350,0.006476230,-0.001813654,-0.004841679,0.007023471,-0.003656246,-0.002309797,-0.011133178,-0.000288699,-0.173534626
1609055146381156864,101,1609055146381156864,-0.010365046,-0.023901895,-0.059049140,0.000855382,-0.030748969,-0.000488979,0.999526653,0.011388141,-0.000548659,-0.016083138,0.009949942,-0.002499737,-0.002119278,0.007023488,-0.003656208,-0.002309797,-0.011144564,-0.000284242,-0.173771296
1609055146483739904,102,1609055146483739904,-0.011502678,-0.022959521,-0.050863157,0.000823070,-0.030728662,-0.000495371,0.999527302,0.010227218,0.001096100,-0.004914125,0.014880089,-0.006134580,0.001835856,0.007023507,-0.003656205,-0.002309802,-0.011195549,-0.000263905,-0.174836482
1609055146587285760,103,1609055146587285760,-0.006870975,-0.024340929,-0.055204968,0.000838577,-0.030581619,-0.000510128,0.999531791,0.017488242,-0.000166832,-0.008893731,0.019044962,-0.006263335,0.003786738,0.007023495,-0.003656281,-0.002309801,-0.011176472,-0.000271698,-0.174435724
1609055146690243328,104,1609055146690243328,-0.008201507,-0.023824065,-0.058126637,0.000791428,-0.030564399,-0.000481656,0.999532370,0.015849092,0.000142571,-0.011552479,0.016071837,-0.007439163,0.004440548,0.007023513,-0.003656291,-0.002309813,-0.011166797,-0.000275780,-0.174229188
1609055146792874240,105,1609055146792874240,-0.006997628,-0.025122777,-0.044320430,0.000832425,-0.030580488,-0.000484630,0.999531843,0.018102878,-0.001287049,0.005827935,0.018931922,-0.010838976,0.004742054,0.007023485,-0.003656289,-0.002309818,-0.011239209,-0.000243806,-0.175802020
1609055146895937024,106,1609055146895937024,-0.009028181,-0.026283700,-0.041924527,0.000897861,-0.030617509,-0.000463842,0.999530663,0.015557091,-0.001479969,0.008134386,0.021362696,-0.006391057,0.010762486,0.007023469,-0.003656253,-0.002309816,-0.011248012,-0.000239773,-0.175996665
1609055146999185920,107,1609055146999185920,-0.004708534,-0.023245817,-0.036723652,0.000776022,-0.030479365,-0.000449694,0.999534994,0.021910187,0.002975566,0.013046549,0.023389205,-0.006147342,0.010703992,0.007023518,-0.003656301,-0.002309818,-0.011268570,-0.000230083,-0.176458134
1609055147069931776,108,1609055147069931776,-0.003223001,-0.022219527,-0.037240801,0.000698243,-0.030425353,-0.000491161,0.999536677,0.023518653,-0.000466425,0.009918161,0.000720792,-0.000326288,-0.010561963,0.007023532,-0.003656313,-0.002309818,-0.011262597,-0.000233008,-0.176321538
1609055147171777536,109,1609055147171777536,-0.001466244,-0.023270878,-0.035937502,0.000675305,-0.030401638,-0.000530257,0.999537395,0.024711250,-0.001717860,0.009904939,0.000617775,-0.002420882,-0.009766242,0.007023516,-0.003656319,-0.002309820,-0.011264083,-0.000232238,-0.176356369
1609055147273991680,110,1609055147273991680,-0.004402475,-0.024717956,-0.040471369,0.000703472,-0.030529649,-0.000543142,0.999533466,0.020082336,-0.003975794,0.004151289,0.001918220,-0.003096416,-0.009838190,0.007023507,-0.003656268,-0.002309824,-0.011240303,-0.000245292,-0.175783579
1609055147377135872,111,1609055147377135872,-0.008032301,-0.024599330,-0.047636551,0.000656372,-0.030684869,-0.000588673,0.999528720,0.014492028,-0.001497497,-0.003433563,0.007770869,-0.007244596,-0.003733726,0.007023520,-0.003656210,-0.002309834,-0.011208870,-0.000263298,-0.175015258
1609055147480468224,112,1609055147480468224,-0.008555832,-0.024667114,-0.053152632,0.000653666,-0.030635828,-0.000579302,0.999530231,0.014836988,-0.000459562,-0.009419636,0.006918255,-0.005406977,-0.003177406,0.007023522,-0.003656234,-0.002309838,-0.011187941,-0.000275643,-0.174503244
1609055147583860480,113,1609055147583860480,-0.006757709,-0.025986827,-0.055425450,0.000674699,-0.030485248,-0.000590068,0.999534815,0.018019209,-0.001292848,-0.009703661,0.013713198,-0.004733981,0.001619979,0.007023501,-0.003656291,-0.002309846,-0.011182621,-0.000278915,-0.174372016
1609055147686503936,114,1609055147686503936,-0.005963347,-0.024724395,-0.039952101,0.000634749,-0.030483029,-0.000627272,0.999534886,0.018325858,0.001020956,0.009105442,0.011209263,-0.006921802,0.000485962,0.007023510,-0.003656289,-0.002309846,-0.011246260,-0.000238079,-0.175971889
1609055147789752064,115,1609055147789752064,-0.003708612,-0.024189180,-0.035109551,0.000659677,-0.030477047,-0.000590189,0.999535075,0.020907589,0.003155257,0.014342708,0.017501079,-0.006161326,0.004337043,0.007023512,-0.003656308,-0.002309849,-0.011261052,-0.000228146,-0.176350510
1609055147892858112,116,1609055147892858112,-0.006977793,-0.027065290,-0.032915426,0.000752806,-0.030624655,-0.000602294,0.999530490,0.016299399,0.000167413,0.015743416,0.018176427,-0.009838377,0.005535464,0.007023474,-0.003656247,-0.002309851,-0.011263856,-0.000226174,-0.176423691
1609055147997189120,117,1609055147997189120,-0.004892672,-0.027146037,-0.031704877,0.000810456,-0.030633800,-0.000553561,0.999530193,0.018933375,0.002532687,0.015209281,0.022950996,-0.003939011,0.010775588,0.007023473,-0.003656251,-0.002309851,-0.011262432,-0.000227189,-0.176386433
1609055148099416576,118,1609055148099416576,-0.007613599,-0.028019517,-0.034722776,0.000851809,-0.030704258,-0.000535062,0.999528007,0.015418675,0.002759314,0.010686278,0.020978890,-0.011224219,0.009452869,0.007023463,-0.003656206,-0.002309850,-0.011246767,-0.000238515,-0.175974473
1609055148169565440,119,1609055148169565440,-0.001385369,-0.023370659,-0.031683890,0.000655571,-0.030507105,-0.000554167,0.999534181,0.024167743,0.002653777,0.011166629,-0.000754751,-0.001104861,-0.012490646,0.007023531,-0.003656294,-0.002309856,-0.011255597,-0.000232150,-0.176206287
1609055148271074048,120,1609055148271074048,0.000186095,-0.024986396,-0.032569508,0.000677779,-0.030511472,-0.000574470,0.999534022,0.025192767,0.001122178,0.009280533,-0.001140199,-0.000371217,-0.009833074,0.007023511,-0.003656294,-0.002309860,-0.011248019,-0.000237802,-0.176004463
1609055148374405376,121,1609055148374405376,-0.000967726,-0.024109445,-0.041322673,0.000671581,-0.030632736,-0.000569217,0.999530320,0.022323804,0.002158027,-0.001622911,0.004942937,-0.003523578,-0.006375079,0.007023523,-0.003656255,-0.002309863,-0.011214485,-0.000263377,-0.175102213
1609055148478417664,122,1609055148478417664,-0.006794888,-0.028135096,-0.052455185,0.000798619,-0.030743410,-0.000572675,0.999526827,0.014534748,-0.002687841,-0.014543635,0.007192075,-0.002428663,-0.006216555,0.007023463,-0.003656206,-0.002309872,-0.011177058,-0.000292186,-0.174098581
1609055148583073536,123,1609055148583073536,-0.005534244,-0.032075074,-0.055539016,0.000905677,-0.030734519,-0.000568873,0.999527011,0.016407919,-0.005969710,-0.015388356,0.012468303,-0.007273666,-0.000865564,0.007023414,-0.003656212,-0.002309871,-0.011171329,-0.000296499,-0.173947220
1609055148683632384,124,1609055148683632384,-0.009193365,-0.029001166,-0.056805130,0.000803634,-0.030763849,-0.000583432,0.999526187,0.011363027,0.000138643,-0.014714625,0.015640866,-0.005984048,0.001496601,0.007023481,-0.003656188,-0.002309873,-0.011172558,-0.000295604,-0.173979356
1609055148788128768,125,1609055148788128768,-0.007804554,-0.027476614,-0.054764279,0.000785995,-0.030772285,-0.000580335,0.999525944,0.013805219,0.002104784,-0.010458038,0.016608421,-0.006696070,0.004376109,0.007023499,-0.003656199,-0.002309874,-0.011185134,-0.000286661,-0.174302608
1609055148889712896,126,1609055148889712896,-0.009410030,-0.023994080,-0.041141294,0.000744962,-0.030888428,-0.000569536,0.999522399,0.011362487,0.006155655,0.006262321,0.016993564,-0.007379500,0.004634948,0.007023535,-0.003656178,-0.002309874,-0.011236478,-0.000250948,-0.175598550
1609055148993099776,127,1609055148993099776,-0.006814865,-0.025834205,-0.033077657,0.000807892,-0.030909778,-0.000592677,0.999521676,0.015654252,0.004211529,0.014243447,0.019217659,-0.008305644,0.005055566,0.007023489,-0.003656206,-0.002309874,-0.011263327,-0.000232681,-0.176255068
1609055149096170496,128,1609055149096170496,-0.003540590,-0.026059499,-0.036054093,0.000861821,-0.030908974,-0.000528632,0.999521692,0.019811329,0.004639753,0.008811895,0.023026373,-0.005954261,0.008647161,0.007023483,-0.003656250,-0.002309882,-0.011247516,-0.000243092,-0.175880425
1609055149199381248,129,1609055149199381248,-0.011264087,-0.026531212,-0.040060609,0.000909102,-0.031139658,-0.000455663,0.999514526,0.009799163,0.003787212,0.004105771,0.021990914,-0.007255225,0.010867333,0.007023488,-0.003656143,-0.002309887,-0.011229518,-0.000254572,-0.175464448
1609055149269495296,130,1609055149269495296,-0.012323452,-0.026432931,-0.035876912,0.000776692,-0.031065953,-0.000546124,0.999516886,0.008740361,-0.000053254,0.007490277,0.000395685,-0.000269384,-0.008311970,0.007023501,-0.003656148,-0.002309889,-0.011244867,-0.000245129,-0.175808874
1609055149371570944,131,1609055149371570944,-0.005167559,-0.027626133,-0.037236299,0.000821917,-0.030869531,-0.000519996,0.999522949,0.019535377,-0.000694975,0.006285943,0.005433759,-0.001638617,-0.006351086,0.007023471,-0.003656242,-0.002309888,-0.011235806,-0.000250455,-0.175613393
1609055149474489088,132,1609055149474489088,-0.003690498,-0.029034404,-0.038158387,0.000841777,-0.030809313,-0.000514887,0.999524793,0.021595101,-0.002746626,0.005008087,0.002126509,-0.003733339,-0.009348547,0.007023460,-0.003656251,-0.002309891,-0.011229306,-0.000254178,-0.175475041
1609055149578661888,133,1609055149578661888,-0.008911074,-0.024363815,-0.041459754,0.000725785,-0.030938962,-0.000556567,0.999520857,0.013774899,0.007305769,0.002169850,0.012142496,-0.003574431,-0.000843623,0.007023539,-0.003656176,-0.002309882,-0.011213779,-0.000262858,-0.175147530
1609055149682505216,134,1609055149682505216,-0.007872971,-0.025823035,-0.040241361,0.000718779,-0.030894396,-0.000580872,0.999522227,0.014782502,0.006466741,0.004096296,0.013315945,-0.006261754,0.002362551,0.007023508,-0.003656193,-0.002309883,-0.011217894,-0.000260570,-0.175232680
1609055149785044224,135,1609055149785044224,-0.008962246,-0.028029233,-0.042109885,0.000795939,-0.030984445,-0.000579147,0.999519382,0.013045188,0.003639885,0.001677382,0.014586335,-0.009806279,0.001387546,0.007023479,-0.003656173,-0.002309885,-0.011208684,-0.000265605,-0.175045779
1609055149887864320,136,1609055149887864320,-0.007715477,-0.025316794,-0.033862762,0.000731030,-0.031023853,-0.000646098,0.999518168,0.014863023,0.007772996,0.010555638,0.019802297,-0.007236757,0.004282315,0.007023503,-0.003656185,-0.002309884,-0.011242696,-0.000247546,-0.175718061
1609055149991185664,137,1609055149991185664,-0.006202316,-0.025588173,-0.032373282,0.000771237,-0.030960956,-0.000588221,0.999520124,0.016999870,0.007220740,0.010237148,0.021580134,-0.002639625,0.007486362,0.007023490,-0.003656197,-0.002309889,-0.011244968,-0.000246357,-0.175761918
1609055150094257152,138,1609055150094257152,-0.006198215,-0.027528930,-0.032437778,0.000892073,-0.030907721,-0.000566716,0.999521684,0.016859737,0.004067702,0.009437240,0.022390226,-0.007243678,0.008404733,0.007023456,-0.003656185,-0.002309887,-0.011240611,-0.000248611,-0.175679005
1609055150198007296,139,1609055150198007296,-0.004025142,-0.025258601,-0.031342831,0.000855441,-0.030839123,-0.000551486,0.999523843,0.019340014,0.008485604,0.009387975,0.022638459,-0.010662350,0.011163168,0.007023484,-0.003656197,-0.002309890,-0.011241922,-0.000247942,-0.175703847
1609055150300303104,140,1609055150300303104,-0.003926334,-0.025287520,-0.036512848,0.000907664,-0.030883490,-0.000494789,0.999522457,0.018743254,0.009248986,0.003413754,0.024220711,-0.010919481,0.010744527,0.007023474,-0.003656178,-0.002309893,-0.011216380,-0.000260879,-0.175222220
1609055150370502912,141,1609055150370502912,-0.003841739,-0.024606646,-0.039550086,0.000775941,-0.030851702,-0.000607420,0.999523487,0.018739000,0.002833113,-0.003312215,-0.000553763,0.000762460,-0.011234708,0.007023479,-0.003656174,-0.002309892,-0.011203140,-0.000267481,-0.174974091
1609055150473219840,142,1609055150473219840,-0.007581146,-0.025535591,-0.036651289,0.000781513,-0.030975318,-0.000639345,0.999519640,0.013710334,0.001994992,0.000518847,0.004309679,-0.003781782,-0.006336299,0.007023471,-0.003656117,-0.002309897,-0.011216461,-0.000260923,-0.175221875
1609055150575227136,143,1609055150575227136,-0.005605802,-0.025978490,-0.031790585,0.000788080,-0.030893007,-0.000617062,0.999522196,0.016344304,0.001257453,0.005950426,0.006936298,-0.001590905,-0.005027516,0.007023463,-0.003656139,-0.002309895,-0.011236792,-0.000251143,-0.175594443
1609055150678193152,144,1609055150678193152,-0.004867138,-0.024197177,-0.037481011,0.000721754,-0.030822304,-0.000665847,0.999524398,0.016949603,0.004254553,-0.000962300,0.008182178,-0.005070898,-0.003471216,0.007023483,-0.003656140,-0.002309896,-0.011209850,-0.000263992,-0.175103145
1609055150781237248,145,1609055150781237248,-0.005714131,-0.024811068,-0.035546397,0.000751167,-0.030830854,-0.000654484,0.999524120,0.014831251,0.003426296,0.001313752,0.010711248,-0.002845200,-0.000665098,0.007023465,-0.003656122,-0.002309897,-0.011218429,-0.000259878,-0.175259550
1609055150884617216,146,1609055150884617216,-0.003716986,-0.024151199,-0.033746791,0.000746570,-0.030848360,-0.000655400,0.999523582,0.016825958,0.004862345,0.003872168,0.011106338,-0.008790958,-0.001357017,0.007023468,-0.003656139,-0.002309899,-0.011225420,-0.000256535,-0.175386630
1609055150987571456,147,1609055150987571456,-0.005984548,-0.024240340,-0.039623342,0.000778297,-0.031000130,-0.000688973,0.999518840,0.013308165,0.005210252,-0.002710472,0.016566880,-0.008012296,0.003194913,0.007023464,-0.003656104,-0.002309897,-0.011199212,-0.000269000,-0.174913292
1609055151090300928,148,1609055151090300928,-0.005781823,-0.026044363,-0.033039069,0.000858355,-0.031035252,-0.000671195,0.999517697,0.013832741,0.003887119,0.004722129,0.015674416,-0.006011071,0.004977776,0.007023421,-0.003656094,-0.002309901,-0.011228826,-0.000255161,-0.175439065
1609055151193549824,149,1609055151193549824,-0.010552983,-0.028908541,-0.043977143,0.000932995,-0.031099753,-0.000676582,0.999515621,0.007759843,-0.000415970,-0.008195980,0.019474331,-0.008183889,0.004963192,0.007023384,-0.003656044,-0.002309902,-0.011180401,-0.000277146,-0.174593263
1609055151297317120,150,1609055151297317120,-0.010327125,-0.032342929,-0.054568286,0.001037053,-0.031098255,-0.000644925,0.999515586,0.007873309,-0.003306517,-0.017561115,0.022352146,-0.010393800,0.011939649,0.007023353,-0.003656070,-0.002309905,-0.011138564,-0.000295210,-0.173878740
1609055151399702272,151,1609055151399702272,-0.014096980,-0.030279693,-0.052427703,0.000980048,-0.031320557,-0.000635707,0.999508708,0.002965909,-0.000091028,-0.012428876,0.023340259,-0.011169559,0.010224595,0.007023393,-0.003656033,-0.002309907,-0.011156429,-0.000287948,-0.174176866
1609055151470289920,152,1609055151470289920,-0.013902751,-0.029349749,-0.049706565,0.000813070,-0.031409866,-0.000788859,0.999505946,0.003213333,-0.005764867,-0.010847580,-0.002964498,-0.001459236,-0.014800273,0.007023409,-0.003656041,-0.002309906,-0.011173347,-0.000281410,-0.174450638
1609055151572476928,153,1609055151572476928,-0.017518730,-0.029408902,-0.048706205,0.000775464,-0.031575362,-0.000880224,0.999500686,0.000780169,-0.005088360,-0.008910858,-0.003423340,-0.003583292,-0.011478637,0.007023427,-0.003656037,-0.002309906,-0.011183072,-0.000277885,-0.174600198
1609055151675107840,154,1609055151675107840,-0.018162539,-0.026074473,-0.040810559,0.000676537,-0.031536030,-0.000842962,0.999502031,0.002843586,0.001433467,0.000475377,0.006743655,-0.000704314,-0.004026752,0.007023464,-0.003656047,-0.002309910,-0.011227047,-0.000262689,-0.175241687
1609055151777958656,155,1609055151777958656,-0.015257879,-0.027560732,-0.034183849,0.000726727,-0.031299962,-0.000852386,0.999509409,0.008506918,-0.000835501,0.007584863,0.008833067,-0.000802085,-0.001532996,0.007023425,-0.003656091,-0.002309911,-0.011261092,-0.000251105,-0.175719158
1609055151881113856,156,1609055151881113856,-0.025667010,-0.027902067,-0.049450446,0.000708341,-0.031396215,-0.000848327,0.999506406,-0.005462603,-0.000209950,-0.009981871,0.009418443,-0.003464331,0.000129081,0.007023442,-0.003656008,-0.002309925,-0.011177609,-0.000279074,-0.174572391
1609055151984843520,157,1609055151984843520,-0.020643760,-0.026069419,-0.049041040,0.000682430,-0.031277100,-0.000731293,0.999510251,0.003336845,0.002444743,-0.007118407,0.017822370,-0.009931919,0.003117867,0.007023466,-0.003656140,-0.002309933,-0.011184968,-0.000276648,-0.174670372
1609055152087376640,158,1609055152087376640,-0.016623899,-0.025841718,-0.039832723,0.000669811,-0.031258193,-0.000820646,0.999510782,0.011357046,0.002942032,0.004060527,0.014090627,-0.010480486,0.003163769,0.007023463,-0.003656227,-0.002309941,-0.011239266,-0.000258776,-0.175375602
1609055152190477824,159,1609055152190477824,-0.016806826,-0.026658439,-0.035713621,0.000716108,-0.031302338,-0.000750633,0.999509423,0.012666228,0.001317681,0.007235145,0.017085796,-0.010645470,0.007011688,0.007023442,-0.003656249,-0.002309957,-0.011260601,-0.000251733,-0.175647560
1609055152293439232,160,1609055152293439232,-0.025436910,-0.028662026,-0.048962160,0.000732756,-0.031234187,-0.000668447,0.999511602,0.004094187,-0.000997979,-0.009173442,0.021437356,-0.006378958,0.005728830,0.007023455,-0.003656229,-0.002309994,-0.011184176,-0.000277165,-0.174685380
1609055152396142080,161,1609055152396142080,-0.037753370,-0.030757016,-0.055593300,0.000721104,-0.031310554,-0.000712282,0.999509190,-0.010039980,-0.002504414,-0.014933987,0.020507520,-0.003510377,0.008928805,0.007023462,-0.003656127,-0.002310015,-0.011153342,-0.000287574,-0.174299053
1609055152499129088,162,1609055152499129088,-0.040168974,-0.028484499,-0.050784321,0.000698854,-0.031247356,-0.000586967,0.999511265,-0.010200401,0.003054372,-0.006541078,0.023832247,-0.006246941,0.010961382,0.007023508,-0.003656147,-0.002310033,-0.011189223,-0.000275364,-0.174743180
1609055152569576448,163,1609055152569576448,-0.041457403,-0.027994001,-0.052928082,0.000546148,-0.031249942,-0.000664534,0.999511231,-0.010166871,-0.003573950,-0.010536415,-0.000410552,0.000543760,-0.012233123,0.007023512,-0.003656154,-0.002310040,-0.011180219,-0.000278464,-0.174632573
1609055152671526144,164,1609055152671526144,-0.044741905,-0.030774839,-0.051228163,0.000620471,-0.031259772,-0.000698540,0.999510857,-0.010277230,-0.006448094,-0.007480978,-0.002475193,-0.003374883,-0.009269034,0.007023478,-0.003656155,-0.002310059,-0.011195511,-0.000273043,-0.174818294
1609055152774578688,165,1609055152774578688,-0.047792104,-0.027859015,-0.051982862,0.000504754,-0.031235251,-0.000627583,0.999511736,-0.011196544,0.000072479,-0.008207411,0.001892541,-0.000553390,-0.005628986,0.007023523,-0.003656144,-0.002310068,-0.011195463,-0.000273060,-0.174817676
1609055152877686784,166,1609055152877686784,-0.048218474,-0.029880078,-0.048508878,0.000576208,-0.031140990,-0.000602029,0.999514654,-0.007813764,-0.001535463,-0.001791285,0.009849511,-0.003589200,-0.004472051,0.007023499,-0.003656185,-0.002310091,-0.011219392,-0.000264170,-0.175103787
1609055152980269056,167,1609055152980269056,-0.046570888,-0.030498804,-0.057864830,0.000576599,-0.030934206,-0.000607435,0.999521072,-0.001454999,0.000029841,-0.011329693,0.010693134,-0.007939894,0.001589397,0.007023503,-0.003656294,-0.002310104,-0.011168089,-0.000283721,-0.174489710
1609055153083885312,168,1609055153083885312,-0.046846257,-0.029902193,-0.057638337,0.000568201,-0.030905234,-0.000496870,0.999522034,0.001088601,0.001012587,-0.009909110,0.013043189,-0.007393339,0.002042740,0.007023513,-0.003656323,-0.002310119,-0.011176235,-0.000280503,-0.174588675
1609055153186609920,169,1609055153186609920,-0.045887190,-0.030259511,-0.053875120,0.000626868,-0.030841985,-0.000509296,0.999523946,0.005759937,0.001551064,-0.005438232,0.017972576,-0.003310339,0.002948647,0.007023505,-0.003656359,-0.002310130,-0.011202284,-0.000269783,-0.174910353
1609055153289673216,170,1609055153289673216,-0.043772394,-0.031111967,-0.058731786,0.000677315,-0.030688894,-0.000443266,0.999528657,0.011316601,0.002189329,-0.010020113,0.020419849,-0.007074709,0.009802209,0.007023485,-0.003656403,-0.002310145,-0.011180544,-0.000279124,-0.174634906
1609055153392790784,171,1609055153392790784,-0.042759006,-0.031521506,-0.068788043,0.000686890,-0.030447552,-0.000352256,0.999536068,0.014474544,0.001630543,-0.020853430,0.021065172,-0.006202330,0.006540891,0.007023484,-0.003656461,-0.002310152,-0.011136913,-0.000298800,-0.174059386
1609055153496003328,172,1609055153496003328,-0.043023937,-0.035274964,-0.067874816,0.000773579,-0.030351408,-0.000403800,0.999538909,0.014732874,-0.001581864,-0.016397708,0.020068120,-0.011499382,0.008538042,0.007023451,-0.003656495,-0.002310160,-0.011150976,-0.000292023,-0.174255392
1609055153598738688,173,1609055153598738688,-0.042159849,-0.028931360,-0.063347352,0.000685900,-0.030410785,-0.000282500,0.999537210,0.017569134,0.009414268,-0.008756200,0.025205895,-0.010656507,0.013004539,0.007023537,-0.003656506,-0.002310171,-0.011178451,-0.000277928,-0.174664599
1609055153669197568,174,1609055153669197568,-0.035356455,-0.034221855,-0.061155211,0.000628020,-0.030029057,-0.000322609,0.999548777,0.029355529,-0.004769683,-0.007772696,-0.000407570,-0.001569207,-0.010470646,0.007023486,-0.003656681,-0.002310193,-0.011190822,-0.000271213,-0.174857243
1609055153771234304,175,1609055153771234304,-0.036068171,-0.029396407,-0.070974363,0.000480726,-0.030056396,-0.000404228,0.999548007,0.029621887,0.002779845,-0.018051703,0.000000511,0.003266387,-0.011607629,0.007023564,-0.003656684,-0.002310196,-0.011156132,-0.000292063,-0.174263280
1609055153873862912,176,1609055153873862912,-0.033834883,-0.027444431,-0.061108564,0.000458976,-0.029954222,-0.000315163,0.999551117,0.032711150,0.005727178,-0.005499038,0.000599994,0.000599306,-0.008656604,0.007023578,-0.003656689,-0.002310198,-0.011195413,-0.000264929,-0.175013617
1609055153976832256,177,1609055153976832256,-0.036198801,-0.028028790,-0.064659451,0.000473869,-0.029905174,-0.000356532,0.999552564,0.029326519,0.005728748,-0.008067409,0.007139244,-0.003960114,-0.005616862,0.007023571,-0.003656655,-0.002310196,-0.011186619,-0.000272151,-0.174820791
1609055154079991296,178,1609055154079991296,-0.026841797,-0.033871613,-0.074135568,0.000609667,-0.029355724,-0.000336047,0.999568785,0.042956561,-0.000475952,-0.017346265,0.010665867,-0.004115869,-0.000431790,0.007023502,-0.003656933,-0.002310221,-0.011165154,-0.000293194,-0.174275496
1609055154183711232,179,1609055154183711232,-0.024024273,-0.031062939,-0.073566595,0.000550391,-0.029509434,-0.000260834,0.999564316,0.044790595,0.004138706,-0.014015054,0.010550300,-0.005309376,-0.001302853,0.007023541,-0.003656914,-0.002310224,-0.011169551,-0.000287606,-0.174419852
1609055154286588160,180,1609055154286588160,-0.027490737,-0.031156627,-0.068477745,0.000502904,-0.029718381,-0.000317589,0.999558134,0.039941426,0.005440944,-0.006633681,0.016727785,-0.008805239,0.003447324,0.007023572,-0.003656883,-0.002310243,-0.011178980,-0.000271290,-0.174833878
1609055154389662976,181,1609055154389662976,-0.033120603,-0.032276534,-0.064801505,0.000512362,-0.029898480,-0.000297525,0.999552765,0.032298663,0.005972589,-0.002469825,0.020058237,-0.007464325,0.009662228,0.007023575,-0.003656790,-0.002310249,-0.011183586,-0.000260041,-0.175111388
1609055154492826112,182,1609055154492826112,-0.029559109,-0.032019993,-0.065205847,0.000527862,-0.029776797,-0.000237791,0.999556405,0.037536740,0.005671726,-0.002852251,0.021247350,-0.001570487,0.007322261,0.007023573,-0.003656789,-0.002310249,-0.011183567,-0.000260139,-0.175109057
1609055154596606720,183,1609055154596606720,-0.029355099,-0.029823628,-0.056068680,0.000468858,-0.029682943,-0.000250968,0.999559223,0.036511625,0.009110066,0.008774807,0.023213191,-0.007896607,0.009203994,0.007023611,-0.003656773,-0.002310261,-0.011186877,-0.000235535,-0.175689032
1609055154698908928,184,1609055154698908928,-0.030283666,-0.029767587,-0.055092030,0.000424650,-0.029678128,-0.000166301,0.999559403,0.034441948,0.009413539,0.010584366,0.021870323,-0.011242809,0.010228556,0.007023638,-0.003656798,-0.002310282,-0.011186889,-0.000235210,-0.175696504
1609055154769126144,185,1609055154769126144,-0.028119396,-0.033628771,-0.050718725,0.000408344,-0.029614057,-0.000196947,0.999561305,0.037775586,-0.002107213,0.012312700,-0.001065441,-0.000629255,-0.013227988,0.007023614,-0.003656864,-0.002310299,-0.011186026,-0.000225048,-0.175923313
1609055154871373568,186,1609055154871373568,-0.034133534,-0.031057701,-0.054651607,0.000256457,-0.029900215,-0.000293378,0.999552813,0.030561451,0.003154094,0.006260940,0.000563463,-0.002580534,-0.010666842,0.007023669,-0.003656771,-0.002310304,-0.011188822,-0.000239860,-0.175602352
1609055154974017792,187,1609055154974017792,-0.029338140,-0.029946271,-0.053716483,0.000208920,-0.029673746,-0.000267626,0.999559580,0.038849724,0.006658748,0.006002602,0.002608643,0.001210744,-0.007722368,0.007023685,-0.003656854,-0.002310310,-0.011188614,-0.000239027,-0.175619624
1609055155077124352,188,1609055155077124352,-0.026028637,-0.028141625,-0.052919493,0.000211463,-0.029520174,-0.000227231,0.999564137,0.043160389,0.009393112,0.007310376,0.008678095,-0.000212882,-0.005862060,0.007023698,-0.003656850,-0.002310313,-0.011188517,-0.000238744,-0.175625241
1609055155180445696,189,1609055155180445696,-0.021748869,-0.026727887,-0.068537011,0.000200584,-0.029086865,-0.000191413,0.999576849,0.048613679,0.012731393,-0.008726612,0.013421111,-0.006852491,0.001637476,0.007023719,-0.003657033,-0.002310328,-0.011210930,-0.000290437,-0.174641123
1609055155283693568,190,1609055155283693568,-0.018007256,-0.025584097,-0.071030859,0.000243116,-0.029167492,-0.000173926,0.999574494,0.052031009,0.012975255,-0.009965587,0.013441293,-0.010429082,-0.000161931,0.007023704,-0.003657055,-0.002310327,-0.011213738,-0.000295509,-0.174548147
1609055155386423040,191,1609055155386423040,-0.022314278,-0.024952920,-0.069262921,0.000291570,-0.029516350,-0.000229885,0.999564229,0.044951808,0.013931061,-0.006533856,0.016770771,-0.008944093,0.002044011,0.007023694,-0.003656954,-0.002310325,-0.011207661,-0.000286133,-0.174714492
1609055155489398016,192,1609055155489398016,-0.023689022,-0.027739391,-0.062147035,0.000363744,-0.029633976,-0.000237390,0.999560723,0.043082050,0.010569161,0.001791069,0.019325271,-0.004530310,0.006114832,0.007023655,-0.003656908,-0.002310337,-0.011189097,-0.000259465,-0.175175373
1609055155592817152,193,1609055155592817152,-0.026335819,-0.029399307,-0.062437999,0.000491231,-0.029650164,-0.000122787,0.999560209,0.039661653,0.009222061,0.001103615,0.019495022,-0.005642138,0.010094067,0.007023632,-0.003656843,-0.002310346,-0.011190002,-0.000260707,-0.175154130
1609055155696581888,194,1609055155696581888,-0.028073251,-0.028881182,-0.062297109,0.000506423,-0.029639383,-0.000098658,0.999560524,0.036307362,0.008850893,0.002068908,0.022613909,-0.008318874,0.011512087,0.007023636,-0.003656788,-0.002310348,-0.011189762,-0.000260414,-0.175159067
1609055155798721792,195,1609055155798721792,-0.026008259,-0.031573776,-0.058488966,0.000561932,-0.029515616,-0.000046801,0.999564160,0.038943476,0.004946873,0.006987215,0.022978585,-0.010942473,0.011371393,0.007023621,-0.003656840,-0.002310366,-0.011179183,-0.000247778,-0.175372182
1609055155869126912,196,1609055155869126912,-0.024953289,-0.030023318,-0.057566453,0.000388166,-0.029523594,-0.000108965,0.999564002,0.039597761,0.001753813,0.005253377,-0.000735170,-0.003432673,-0.009764136,0.007023664,-0.003656861,-0.002310374,-0.011177520,-0.000245889,-0.175404160
1609055155971297280,197,1609055155971297280,-0.027898753,-0.030122306,-0.058760403,0.000426776,-0.029721262,-0.000119104,0.999558127,0.035388785,0.002102135,0.003436270,0.002630863,-0.002217656,-0.010900030,0.007023677,-0.003656819,-0.002310373,-0.011183133,-0.000252027,-0.175300608
1609055156074017536,198,1609055156074017536,-0.033599037,-0.026620708,-0.059035325,0.000342374,-0.029869053,-0.000105989,0.999553756,0.028166786,0.008493495,0.001447992,0.008101479,-0.001784543,-0.004199051,0.007023739,-0.003656736,-0.002310378,-0.011185056,-0.000254116,-0.175265244
1609055156177234432,199,1609055156177234432,-0.031240110,-0.026139780,-0.061499262,0.000321957,-0.029569073,-0.000070382,0.999562685,0.033493109,0.008599908,-0.002429709,0.006113624,0.000578109,-0.004853989,0.007023752,-0.003656816,-0.002310385,-0.011193303,-0.000262924,-0.175118058
1609055156280258560,200,1609055156280258560,-0.027123779,-0.022200361,-0.064081535,0.000167688,-0.029098350,-0.000071705,0.999576537,0.040657657,0.014841315,-0.003966050,0.009210330,-0.003771834,-0.003085817,0.007023837,-0.003656992,-0.002310397,-0.011201278,-0.000271162,-0.174982163
1609055156383428864,201,1609055156383428864,-0.018505247,-0.022091005,-0.065943623,0.000203132,-0.028888538,-0.000046449,0.999582617,0.051893385,0.015171562,-0.004498678,0.008371703,-0.004413957,-0.001240656,0.007023809,-0.003657106,-0.002310404,-0.011206614,-0.000276364,-0.174898831
1609055156486276864,202,1609055156486276864,-0.017812140,-0.023571273,-0.068387319,0.000349360,-0.029101927,-0.000048214,0.999576387,0.051318408,0.014225178,-0.006299833,0.018239509,-0.009463509,0.004420808,0.007023757,-0.003657068,-0.002310405,-0.011214182,-0.000283307,-0.174790000
1609055156589553408,203,1609055156589553408,-0.026558870,-0.028972581,-0.063637747,0.000510939,-0.029422490,-0.000081142,0.999566931,0.039180277,0.007212860,-0.001162401,0.019111017,-0.009240201,0.006385284,0.007023692,-0.003656930,-0.002310408,-0.011191414,-0.000263467,-0.175097697
1609055156692684288,204,1609055156692684288,-0.022245515,-0.028594577,-0.063993963,0.000533355,-0.029355683,-0.000034518,0.999568886,0.045368742,0.007226701,-0.002836443,0.021251909,-0.005274680,0.008309676,0.007023690,-0.003656928,-0.002310408,-0.011191516,-0.000263550,-0.175096413
1609055156796438784,205,1609055156796438784,-0.022287839,-0.033293678,-0.060562452,0.000651268,-0.029188611,0.000014143,0.999573709,0.044640640,0.000270469,0.001925047,0.021323955,-0.006014212,0.008373322,0.007023653,-0.003656934,-0.002310421,-0.011175019,-0.000250333,-0.175305912
1609055156898829056,206,1609055156898829056,-0.022966600,-0.034847759,-0.063076198,0.000650586,-0.029127849,0.000051671,0.999575481,0.042522038,-0.001443012,-0.001173514,0.023148732,-0.008773080,0.009827676,0.007023665,-0.003656948,-0.002310436,-0.011186658,-0.000259090,-0.175164130
1609055156969201408,207,1609055156969201408,-0.025118194,-0.034830543,-0.059544233,0.000496906,-0.029165895,0.000014963,0.999574461,0.039526328,-0.007191099,0.001206530,-0.000322854,-0.001503661,-0.011773310,0.007023710,-0.003656948,-0.002310440,-0.011169284,-0.000246664,-0.175368700
1609055157071358208,208,1609055157071358208,-0.027681913,-0.029197298,-0.057693787,0.000271426,-0.029403754,-0.000032662,0.999567579,0.035870875,0.002244809,0.003389572,0.000380662,-0.000536537,-0.010150418,0.007023820,-0.003656894,-0.002310440,-0.011161655,-0.000241421,-0.175455906
