time,field.header.seq,field.header.stamp,field.pose.pose.position.x,field.pose.pose.position.y,field.pose.pose.position.z,field.pose.pose.orientation.x,field.pose.pose.orientation.y,field.pose.pose.orientation.z,field.pose.pose.orientation.w,field.twist.twist.linear.x,field.twist.twist.linear.y,field.twist.twist.linear.z,field.twist.twist.angular.x,field.twist.twist.angular.y,field.twist.twist.angular.z,gbx,gby,gbz,abx,aby,abz
1609046843879849728,0,1609046843879849728,0.001380684,0.000012492,-0.000002317,0.004679778,-0.019670642,-0.000165467,0.999795548,0.020986065,-0.000124710,-0.000197536,0.007534233,-0.002608802,-0.003108385,0.006641015,-0.003001717,-0.000973248,-0.012302974,-0.001852331,-0.229701937
1609046843984355328,1,1609046843984355328,0.004450308,-0.000189463,-0.000538460,0.005046383,-0.019004071,-0.000142027,0.999806661,0.037610209,-0.002768719,-0.004631881,0.012073368,-0.005771940,-0.002937018,0.006641016,-0.003001715,-0.000973248,-0.012030052,-0.001802695,-0.223958844
1609046844085905152,2,1609046844085905152,0.008915795,-0.001146897,-0.001725421,0.005502071,-0.018580317,-0.000259913,0.999812198,0.055160542,-0.007322718,-0.009330346,0.013262148,-0.005282818,0.000567646,0.006641017,-0.003001710,-0.000973248,-0.011748237,-0.001745510,-0.217681107
1609046844189086720,3,1609046844189086720,0.015767092,-0.002582978,-0.004214485,0.005672524,-0.018608677,-0.000265239,0.999810717,0.072319609,-0.012033694,-0.017176191,0.022425897,-0.007805120,0.004327392,0.006641020,-0.003001708,-0.000973247,-0.011440375,-0.001676082,-0.210503942
1609046844292747264,4,1609046844292747264,0.022845996,-0.003537315,-0.008363668,0.005461549,-0.018805854,-0.000331067,0.999808182,0.084980844,-0.012972877,-0.027864118,0.020657692,-0.004023424,0.004858180,0.006641025,-0.003001709,-0.000973246,-0.011049645,-0.001582236,-0.201151172
1609046844395283200,5,1609046844395283200,0.028821076,-0.008030650,-0.014053903,0.006033161,-0.019456269,-0.000263409,0.999792471,0.089433737,-0.024316932,-0.039010044,0.025829848,-0.007224833,0.006411375,0.006641038,-0.003001706,-0.000973248,-0.010697100,-0.001494405,-0.192560564
1609046844498526976,6,1609046844498526976,0.038687176,-0.011019710,-0.018436227,0.006062152,-0.019481065,-0.000253823,0.999791815,0.103896081,-0.027344941,-0.043083793,0.024082465,-0.003789714,0.007733624,0.006641038,-0.003001705,-0.000973248,-0.010695687,-0.001494037,-0.192525745
1609046844601438976,7,1609046844601438976,0.045258294,-0.010769960,-0.025031825,0.005670509,-0.019989713,-0.000260933,0.999784071,0.107041028,-0.022605477,-0.052085633,0.026679512,-0.005101659,0.009783460,0.006641048,-0.003001714,-0.000973248,-0.010532645,-0.001450488,-0.188487826
1609046844671971072,8,1609046844671971072,0.038267539,-0.010471010,-0.032735784,0.005252491,-0.021275795,-0.000318666,0.999759796,0.083637877,-0.025314719,-0.065164451,-0.002312841,-0.004719654,-0.008487410,0.006641078,-0.003001727,-0.000973250,-0.010222090,-0.001366886,-0.180783973
1609046844774305792,9,1609046844774305792,0.035941786,-0.010094715,-0.048065216,0.005022044,-0.022115830,-0.000317316,0.999742751,0.071125692,-0.020848083,-0.087592507,0.002899691,-0.002441516,-0.006791413,0.006641098,-0.003001744,-0.000973251,-0.009710117,-0.001229543,-0.168159596
1609046844876910848,10,1609046844876910848,0.030800957,-0.012688619,-0.063667839,0.005025255,-0.022878195,-0.000312986,0.999725581,0.056207411,-0.023939348,-0.106354541,0.005483907,-0.003186132,-0.005276900,0.006641120,-0.003001752,-0.000973252,-0.009353323,-0.001135226,-0.159456642
1609046844979641344,11,1609046844979641344,0.027429934,-0.011761812,-0.078138141,0.004853011,-0.023343979,-0.000317777,0.999715663,0.047666847,-0.019325546,-0.118843436,0.011597278,-0.004407824,-0.002127936,0.006641137,-0.003001769,-0.000973253,-0.009208233,-0.001097575,-0.155971738
1609046845087772672,12,1609046845087772672,0.023997007,-0.017171143,-0.083569744,0.005061217,-0.023691547,-0.000297586,0.999706460,0.040648248,-0.025265638,-0.115056900,0.017146301,-0.007617131,0.001134166,0.006641146,-0.003001785,-0.000973255,-0.009521816,-0.001176871,-0.163365609
1609046845191053056,13,1609046845191053056,0.020410971,-0.013232090,-0.087166776,0.004794106,-0.023935073,-0.000290939,0.999701978,0.034260318,-0.016371260,-0.109485561,0.017734669,-0.006595875,0.002027974,0.006641167,-0.003001815,-0.000973256,-0.009846905,-0.001257333,-0.170882790
1609046845293898496,14,1609046845293898496,0.020025495,-0.016226412,-0.084531818,0.004897199,-0.023999089,-0.000275444,0.999699948,0.034331782,-0.018081762,-0.095711945,0.023703329,-0.006601993,0.007203469,0.006641171,-0.003001847,-0.000973257,-0.010334488,-0.001374315,-0.181926789
1609046845396756992,15,1609046845396756992,0.020359598,-0.019004438,-0.074691351,0.004952606,-0.023996342,-0.000272751,0.999699741,0.035531825,-0.019784404,-0.073849761,0.023911158,-0.006810814,0.006677812,0.006641173,-0.003001889,-0.000973258,-0.010955544,-0.001519019,-0.195705831
1609046845500083200,16,1609046845500083200,0.016827919,-0.016296046,-0.079172448,0.004794372,-0.024094558,-0.000270521,0.999698151,0.031464733,-0.014600102,-0.073560618,0.026646079,-0.002518731,0.008101754,0.006641197,-0.003001923,-0.000973260,-0.011054791,-0.001541464,-0.197859871
1609046845572151296,17,1609046845572151296,0.017978694,-0.015146197,-0.077323788,0.004576098,-0.023993049,-0.000317083,0.999701602,0.034770802,-0.016928777,-0.066674089,0.000347247,-0.004258982,-0.007715355,0.006641209,-0.003001967,-0.000973260,-0.011260503,-0.001586745,-0.202246689
1609046845672154112,18,1609046845672154112,0.016486734,-0.012990522,-0.080464802,0.004490364,-0.024021876,-0.000322358,0.999701296,0.033691694,-0.012832334,-0.065642331,-0.000171971,-0.001981469,-0.008448916,0.006641224,-0.003002004,-0.000973261,-0.011355125,-0.001606738,-0.204221669
1609046845775036672,19,1609046845775036672,0.019037713,-0.018708193,-0.081746315,0.004615611,-0.023932328,-0.000328585,0.999702872,0.038743614,-0.019495802,-0.061787862,-0.001842238,-0.003666150,-0.007649295,0.006641209,-0.003002046,-0.000973260,-0.011497853,-0.001635543,-0.207137689
1609046845877982208,20,1609046845877982208,0.015900260,-0.012128270,-0.081884952,0.004351620,-0.024013778,-0.000359528,0.999702092,0.036188467,-0.009370093,-0.056105355,0.005524903,-0.003972958,-0.004992505,0.006641259,-0.003002073,-0.000973263,-0.011649073,-0.001664710,-0.210155606
1609046845980954368,21,1609046845980954368,0.011060875,-0.015426001,-0.075239107,0.004442461,-0.024116016,-0.000354160,0.999699233,0.031649503,-0.011672442,-0.043859112,0.007491273,-0.006359576,-0.003354505,0.006641247,-0.003002084,-0.000973269,-0.011932574,-0.001716382,-0.215690003
1609046846084257536,22,1609046846084257536,0.012510625,-0.012742269,-0.065802010,0.004480336,-0.024011085,-0.000305620,0.999701606,0.034763146,-0.005243629,-0.028786165,0.016228948,-0.002645010,0.002310146,0.006641265,-0.003002151,-0.000973270,-0.012240122,-0.001769574,-0.221559939
1609046846187910656,23,1609046846187910656,0.011752773,-0.017425832,-0.068305246,0.004642008,-0.023999656,-0.000271790,0.999701153,0.034957063,-0.011172947,-0.028651617,0.018220995,-0.006329130,0.003705161,0.006641238,-0.003002177,-0.000973275,-0.012253299,-0.001771722,-0.221805470
1609046846290307072,24,1609046846290307072,0.013881975,-0.014934424,-0.072261954,0.004617128,-0.023899594,-0.000241866,0.999703673,0.039271756,-0.008007550,-0.031567307,0.022505887,-0.007062744,0.005084276,0.006641269,-0.003002235,-0.000973277,-0.012232850,-0.001768518,-0.221431640
1609046846393627136,25,1609046846393627136,0.014221669,-0.012653677,-0.068343124,0.004577795,-0.023888121,-0.000222704,0.999704132,0.040954691,-0.003653017,-0.024094219,0.024015073,-0.007336160,0.006819066,0.006641297,-0.003002269,-0.000973277,-0.012384864,-0.001791083,-0.224148683
1609046846497103360,26,1609046846497103360,0.011759472,-0.009501355,-0.066901695,0.004511340,-0.023930472,-0.000211292,0.999703424,0.039004366,-0.000086768,-0.020365608,0.026148316,-0.006668724,0.007782857,0.006641327,-0.003002277,-0.000973277,-0.012463360,-0.001802047,-0.225522207
1609046846600000256,27,1609046846600000256,0.012792270,-0.012259544,-0.069365557,0.004558322,-0.023895563,-0.000236019,0.999704040,0.041428030,-0.003473866,-0.020920436,0.024725385,-0.005685971,0.006184264,0.006641305,-0.003002309,-0.000973278,-0.012454855,-0.001800921,-0.225375376
1609046846672477952,28,1609046846672477952,0.009702261,-0.011627551,-0.073349202,0.004419811,-0.023909456,-0.000285222,0.999704317,0.038779233,-0.007577118,-0.024802396,0.000293633,-0.004482520,-0.008739016,0.006641313,-0.003002309,-0.000973276,-0.012406246,-0.001794759,-0.224547782
1609046846772044800,29,1609046846772044800,0.012705824,-0.012713469,-0.073270784,0.004434999,-0.023801761,-0.000290612,0.999706818,0.043342016,-0.009627351,-0.022603016,-0.002713480,-0.005394978,-0.009911646,0.006641304,-0.003002359,-0.000973279,-0.012457219,-0.001800707,-0.225394730
1609046846875285504,30,1609046846875285504,0.015259933,-0.013223037,-0.073334099,0.004413159,-0.023698563,-0.000304355,0.999709363,0.047347286,-0.010361017,-0.021573361,0.002380540,-0.005021654,-0.007015436,0.006641308,-0.003002405,-0.000973281,-0.012503227,-0.001805714,-0.226146675
1609046846983414016,31,1609046846983414016,0.017444048,-0.011949364,-0.067683551,0.004378017,-0.023647174,-0.000314185,0.999710731,0.050683548,-0.006428508,-0.012542560,0.013017104,-0.005289639,-0.000468804,0.006641330,-0.003002443,-0.000973283,-0.012658689,-0.001821465,-0.228653388
1609046847084388352,32,1609046847084388352,0.015500820,-0.018720039,-0.063433381,0.004565251,-0.023759346,-0.000308451,0.999707236,0.048002209,-0.014861579,-0.007158935,0.012964284,-0.005161666,0.000417020,0.006641256,-0.003002403,-0.000973286,-0.012765486,-0.001831476,-0.230352732
1609046847187813376,33,1609046847187813376,0.015504757,-0.011624699,-0.071939559,0.004332932,-0.023786488,-0.000318073,0.999707621,0.047963154,-0.004450436,-0.015371897,0.018689858,-0.007232604,0.002325623,0.006641362,-0.003002405,-0.000973289,-0.012622228,-0.001818621,-0.228098498
1609046847291962624,34,1609046847291962624,0.017089828,-0.004572037,-0.065735741,0.004194313,-0.023737856,-0.000313594,0.999709370,0.050398552,0.006112912,-0.006389558,0.020591550,-0.007307027,0.003763821,0.006641453,-0.003002446,-0.000973289,-0.012766302,-0.001830383,-0.230335606
1609046847393856512,35,1609046847393856512,0.020073290,-0.011461262,-0.067959530,0.004449917,-0.023673123,-0.000291529,0.999709806,0.054172223,-0.003172297,-0.008092302,0.025506938,-0.006413290,0.004834351,0.006641359,-0.003002473,-0.000973293,-0.012740186,-0.001828512,-0.229934652
1609046847497085696,36,1609046847497085696,0.017782035,-0.015030033,-0.068037972,0.004606074,-0.023794769,-0.000249714,0.999706222,0.050528592,-0.007007124,-0.007122052,0.023327764,-0.007456245,0.008324904,0.006641321,-0.003002423,-0.000973298,-0.012755435,-0.001829499,-0.230165735
1609046847599806464,37,1609046847599806464,0.019532275,-0.019287300,-0.070725221,0.004772919,-0.023766688,-0.000208030,0.999706117,0.052423714,-0.011996748,-0.009645588,0.025331123,-0.003622630,0.007598999,0.006641274,-0.003002435,-0.000973299,-0.012722814,-0.001827415,-0.229673203
1609046847671875584,38,1609046847671875584,0.018326974,-0.013486400,-0.076571266,0.004504361,-0.023766515,-0.000218500,0.999707365,0.050322822,-0.008942790,-0.016506468,-0.002212950,-0.004991315,-0.009352016,0.006641376,-0.003002431,-0.000973302,-0.012632558,-0.001821671,-0.228320553
1609046847772095744,39,1609046847772095744,0.014252212,-0.018289007,-0.079431073,0.004623426,-0.023938829,-0.000230082,0.999702708,0.044173529,-0.015597578,-0.017968993,-0.000641166,-0.002599734,-0.007949243,0.006641332,-0.003002340,-0.000973297,-0.012612207,-0.001820403,-0.228016940
1609046847875608576,40,1609046847875608576,0.017238066,-0.006225492,-0.068602431,0.004217046,-0.023854230,-0.000276562,0.999706515,0.048491213,0.001658413,-0.003703311,0.005191136,-0.003706090,-0.005682515,0.006641528,-0.003002410,-0.000973296,-0.012831957,-0.001833516,-0.231245577
1609046847978022144,41,1609046847978022144,0.018524160,-0.005993361,-0.064132588,0.004249549,-0.023802282,-0.000284749,0.999707613,0.049658419,0.001581858,0.001522939,0.006619943,-0.004477478,-0.003002877,0.006641523,-0.003002434,-0.000973295,-0.012915584,-0.001837881,-0.232464576
1609046848081428992,42,1609046848081428992,0.018540754,-0.007825711,-0.067219800,0.004315450,-0.023797312,-0.000277241,0.999707451,0.049644669,-0.001643190,-0.000949792,0.007135888,-0.004811417,-0.003127450,0.006641495,-0.003002430,-0.000973297,-0.012861037,-0.001835363,-0.231673839
1609046848184928000,43,1609046848184928000,0.016437519,-0.013242293,-0.070331051,0.004485501,-0.023915242,-0.000288139,0.999703885,0.046068215,-0.008824898,-0.003479458,0.011066514,-0.007106416,-0.002578384,0.006641418,-0.003002369,-0.000973298,-0.012811392,-0.001833311,-0.230957826
1609046848296851456,44,1609046848296851456,0.016299042,-0.012852088,-0.072169560,0.004560722,-0.023951430,-0.000240664,0.999702691,0.045412728,-0.005032996,-0.004575933,0.022467673,-0.005203198,0.005266635,0.006641443,-0.003002355,-0.000973301,-0.012788618,-0.001832399,-0.230631539
1609046848400095488,45,1609046848400095488,0.013284777,-0.012185751,-0.070232428,0.004581837,-0.024066811,-0.000212158,0.999699830,0.040836839,-0.003549142,-0.002679297,0.026139498,-0.004133401,0.007653341,0.006641468,-0.003002301,-0.000973301,-0.012829967,-0.001833977,-0.231219168
1609046848501192960,46,1609046848501192960,0.011274994,-0.013078286,-0.072598722,0.004608909,-0.024127518,-0.000198263,0.999698245,0.038618380,-0.004069278,-0.004487355,0.025317740,-0.002828535,0.008481185,0.006641473,-0.003002270,-0.000973303,-0.012797715,-0.001832787,-0.230763979
1609046848571956992,47,1609046848571956992,0.010730401,-0.009967338,-0.070668019,0.004376420,-0.024045748,-0.000259037,0.999701246,0.039116182,-0.004252721,-0.002340045,0.001400578,-0.004008561,-0.006420453,0.006641527,-0.003002301,-0.000973303,-0.012835090,-0.001834116,-0.231286827
1609046848673169664,48,1609046848673169664,0.015280808,-0.010942586,-0.072432671,0.004431137,-0.023878709,-0.000261425,0.999705008,0.046344798,-0.005512036,-0.004554748,0.000447092,-0.005041237,-0.007737584,0.006641511,-0.003002386,-0.000973303,-0.012811501,-0.001833340,-0.230959073
1609046848777867776,49,1609046848777867776,0.016711413,-0.009116677,-0.067878442,0.004400982,-0.023855949,-0.000253759,0.999705687,0.047839786,-0.001658135,0.000778169,0.006932273,-0.005214710,-0.002849105,0.006641545,-0.003002401,-0.000973303,-0.012890519,-0.001835847,-0.232054475
1609046848881298176,50,1609046848881298176,0.015579684,-0.005587965,-0.063650208,0.004322868,-0.023871850,-0.000265642,0.999705645,0.046174038,0.002876860,0.005019107,0.011934747,-0.007359175,-0.001584288,0.006641599,-0.003002394,-0.000973301,-0.012955340,-0.001837784,-0.232951318
1609046848982772224,51,1609046848982772224,0.016897936,-0.009363503,-0.063952361,0.004443500,-0.023816478,-0.000271266,0.999706435,0.047991843,-0.003897039,0.003951726,0.008351034,-0.004247648,-0.002483917,0.006641536,-0.003002416,-0.000973301,-0.012945117,-0.001837514,-0.232810230
1609046849085796096,52,1609046849085796096,0.015414056,-0.011503778,-0.064977673,0.004527270,-0.023883208,-0.000252732,0.999704473,0.045238052,-0.006133262,0.002886918,0.011924764,-0.006243822,-0.000898426,0.006641517,-0.003002378,-0.000973305,-0.012924766,-0.001836978,-0.232529100
1609046849188966656,53,1609046849188966656,0.012995675,-0.006093330,-0.068440106,0.004410954,-0.023965551,-0.000229134,0.999703028,0.041661417,0.002122796,-0.000964703,0.020811753,-0.004565787,0.005002999,0.006641607,-0.003002336,-0.000973309,-0.012871001,-0.001835495,-0.231786862
1609046849292664320,54,1609046849292664320,0.016052433,-0.007746756,-0.071092638,0.004472393,-0.023875692,-0.000233585,0.999704904,0.045927549,-0.001073888,-0.003434898,0.023422906,-0.006824992,0.006240901,0.006641581,-0.003002380,-0.000973309,-0.012836105,-0.001834625,-0.231306469
1609046849395053824,55,1609046849395053824,0.017637837,-0.009262593,-0.066934427,0.004530430,-0.023806393,-0.000226190,0.999706297,0.048066864,-0.003100912,0.001749490,0.024054851,-0.006589903,0.007134301,0.006641559,-0.003002408,-0.000973308,-0.012901151,-0.001836173,-0.232202764
1609046849498718720,56,1609046849498718720,0.013979345,-0.016914308,-0.063341944,0.004792380,-0.023970415,-0.000189653,0.999701164,0.042445932,-0.012772429,0.005554267,0.023260947,-0.007616146,0.008136684,0.006641452,-0.003002325,-0.000973314,-0.012949321,-0.001837334,-0.232867775
1609046849601204224,57,1609046849601204224,0.016778936,-0.015448277,-0.069021941,0.004707839,-0.023895505,-0.000189705,0.999703359,0.046596876,-0.009110557,-0.001554453,0.026396371,-0.004584238,0.008298806,0.006641502,-0.003002362,-0.000973316,-0.012866438,-0.001834872,-0.231725455
1609046849671424512,58,1609046849671424512,0.016002154,-0.011952664,-0.068992644,0.004427544,-0.023822905,-0.000254032,0.999706358,0.046207901,-0.009268808,-0.001776223,-0.001921477,-0.004328494,-0.008794123,0.006641572,-0.003002379,-0.000973316,-0.012868974,-0.001834955,-0.231760496
1609046849773547520,59,1609046849773547520,0.016365466,-0.013205833,-0.070044638,0.004459301,-0.023849916,-0.000242424,0.999705575,0.047047885,-0.009984209,-0.002109851,-0.000601894,-0.005762975,-0.007179876,0.006641564,-0.003002373,-0.000973318,-0.012856859,-0.001834578,-0.231593382
1609046849876348928,60,1609046849876348928,0.012681885,-0.012539226,-0.071374969,0.004439600,-0.023948682,-0.000249027,0.999703300,0.042024573,-0.006628912,-0.003284996,0.008466503,-0.005174370,-0.003107349,0.006641598,-0.003002311,-0.000973325,-0.012842729,-0.001834131,-0.231398090
1609046849979423744,61,1609046849979423744,0.014177071,-0.008835012,-0.069716364,0.004347956,-0.023883091,-0.000245887,0.999705273,0.044514754,-0.000854270,-0.001619999,0.008296469,-0.004706754,-0.002228795,0.006641663,-0.003002347,-0.000973325,-0.012869336,-0.001834988,-0.231766080
1609046850082615552,62,1609046850082615552,0.014698698,-0.012410382,-0.073231734,0.004457622,-0.023886896,-0.000236882,0.999704701,0.045401583,-0.005857235,-0.006224660,0.012167062,-0.005304169,-0.000386181,0.006641613,-0.003002339,-0.000973326,-0.012828890,-0.001833787,-0.231206249
1609046850185678848,63,1609046850185678848,0.016184140,-0.004248027,-0.070027898,0.004257726,-0.023877141,-0.000252208,0.999705802,0.047093369,0.006232832,-0.002271504,0.012404863,-0.004683718,0.000553071,0.006641731,-0.003002360,-0.000973321,-0.012877201,-0.001835256,-0.231875966
1609046850288942592,64,1609046850288942592,0.018438185,-0.007160872,-0.065396660,0.004359996,-0.023798190,-0.000252606,0.999707244,0.050136697,0.001192358,0.002932020,0.015694257,-0.005605312,0.001923343,0.006641678,-0.003002394,-0.000973323,-0.012937354,-0.001836745,-0.232711509
1609046850392298752,65,1609046850392298752,0.020343860,-0.014169684,-0.066386773,0.004594764,-0.023777782,-0.000239120,0.999706681,0.051442004,-0.008169388,0.002388684,0.022388909,-0.005906861,0.007495275,0.006641579,-0.003002404,-0.000973326,-0.012922757,-0.001836437,-0.232508027
1609046850495137536,66,1609046850495137536,0.020212036,-0.015084019,-0.066119274,0.004647126,-0.023816328,-0.000225966,0.999705524,0.050186744,-0.008537147,0.001911285,0.024011564,-0.006115944,0.007912732,0.006641584,-0.003002384,-0.000973330,-0.012924222,-0.001836476,-0.232528760
1609046850598149120,67,1609046850598149120,0.018650364,-0.014365312,-0.064637041,0.004613914,-0.023881208,-0.000219734,0.999704132,0.047953428,-0.007129766,0.003026003,0.024670696,-0.005745694,0.008636700,0.006641616,-0.003002355,-0.000973333,-0.012940124,-0.001836937,-0.232752973
1609046850701236480,68,1609046850701236480,0.016975945,-0.010535866,-0.060890803,0.004498181,-0.023911331,-0.000211871,0.999703941,0.045601141,-0.001750479,0.006555374,0.026214976,-0.004103865,0.008976424,0.006641689,-0.003002341,-0.000973334,-0.012979414,-0.001838156,-0.233307951
1609046850771607040,69,1609046850771607040,0.015844691,-0.011304531,-0.066547200,0.004363862,-0.023864386,-0.000266920,0.999705645,0.044502109,-0.008362333,-0.000619123,-0.000185335,-0.006536577,-0.008694078,0.006641687,-0.003002346,-0.000973338,-0.012911968,-0.001836122,-0.232355103
1609046850873324800,70,1609046850873324800,0.017089544,-0.010808370,-0.071654144,0.004354604,-0.023836920,-0.000252707,0.999706344,0.046579591,-0.006268490,-0.007086087,0.002359577,-0.002896798,-0.006368580,0.006641706,-0.003002366,-0.000973341,-0.012857591,-0.001834571,-0.231585436
1609046850976317440,71,1609046850976317440,0.015880419,-0.011440875,-0.072980935,0.004417779,-0.023889795,-0.000232524,0.999704810,0.045116219,-0.006671985,-0.008150800,0.006725513,-0.003433522,-0.004715729,0.006641700,-0.003002337,-0.000973341,-0.012851611,-0.001834412,-0.231500722
1609046851079416576,72,1609046851079416576,0.017050868,-0.013567991,-0.072253168,0.004461059,-0.023863783,-0.000245234,0.999705236,0.046792324,-0.009521870,-0.006336797,0.008086633,-0.004900943,-0.004771754,0.006641678,-0.003002351,-0.000973340,-0.012868541,-0.001834877,-0.231741522
1609046851183229696,73,1609046851183229696,0.017540910,-0.011744511,-0.073906636,0.004397551,-0.023853804,-0.000250491,0.999705754,0.047289556,-0.005905506,-0.007623247,0.013438489,-0.006051976,-0.000970530,0.006641719,-0.003002356,-0.000973335,-0.012858683,-0.001834598,-0.231601202
1609046851285019904,74,1609046851285019904,0.015754599,-0.016988243,-0.073143637,0.004515868,-0.023919073,-0.000256142,0.999703666,0.044460390,-0.012879953,-0.005310837,0.018474039,-0.006509449,0.000542014,0.006641647,-0.003002318,-0.000973344,-0.012874717,-0.001835017,-0.231830500
1609046851388114176,75,1609046851388114176,0.012104146,-0.015602843,-0.072125521,0.004468983,-0.024041463,-0.000253795,0.999700941,0.039003969,-0.008670595,-0.003416543,0.020995904,-0.005229468,0.004061961,0.006641696,-0.003002249,-0.000973344,-0.012891357,-0.001835498,-0.232068678
1609046851491568896,76,1609046851491568896,0.011809523,-0.002400982,-0.068480205,0.004108278,-0.024048302,-0.000273562,0.999702319,0.039411781,0.010349577,0.002069757,0.019316666,-0.007842409,0.003530055,0.006641892,-0.003002259,-0.000973342,-0.012931836,-0.001836686,-0.232645606
1609046851594684928,77,1609046851594684928,0.015391262,-0.010029025,-0.070361073,0.004355148,-0.023923182,-0.000268939,0.999704277,0.045347419,-0.001131496,-0.000073096,0.022811998,-0.006758001,0.005748027,0.006641769,-0.003002316,-0.000973348,-0.012912424,-0.001836379,-0.232370092
1609046851697880576,78,1609046851697880576,0.015861460,-0.010756509,-0.068805531,0.004425364,-0.023922809,-0.000237675,0.999703986,0.045953649,-0.001276209,0.001919439,0.026770264,-0.004254122,0.008111748,0.006641763,-0.003002321,-0.000973352,-0.012928503,-0.001836558,-0.232598685
1609046851800915968,79,1609046851800915968,0.017157651,-0.010634398,-0.068367069,0.004474581,-0.023890856,-0.000214572,0.999704536,0.047513964,-0.000281764,0.002386220,0.024768090,-0.004006367,0.009610908,0.006641772,-0.003002338,-0.000973356,-0.012931680,-0.001836585,-0.232643981
1609046851871321088,80,1609046851871321088,0.015205207,-0.007990055,-0.073461072,0.004262786,-0.023895021,-0.000262734,0.999705350,0.044897873,-0.001078065,-0.004100266,0.001060008,-0.005964611,-0.005587600,0.006641813,-0.003002323,-0.000973356,-0.012882032,-0.001836225,-0.231936328
1609046851973047552,81,1609046851973047552,0.018248129,-0.011074337,-0.075059067,0.004373003,-0.023803681,-0.000250067,0.999707057,0.048994246,-0.006423674,-0.006268699,0.000110797,-0.002417131,-0.007446789,0.006641764,-0.003002359,-0.000973356,-0.012871483,-0.001836191,-0.231785796
1609046852076071424,82,1609046852076071424,0.013856603,-0.011837443,-0.074952612,0.004367101,-0.023953134,-0.000266803,0.999703508,0.042273010,-0.006617887,-0.005846720,0.005780295,-0.003679679,-0.003981073,0.006641769,-0.003002283,-0.000973360,-0.012878779,-0.001836208,-0.231890588
1609046852179152128,83,1609046852179152128,0.012580703,-0.014375917,-0.073558127,0.004445402,-0.024001365,-0.000272480,0.999702005,0.040387054,-0.009906265,-0.004585681,0.008713102,-0.004279018,-0.002340907,0.006641738,-0.003002262,-0.000973365,-0.012898167,-0.001836255,-0.232168377
1609046852282329344,84,1609046852282329344,0.014615831,-0.013873184,-0.074105675,0.004411389,-0.023947068,-0.000269689,0.999703458,0.043610759,-0.007546061,-0.004229753,0.011449656,-0.008013907,-0.000645078,0.006641765,-0.003002299,-0.000973369,-0.012898009,-0.001836256,-0.232166163
1609046852384957440,85,1609046852384957440,0.014344086,-0.015611186,-0.073269264,0.004506210,-0.023955403,-0.000232099,0.999702845,0.043163040,-0.008605810,-0.002869871,0.010315252,-0.004280949,0.000110177,0.006641751,-0.003002300,-0.000973373,-0.012909878,-0.001836338,-0.232335533
1609046852488520704,86,1609046852488520704,0.016103291,-0.012255571,-0.070297018,0.004422871,-0.023924872,-0.000219405,0.999703951,0.045665574,-0.002284642,0.001035475,0.021489978,-0.004550567,0.004881943,0.006641817,-0.003002328,-0.000973373,-0.012939371,-0.001836680,-0.232755904
1609046852591594240,87,1609046852591594240,0.013506440,-0.016942646,-0.072963319,0.004563879,-0.024005909,-0.000221623,0.999701375,0.042228072,-0.008960991,-0.001923208,0.020205824,-0.005621406,0.004338986,0.006641757,-0.003002280,-0.000973373,-0.012915966,-0.001836422,-0.232422077
1609046852694822400,88,1609046852694822400,0.016148609,-0.012916844,-0.066750731,0.004481787,-0.023885264,-0.000219152,0.999704636,0.046096557,-0.002124362,0.004826617,0.024002124,-0.006084051,0.006425907,0.006641827,-0.003002340,-0.000973372,-0.012972630,-0.001837357,-0.233228665
1609046852797986304,89,1609046852797986304,0.013262245,-0.012307713,-0.066806723,0.004511119,-0.023987775,-0.000193369,0.999702055,0.041910479,-0.000685850,0.004345139,0.024339873,-0.004920794,0.007015671,0.006641842,-0.003002291,-0.000973380,-0.012968631,-0.001837288,-0.233171633
1609046852901259776,90,1609046852901259776,0.015264692,-0.011990362,-0.060866856,0.004571973,-0.023902348,-0.000167952,0.999703829,0.044991473,-0.000247646,0.011053078,0.027303023,-0.005728579,0.006216753,0.006641846,-0.003002340,-0.000973381,-0.013015663,-0.001838167,-0.233842101
1609046852971366400,91,1609046852971366400,0.012953400,-0.015226218,-0.066299453,0.004509607,-0.023904876,-0.000210034,0.999704044,0.042714923,-0.009665907,0.002994290,-0.000271229,-0.002537405,-0.008887888,0.006641806,-0.003002319,-0.000973390,-0.012963857,-0.001837066,-0.233102386
1609046853073413632,92,1609046853073413632,0.014761378,-0.010838477,-0.068896671,0.004385598,-0.023820504,-0.000221420,0.999706608,0.045521168,-0.003013470,0.000323194,0.003921149,-0.006858334,-0.007985870,0.006641884,-0.003002358,-0.000973390,-0.012939688,-0.001836413,-0.232756843
1609046853176168960,93,1609046853176168960,0.013916276,-0.010373552,-0.072006861,0.004395763,-0.023854257,-0.000209949,0.999705761,0.044009289,-0.002197173,-0.004210592,0.006976059,-0.001946199,-0.005302899,0.006641899,-0.003002340,-0.000973390,-0.012914844,-0.001835734,-0.232399916
1609046853279094528,94,1609046853279094528,0.015731558,-0.006468993,-0.071549247,0.004316950,-0.023794594,-0.000215220,0.999707525,0.046707059,0.003306096,-0.003163381,0.006178788,-0.002943501,-0.003995098,0.006641951,-0.003002372,-0.000973387,-0.012922421,-0.001835948,-0.232509183
1609046853381848064,95,1609046853381848064,0.018316614,-0.012442404,-0.074341695,0.004502200,-0.023751432,-0.000233169,0.999707730,0.049930348,-0.005081465,-0.005053246,0.008797113,-0.005294305,-0.002762623,0.006641854,-0.003002397,-0.000973386,-0.012902909,-0.001835472,-0.232226344
1609046853485204480,96,1609046853485204480,0.015433989,-0.010314597,-0.074840683,0.004476847,-0.023887443,-0.000254327,0.999704598,0.045535557,-0.000765974,-0.004646785,0.018357327,-0.005682766,0.002734237,0.006641890,-0.003002333,-0.000973382,-0.012903499,-0.001835491,-0.232235018
1609046853588275456,97,1609046853588275456,0.014732643,-0.010505662,-0.071595965,0.004484871,-0.023916175,-0.000241618,0.999703878,0.044190279,-0.002075230,-0.000468868,0.020764535,-0.007005686,0.002542749,0.006641897,-0.003002322,-0.000973385,-0.012932699,-0.001836425,-0.232662446
1609046853691444992,98,1609046853691444992,0.014920435,-0.011221918,-0.065941355,0.004516079,-0.023866096,-0.000250166,0.999704932,0.044907328,-0.003954389,0.006334374,0.018555522,-0.005540464,0.002633221,0.006641887,-0.003002340,-0.000973385,-0.012976515,-0.001837928,-0.233304214
1609046853794646016,99,1609046853794646016,0.011938172,-0.011899270,-0.067181076,0.004513842,-0.023965169,-0.000236265,0.999702576,0.040879647,-0.004442951,0.004730620,0.021733366,-0.007984245,0.005409318,0.006641890,-0.003002293,-0.000973396,-0.012963067,-0.001837443,-0.233106736
1609046853897840640,100,1609046853897840640,0.015627083,-0.009731310,-0.058325319,0.004541879,-0.023837119,-0.000213812,0.999705515,0.046616060,-0.000267615,0.013679061,0.025208626,-0.004241620,0.008724044,0.006641920,-0.003002376,-0.000973394,-0.013025970,-0.001839854,-0.234027994
1609046854001017088,101,1609046854001017088,0.016242920,-0.011103185,-0.063061146,0.004629006,-0.023800899,-0.000188139,0.999705984,0.047293937,-0.003057508,0.006760839,0.026960760,-0.004702077,0.009409023,0.006641904,-0.003002385,-0.000973396,-0.012981898,-0.001838117,-0.233379365
1609046854071305216,102,1609046854071305216,0.014431051,-0.009941946,-0.067317925,0.004473012,-0.023789234,-0.000210190,0.999706967,0.045152955,-0.006849036,0.000471787,-0.003021960,-0.004642852,-0.008510307,0.006641929,-0.003002376,-0.000973397,-0.012948048,-0.001836622,-0.232878938
1609046854173077504,103,1609046854173077504,0.014181067,-0.009186893,-0.069333262,0.004464725,-0.023803487,-0.000211495,0.999706665,0.044127130,-0.005284000,-0.001572823,-0.000872937,-0.004730994,-0.008045128,0.006641948,-0.003002375,-0.000973395,-0.012933058,-0.001835912,-0.232656251
1609046854276171776,104,1609046854276171776,0.015344283,-0.008126849,-0.069892187,0.004448170,-0.023779992,-0.000232209,0.999707293,0.046160427,-0.002903349,-0.001494018,0.008378834,-0.003855041,-0.003273262,0.006641968,-0.003002393,-0.000973394,-0.012930354,-0.001835777,-0.232615922
1609046854379001344,105,1609046854379001344,0.016819447,-0.011017196,-0.070518711,0.004537435,-0.023744723,-0.000237539,0.999707729,0.047910571,-0.006842217,-0.002007744,0.010301723,-0.005364325,-0.000934678,0.006641934,-0.003002406,-0.000973396,-0.012927664,-0.001835636,-0.232575559
1609046854482342912,106,1609046854482342912,0.016516492,-0.010015521,-0.069810585,0.004507255,-0.023758896,-0.000241823,0.999707528,0.047092315,-0.005773662,-0.001321238,0.013466235,-0.005800010,-0.000273033,0.006641963,-0.003002400,-0.000973396,-0.012934559,-0.001836049,-0.232679838
1609046854585064960,107,1609046854585064960,0.017605057,-0.009010725,-0.067855174,0.004478701,-0.023735535,-0.000246786,0.999708210,0.048299159,-0.003753172,0.000743594,0.016523628,-0.005651402,0.000757937,0.006641988,-0.003002414,-0.000973394,-0.012949446,-0.001837006,-0.232906463
1609046854688234752,108,1609046854688234752,0.019849709,-0.006327295,-0.066657527,0.004446137,-0.023684731,-0.000243541,0.999709561,0.051780988,0.000820917,0.002405100,0.018076368,-0.003975209,0.001717834,0.006642030,-0.003002448,-0.000973392,-0.012957319,-0.001837535,-0.233027180
1609046854791399936,109,1609046854791399936,0.019707839,-0.014578650,-0.059405620,0.004685822,-0.023678933,-0.000244947,0.999708603,0.051839235,-0.010458453,0.010680864,0.018994689,-0.004719581,0.003144645,0.006641916,-0.003002441,-0.000973395,-0.013003236,-0.001840562,-0.233738639
1609046854894348544,110,1609046854894348544,0.014383771,-0.019663253,-0.058203314,0.004856042,-0.023913026,-0.000209573,0.999702227,0.044009034,-0.015454710,0.010857018,0.022357963,-0.004992759,0.006594702,0.006641864,-0.003002325,-0.000973404,-0.013004385,-0.001840658,-0.233756747
1609046854998706944,111,1609046854998706944,0.013056071,-0.014582292,-0.063648482,0.004708890,-0.023959165,-0.000185773,0.999701831,0.041402163,-0.007430457,0.003806329,0.025896003,-0.006263098,0.007196202,0.006641969,-0.003002308,-0.000973403,-0.012963530,-0.001836652,-0.233118836
1609046855101145600,112,1609046855101145600,0.014113671,-0.014642424,-0.066169388,0.004699146,-0.023935391,-0.000179454,0.999702447,0.043023214,-0.007370685,0.000668683,0.025608914,-0.005003433,0.008505872,0.006641982,-0.003002323,-0.000973402,-0.012945912,-0.001834776,-0.232845277
1609046855171255808,113,1609046855171255808,0.013878923,-0.011750000,-0.070613603,0.004473082,-0.023875596,-0.000220749,0.999704906,0.043441250,-0.007873338,-0.004887624,-0.000601681,-0.005013371,-0.008360719,0.006642041,-0.003002341,-0.000973402,-0.012918085,-0.001831617,-0.232414323
1609046855273828352,114,1609046855273828352,0.014772619,-0.011218175,-0.069209740,0.004492687,-0.023853853,-0.000203864,0.999705341,0.044673873,-0.007257861,-0.003668395,-0.002892606,-0.003276768,-0.008920150,0.006642059,-0.003002356,-0.000973403,-0.012930311,-0.001833018,-0.232603191
1609046855376131328,115,1609046855376131328,0.015706557,-0.011969573,-0.071503639,0.004527924,-0.023872424,-0.000216970,0.999704736,0.045490214,-0.007652248,-0.006303188,0.003408118,-0.003126890,-0.005376675,0.006642052,-0.003002350,-0.000973396,-0.012918690,-0.001831682,-0.232423860
1609046855479208448,116,1609046855479208448,0.017476116,-0.012694144,-0.068125350,0.004528812,-0.023829013,-0.000253360,0.999705759,0.047557224,-0.008801163,-0.001499202,0.006242201,-0.005008930,-0.005743438,0.006642053,-0.003002371,-0.000973387,-0.012943646,-0.001834625,-0.232808158
1609046855582283008,117,1609046855582283008,0.017182725,-0.011424427,-0.072633783,0.004505462,-0.023879692,-0.000239473,0.999704658,0.047044547,-0.004316517,-0.006865006,0.014739349,-0.005404337,0.001402637,0.006642091,-0.003002361,-0.000973390,-0.012917772,-0.001831500,-0.232409778
1609046855685335040,118,1609046855685335040,0.017581652,-0.014425083,-0.070198382,0.004632750,-0.023896584,-0.000231046,0.999703675,0.047334738,-0.008342428,-0.002893027,0.018997572,-0.007050824,0.002177375,0.006642055,-0.003002353,-0.000973388,-0.012937389,-0.001833889,-0.232711184
1609046855788450560,119,1609046855788450560,0.016694022,-0.007942023,-0.069958412,0.004461281,-0.023949866,-0.000240544,0.999703177,0.045627347,0.000904550,-0.002049927,0.018947013,-0.006318476,0.002317418,0.006642158,-0.003002332,-0.000973383,-0.012941163,-0.001834381,-0.232769033
1609046855891535104,120,1609046855891535104,0.014926110,-0.008033756,-0.067094619,0.004484772,-0.023986916,-0.000247250,0.999702182,0.043363444,0.000313121,0.001576336,0.019045593,-0.005394193,0.003161057,0.006642159,-0.003002312,-0.000973383,-0.012960177,-0.001836746,-0.233058697
1609046855994340096,121,1609046855994340096,0.018128902,-0.008144359,-0.064059108,0.004512411,-0.023868510,-0.000262973,0.999704888,0.048100524,-0.000533733,0.004762600,0.022626299,-0.008254219,0.004823728,0.006642152,-0.003002377,-0.000973380,-0.012978178,-0.001838889,-0.233330800
1609046856097698816,122,1609046856097698816,0.016702128,-0.010850742,-0.066115774,0.004589113,-0.023911044,-0.000253667,0.999703525,0.045918477,-0.005015519,0.001857792,0.022013720,-0.004877545,0.007454361,0.006642122,-0.003002353,-0.000973385,-0.012963894,-0.001837238,-0.233114905
1609046856200646912,123,1609046856200646912,0.013468554,-0.013379424,-0.069691439,0.004707738,-0.024030984,-0.000219735,0.999700105,0.041731837,-0.006592174,-0.001341429,0.026298665,-0.003735710,0.008798728,0.006642109,-0.003002297,-0.000973393,-0.012941684,-0.001834674,-0.232780106
1609046856270874368,124,1609046856270874368,0.012997437,-0.011806136,-0.070851933,0.004518392,-0.023947241,-0.000278216,0.999702974,0.041688155,-0.008820661,-0.003274799,0.003364232,-0.005746642,-0.006628425,0.006642147,-0.003002321,-0.000973396,-0.012935957,-0.001833987,-0.232694352
1609046856373088000,125,1609046856373088000,0.015518090,-0.008525934,-0.072440068,0.004426086,-0.023885180,-0.000289640,0.999704868,0.045571595,-0.004178112,-0.004514750,0.002252614,-0.003708153,-0.006021973,0.006642199,-0.003002363,-0.000973393,-0.012928726,-0.001833110,-0.232586782
1609046856475932416,126,1609046856475932416,0.015252262,-0.010576499,-0.070958376,0.004481645,-0.023889361,-0.000310774,0.999704515,0.045231455,-0.006547090,-0.001681130,0.006528945,-0.006670933,-0.004136142,0.006642177,-0.003002361,-0.000973394,-0.012940203,-0.001834445,-0.232757183
1609046856578944256,127,1609046856578944256,0.012603059,-0.012699307,-0.070693037,0.004522112,-0.023986745,-0.000306367,0.999702002,0.041443516,-0.009163556,-0.001117945,0.008627553,-0.004618373,-0.003227807,0.006642161,-0.003002314,-0.000973402,-0.012942891,-0.001834755,-0.232796999
1609046856682237184,128,1609046856682237184,0.015396133,-0.016065966,-0.070640258,0.004628218,-0.023920311,-0.000298868,0.999703110,0.045832130,-0.012447912,-0.000793592,0.011545520,-0.005682367,-0.000661413,0.006642128,-0.003002357,-0.000973401,-0.012944259,-0.001834914,-0.232817092
1609046856785253376,129,1609046856785253376,0.018030496,-0.018101175,-0.068890822,0.004670857,-0.023830172,-0.000286296,0.999705069,0.049664925,-0.013779070,0.001166514,0.014355317,-0.005055424,0.000314648,0.006642123,-0.003002401,-0.000973405,-0.012955705,-0.001836335,-0.232984787
1609046856888509952,130,1609046856888509952,0.019055398,-0.016179357,-0.071214007,0.004613483,-0.023846503,-0.000289279,0.999704945,0.050471034,-0.009086622,-0.001193305,0.019717179,-0.004733085,0.003434721,0.006642176,-0.003002400,-0.000973407,-0.012942036,-0.001834489,-0.232783798
1609046856991461376,131,1609046856991461376,0.019637953,-0.013059346,-0.069427129,0.004508371,-0.023864726,-0.000297710,0.999704987,0.050816752,-0.003483492,0.001252674,0.020913644,-0.005610252,0.006222641,0.006642240,-0.003002402,-0.000973410,-0.012953425,-0.001836062,-0.232951641
1609046857094422272,132,1609046857094422272,0.016207978,-0.013956341,-0.069750402,0.004552269,-0.023998583,-0.000280998,0.999701588,0.045189584,-0.004331213,0.001042838,0.023036666,-0.006386451,0.005810247,0.006642231,-0.003002332,-0.000973418,-0.012951269,-0.001835778,-0.232919767
1609046857197766912,133,1609046857197766912,0.013266609,-0.010529024,-0.070701658,0.004487618,-0.024102576,-0.000270953,0.999699382,0.040734942,0.001019282,-0.000757846,0.025151223,-0.005175333,0.007193473,0.006642293,-0.003002283,-0.000973422,-0.012946155,-0.001835119,-0.232844702
1609046857300457984,134,1609046857300457984,0.014033490,-0.011335105,-0.070459690,0.004556790,-0.024079717,-0.000245913,0.999699626,0.041785356,-0.000091890,-0.000150968,0.026756922,-0.003198904,0.008271819,0.006642286,-0.003002301,-0.000973427,-0.012948419,-0.001835387,-0.232877426
1609046857370843392,135,1609046857370843392,0.009713335,-0.014476989,-0.068923291,0.004533249,-0.024133858,-0.000255936,0.999698425,0.036331968,-0.009420737,0.000760840,-0.000777164,-0.005504959,-0.008089348,0.006642250,-0.003002258,-0.000973434,-0.012957782,-0.001836476,-0.233011618
1609046857472904448,136,1609046857472904448,0.014038644,-0.012420212,-0.069436295,0.004436809,-0.023964151,-0.000268510,0.999702937,0.043109187,-0.007280644,-0.000207487,-0.003625795,-0.005680827,-0.008109324,0.006642291,-0.003002344,-0.000973434,-0.012954820,-0.001836134,-0.232969835
1609046857575943680,137,1609046857575943680,0.009806121,-0.010929570,-0.069992732,0.004396033,-0.024093225,-0.000276595,0.999700012,0.037152862,-0.004854811,-0.001215243,0.003464462,-0.003539905,-0.005373000,0.006642325,-0.003002282,-0.000973434,-0.012951951,-0.001835818,-0.232929439
1609046857679066880,138,1609046857679066880,0.015137714,-0.010638582,-0.067873487,0.004406219,-0.023896225,-0.000279894,0.999704695,0.046203989,-0.002952172,0.001657020,0.010392639,-0.002452759,-0.001288306,0.006642328,-0.003002381,-0.000973434,-0.012965377,-0.001837178,-0.233115687
1609046857782416128,139,1609046857782416128,0.014493174,-0.017658872,-0.067532761,0.004591092,-0.023942161,-0.000285404,0.999702762,0.045018226,-0.013312458,0.001484700,0.009886890,-0.005178717,-0.002723920,0.006642237,-0.003002351,-0.000973435,-0.012966872,-0.001837319,-0.233136418
1609046857885345792,140,1609046857885345792,0.016436690,-0.011203724,-0.063234229,0.004409125,-0.023861384,-0.000295352,0.999705510,0.047891079,-0.002302992,0.007013749,0.014445221,-0.006400285,0.000607463,0.006642345,-0.003002402,-0.000973434,-0.012990654,-0.001839716,-0.233466359
1609046857988800768,141,1609046857988800768,0.017824625,-0.012658569,-0.064757490,0.004443814,-0.023836664,-0.000279557,0.999705951,0.049308898,-0.004454754,0.004644483,0.016830059,-0.004155230,0.002136852,0.006642331,-0.003002414,-0.000973437,-0.012978677,-0.001838596,-0.233299369
1609046858091836928,142,1609046858091836928,0.015924672,-0.011963417,-0.065699331,0.004504472,-0.023942667,-0.000231615,0.999703158,0.046322940,-0.001802793,0.003272795,0.021530539,-0.004713100,0.006123216,0.006642351,-0.003002369,-0.000973442,-0.012971228,-0.001837931,-0.233194781
1609046858194612224,143,1609046858194612224,0.014633768,-0.011509362,-0.066908892,0.004512059,-0.023980020,-0.000213097,0.999702233,0.044077350,-0.001032633,0.001488237,0.024130890,-0.006595173,0.005662034,0.006642369,-0.003002350,-0.000973444,-0.012963490,-0.001837275,-0.233086145
1609046858298383616,144,1609046858298383616,0.016453455,-0.017373460,-0.066135671,0.004710461,-0.023937960,-0.000193926,0.999702330,0.047095813,-0.009809925,0.002464269,0.025645509,-0.006213652,0.006443635,0.006642277,-0.003002370,-0.000973451,-0.012967397,-0.001837584,-0.233140843
1609046858400810752,145,1609046858400810752,0.016139044,-0.013178014,-0.065186534,0.004576123,-0.023924241,-0.000194466,0.999703282,0.046344450,-0.003311524,0.003856987,0.024071477,-0.002130967,0.007624670,0.006642357,-0.003002377,-0.000973451,-0.012971413,-0.001837928,-0.233197105
1609046858471033344,146,1609046858471033344,0.013407984,-0.014370227,-0.068434689,0.004455646,-0.023943475,-0.000244175,0.999703355,0.042624533,-0.009503723,-0.000200699,-0.000662234,-0.004945526,-0.008207945,0.006642352,-0.003002356,-0.000973457,-0.012952666,-0.001836331,-0.232934204
1609046858572797696,147,1609046858572797696,0.015883624,-0.010728888,-0.069439867,0.004354351,-0.023863821,-0.000256667,0.999705703,0.045941525,-0.002890515,-0.001976070,0.003331100,-0.003028910,-0.006967951,0.006642413,-0.003002405,-0.000973456,-0.012947822,-0.001835930,-0.232866391
1609046858675834368,148,1609046858675834368,0.016676300,-0.001607212,-0.070005376,0.004136330,-0.023837238,-0.000274765,0.999707258,0.046758492,0.008971792,-0.002586105,0.004084437,-0.002527226,-0.007280998,0.006642537,-0.003002426,-0.000973451,-0.012945980,-0.001835792,-0.232840488
1609046858778877696,149,1609046858778877696,0.019752889,-0.005678380,-0.059080724,0.004303737,-0.023713396,-0.000268606,0.999709498,0.051853976,0.002467087,0.010607778,0.008992448,-0.004381533,-0.003224837,0.006642464,-0.003002482,-0.000973454,-0.013005115,-0.001838684,-0.233676926
1609046858882261760,150,1609046858882261760,0.018207697,-0.010400734,-0.063145030,0.004486239,-0.023791009,-0.000230181,0.999706861,0.048832616,-0.004544929,0.005514568,0.010735702,-0.006449006,-0.001002324,0.006642392,-0.003002438,-0.000973462,-0.012978688,-0.001837684,-0.233297148
1609046858984929792,151,1609046858984929792,0.016405489,-0.019383804,-0.063696322,0.004759070,-0.023878862,-0.000198293,0.999703512,0.045796959,-0.017430052,0.003885107,0.015807072,-0.004246102,0.000511960,0.006642271,-0.003002390,-0.000973468,-0.012973556,-0.001837475,-0.233222739
1609046859088097536,152,1609046859088097536,0.015864126,-0.014569857,-0.063869809,0.004600705,-0.023892179,-0.000199035,0.999703935,0.044823542,-0.008492643,0.003715286,0.019697037,-0.005543375,0.002786176,0.006642378,-0.003002389,-0.000973466,-0.012970888,-0.001837304,-0.233183969
1609046859191257600,153,1609046859191257600,0.014232216,-0.017364512,-0.066940332,0.004674247,-0.023966686,-0.000193745,0.999701811,0.043210141,-0.010858748,-0.000150840,0.021637267,-0.006172820,0.003555494,0.006642358,-0.003002358,-0.000973468,-0.012954348,-0.001836155,-0.232943123
1609046859294385664,154,1609046859294385664,0.016065163,-0.017574652,-0.068451144,0.004653098,-0.023932269,-0.000178814,0.999702737,0.045554669,-0.009926960,-0.001443058,0.023250453,-0.005500319,0.006099412,0.006642384,-0.003002384,-0.000973471,-0.012947499,-0.001835610,-0.232843806
1609046859397656320,155,1609046859397656320,0.017194267,-0.013232290,-0.070285982,0.004515267,-0.023904486,-0.000168077,0.999704036,0.047312667,-0.003335567,-0.003419131,0.024949173,-0.004703597,0.007941990,0.006642471,-0.003002407,-0.000973471,-0.012939704,-0.001834934,-0.232730895
1609046859500774656,156,1609046859500774656,0.011976904,-0.008615203,-0.072291156,0.004457934,-0.024077809,-0.000128499,0.999700140,0.038998878,0.003850927,-0.005141161,0.025556773,-0.002854516,0.009770273,0.006642548,-0.003002321,-0.000973476,-0.012932023,-0.001834310,-0.232619430
1609046859571021568,157,1609046859571021568,0.012414110,-0.007798377,-0.073211796,0.004274568,-0.023990414,-0.000195279,0.999703031,0.040570391,-0.001816331,-0.006492023,-0.000857803,-0.006040993,-0.008653053,0.006642557,-0.003002356,-0.000973473,-0.012929618,-0.001834134,-0.232584798
1609046859672726272,158,1609046859672726272,0.018566337,-0.013011824,-0.071848912,0.004422772,-0.023799163,-0.000215879,0.999706953,0.049949972,-0.008986886,-0.004628159,-0.000618318,-0.003554021,-0.007276368,0.006642473,-0.003002444,-0.000973473,-0.012939990,-0.001834709,-0.232733201
1609046859776108288,159,1609046859776108288,0.017963717,-0.010932397,-0.072513043,0.004404311,-0.023832884,-0.000220794,0.999706230,0.048474501,-0.004090063,-0.004900344,0.008603796,-0.004533222,-0.004787759,0.006642515,-0.003002431,-0.000973470,-0.012939098,-0.001834660,-0.232720345
1609046859879061760,160,1609046859879061760,0.019027698,-0.008313452,-0.071671932,0.004344503,-0.023817247,-0.000214970,0.999706866,0.050019513,-0.001182943,-0.003107225,0.008982633,-0.005323921,-0.003216744,0.006642555,-0.003002451,-0.000973468,-0.012945878,-0.001834994,-0.232818710
1609046859982322688,161,1609046859982322688,0.019399530,-0.011190190,-0.073177024,0.004429142,-0.023842497,-0.000225802,0.999705890,0.049896537,-0.005294894,-0.004188298,0.011055345,-0.007081745,-0.002253224,0.006642517,-0.003002441,-0.000973469,-0.012940587,-0.001834782,-0.232741425
1609046860085167104,162,1609046860085167104,0.022764312,-0.021782218,-0.070182357,0.004757008,-0.023784181,-0.000197536,0.999705779,0.053891904,-0.018974791,-0.000206828,0.014124569,-0.004586123,0.000913294,0.006642371,-0.003002472,-0.000973469,-0.012957086,-0.001835416,-0.232983457
1609046860188185856,163,1609046860188185856,0.021013446,-0.018074385,-0.072377113,0.004633207,-0.023898613,-0.000183923,0.999703634,0.050223017,-0.011688864,-0.001776187,0.018778749,-0.006973500,0.001884625,0.006642468,-0.003002429,-0.000973470,-0.012947271,-0.001834784,-0.232838169
1609046860291242240,164,1609046860291242240,0.020059403,-0.020305601,-0.071888387,0.004690636,-0.023977903,-0.000177568,0.999701469,0.047604565,-0.013077607,-0.001884837,0.020353161,-0.006646282,0.004272711,0.006642464,-0.003002395,-0.000973470,-0.012951065,-0.001835074,-0.232894352
1609046860394419712,165,1609046860394419712,0.018468407,-0.017969471,-0.072509561,0.004582815,-0.024050559,-0.000188909,0.999700221,0.044755275,-0.008949969,-0.002184147,0.025348350,-0.007114322,0.006306870,0.006642529,-0.003002370,-0.000973472,-0.012949691,-0.001834955,-0.232874166
1609046860497514496,166,1609046860497514496,0.016820254,-0.017848744,-0.068922750,0.004556048,-0.024091078,-0.000181238,0.999699370,0.042644326,-0.007600468,0.001753469,0.023007464,-0.003409712,0.007108370,0.006642549,-0.003002346,-0.000973474,-0.012967624,-0.001836510,-0.233135156
1609046860600615424,167,1609046860600615424,0.016945174,-0.019345242,-0.068618416,0.004593384,-0.024110400,-0.000168846,0.999698735,0.042669382,-0.009436255,0.002406758,0.027767994,-0.007541755,0.009325965,0.006642546,-0.003002338,-0.000973476,-0.012968555,-0.001836587,-0.233148525
1609046860670919936,168,1609046860670919936,0.017729392,-0.011640621,-0.068480331,0.004211179,-0.023993427,-0.000237445,0.999703218,0.044828935,-0.003076047,0.001715587,-0.000845132,-0.002306296,-0.007126217,0.006642667,-0.003002391,-0.000973475,-0.012968797,-0.001836607,-0.233151962
1609046860773055744,169,1609046860773055744,0.017423241,-0.016425379,-0.066226959,0.004361427,-0.024031631,-0.000259599,0.999701651,0.044477795,-0.009444183,0.005290133,0.002125102,-0.004187772,-0.007290365,0.006642594,-0.003002370,-0.000973471,-0.012978263,-0.001837159,-0.233285308
1609046860875856128,170,1609046860875856128,0.016312184,-0.023376905,-0.066231336,0.004512002,-0.024133458,-0.000263622,0.999698529,0.042679161,-0.018042089,0.004960698,0.002882402,-0.005112135,-0.007596192,0.006642521,-0.003002311,-0.000973473,-0.012975817,-0.001837037,-0.233251179
1609046860979003648,171,1609046860979003648,0.017614612,-0.021163696,-0.060341493,0.004389599,-0.024041145,-0.000272346,0.999701296,0.045051031,-0.013301238,0.010667956,0.007469358,-0.003095252,-0.003416900,0.006642591,-0.003002358,-0.000973479,-0.013001680,-0.001838430,-0.233605546
1609046861082153216,172,1609046861082153216,0.019779931,-0.015288150,-0.063491019,0.004201032,-0.023972503,-0.000276477,0.999703753,0.048539843,-0.004455634,0.005529404,0.011649082,-0.006776833,-0.001786764,0.006642696,-0.003002404,-0.000973480,-0.012981835,-0.001837484,-0.233336117
1609046861185218816,173,1609046861185218816,0.018147162,-0.011681483,-0.063853511,0.004113423,-0.024019755,-0.000277377,0.999702983,0.045747160,0.000744736,0.004702313,0.009832070,-0.005300596,-0.001517925,0.006642749,-0.003002377,-0.000973479,-0.012977677,-0.001837372,-0.233279731
1609046861288495104,174,1609046861288495104,0.017262494,-0.012653509,-0.062004407,0.004191198,-0.024028032,-0.000265726,0.999702464,0.043955845,-0.000579537,0.006286139,0.020164957,-0.006314349,0.003943709,0.006642727,-0.003002377,-0.000973478,-0.012984596,-0.001837340,-0.233372947
1609046861391306240,175,1609046861391306240,0.018983284,-0.013590547,-0.059856024,0.004246103,-0.023952625,-0.000260766,0.999704043,0.046541138,-0.001215865,0.008261685,0.020064056,-0.005652383,0.004139513,0.006642710,-0.003002415,-0.000973481,-0.012992189,-0.001837129,-0.233474714
1609046861494316544,176,1609046861494316544,0.016812780,-0.012143205,-0.060401073,0.004235283,-0.023998531,-0.000244346,0.999702992,0.042921284,0.001782137,0.006788460,0.023471322,-0.006439497,0.006691766,0.006642737,-0.003002393,-0.000973485,-0.012986149,-0.001837410,-0.233393625
1609046861597459968,177,1609046861597459968,0.017693786,-0.014018326,-0.057611654,0.004361527,-0.023938649,-0.000219380,0.999703891,0.045145495,0.000100867,0.010070087,0.025286406,-0.005588058,0.007428780,0.006642699,-0.003002424,-0.000973488,-0.012996294,-0.001836725,-0.233529477
1609046861700460800,178,1609046861700460800,0.014861382,-0.016807920,-0.060266242,0.004499381,-0.024049975,-0.000189751,0.999700614,0.041321986,-0.003456209,0.005667301,0.026352715,-0.003114371,0.009608019,0.006642662,-0.003002374,-0.000973486,-0.012979657,-0.001838018,-0.233306093
1609046861770995968,179,1609046861770995968,0.013004999,-0.019023456,-0.064554396,0.004424775,-0.024042864,-0.000210979,0.999701114,0.039525259,-0.011934048,-0.000651188,-0.003128526,-0.005530003,-0.008115981,0.006642639,-0.003002360,-0.000973489,-0.012958062,-0.001839668,-0.233017510
1609046861872782080,180,1609046861872782080,0.017038435,-0.019441586,-0.066372824,0.004384000,-0.023919381,-0.000239963,0.999704249,0.046024957,-0.010911343,-0.002869333,0.003449236,-0.003558528,-0.006466960,0.006642646,-0.003002429,-0.000973489,-0.012950122,-0.001840256,-0.232912257
1609046861975788032,181,1609046861975788032,0.018407913,-0.015770163,-0.070280454,0.004280502,-0.023923154,-0.000238718,0.999704608,0.048060476,-0.003820584,-0.007335631,0.006697920,-0.001944157,-0.005883273,0.006642717,-0.003002433,-0.000973490,-0.012933492,-0.001841462,-0.232691099
1609046862078939392,182,1609046862078939392,0.019080211,-0.011503259,-0.070205693,0.004210132,-0.023926371,-0.000247205,0.999704828,0.048493802,0.002657249,-0.006322570,0.009571090,-0.005696525,-0.002013119,0.006642780,-0.003002438,-0.000973490,-0.012937586,-0.001841133,-0.232745681
1609046862182152960,183,1609046862182152960,0.022137427,-0.012524939,-0.067328253,0.004276725,-0.023825012,-0.000240480,0.999706967,0.052539303,0.000306180,-0.001708030,0.009817800,-0.005502991,-0.003443075,0.006642751,-0.003002484,-0.000973488,-0.012953739,-0.001839622,-0.232961855
1609046862285255936,184,1609046862285255936,0.020528150,-0.013521678,-0.065678511,0.004333716,-0.023925961,-0.000223377,0.999704315,0.048968200,-0.000961899,0.001193609,0.018088238,-0.009457923,0.002555554,0.006642736,-0.003002440,-0.000973493,-0.012962195,-0.001838736,-0.233076432
1609046862388201216,185,1609046862388201216,0.016418624,-0.019483223,-0.065866686,0.004493127,-0.024060207,-0.000231460,0.999700387,0.042355648,-0.010115442,0.001101405,0.013708550,-0.006035399,0.000993115,0.006642651,-0.003002363,-0.000973494,-0.012961104,-0.001838850,-0.233061598
1609046862491432448,186,1609046862491432448,0.017089942,-0.015220871,-0.069151080,0.004421707,-0.024049168,-0.000207307,0.999700977,0.043428698,-0.002409265,-0.002513960,0.024391025,-0.007580991,0.007591671,0.006642737,-0.003002382,-0.000973497,-0.012946370,-0.001840282,-0.232862980
1609046862594545664,187,1609046862594545664,0.013836044,-0.009058754,-0.069356067,0.004309526,-0.024146437,-0.000194416,0.999699125,0.038580884,0.006480512,-0.002539017,0.024253339,-0.004183778,0.007400717,0.006642828,-0.003002339,-0.000973494,-0.012947031,-0.001840214,-0.232871810
1609046862697530368,188,1609046862697530368,0.012985361,-0.011954310,-0.069480985,0.004422762,-0.024162435,-0.000190118,0.999698244,0.038135310,0.001280722,-0.002291295,0.025356030,-0.003232597,0.007620911,0.006642783,-0.003002330,-0.000973496,-0.012947962,-0.001840111,-0.232884104
1609046862800507392,189,1609046862800507392,0.012448148,-0.016581916,-0.065041061,0.004611251,-0.024190090,-0.000162221,0.999696729,0.037332609,-0.005648236,0.002734296,0.024713736,-0.002500788,0.008205310,0.006642718,-0.003002321,-0.000973500,-0.012969465,-0.001837758,-0.233163979
1609046862870868736,190,1609046862870868736,0.016546013,-0.012760372,-0.067589295,0.004380829,-0.023963055,-0.000183475,0.999703229,0.044028548,-0.005485714,-0.001207011,-0.002273926,-0.003587131,-0.008292233,0.006642779,-0.003002424,-0.000973500,-0.012957422,-0.001838942,-0.233009005
1609046862973068544,191,1609046862973068544,0.016153079,-0.010712462,-0.070186838,0.004309104,-0.023972849,-0.000192022,0.999703305,0.043205490,-0.002347568,-0.003809857,-0.000453047,-0.005369752,-0.008653088,0.006642817,-0.003002424,-0.000973500,-0.012946146,-0.001840015,-0.232863742
1609046863075634176,192,1609046863075634176,0.019674612,-0.011235373,-0.069867259,0.004343637,-0.023848244,-0.000201456,0.999706134,0.049213655,-0.002427358,-0.003402959,0.004120727,-0.001167744,-0.005668041,0.006642808,-0.003002483,-0.000973500,-0.012949749,-0.001839661,-0.232910197
1609046863178802688,193,1609046863178802688,0.017099609,-0.014195926,-0.071660020,0.004445553,-0.023960372,-0.000202548,0.999703004,0.045051829,-0.005265306,-0.003545457,0.012680203,-0.007992928,-0.001339742,0.006642772,-0.003002426,-0.000973501,-0.012943202,-0.001840309,-0.232824639
1609046863281921792,194,1609046863281921792,0.015093019,-0.021263363,-0.070624203,0.004652833,-0.024005366,-0.000179148,0.999700986,0.042427531,-0.014769420,-0.001918944,0.013304999,-0.001840998,0.001045215,0.006642676,-0.003002387,-0.000973507,-0.012949781,-0.001839717,-0.232910802
1609046863384902656,195,1609046863384902656,0.015670342,-0.016572956,-0.071244287,0.004493534,-0.023997938,-0.000172388,0.999701894,0.043483106,-0.007053341,-0.002370020,0.019432589,-0.007452961,0.001155428,0.006642776,-0.003002401,-0.000973508,-0.012948437,-0.001839802,-0.232893231
1609046863487660032,196,1609046863487660032,0.016589912,-0.014272955,-0.071351335,0.004420261,-0.023961925,-0.000194835,0.999703081,0.044713868,-0.003531113,-0.001741151,0.019236702,-0.005332599,0.002720166,0.006642818,-0.003002417,-0.000973508,-0.012949336,-0.001839754,-0.232904987
1609046863591070720,197,1609046863591070720,0.016333670,-0.012945613,-0.065198799,0.004430773,-0.024011216,-0.000173047,0.999701855,0.043828494,-0.000488059,0.005745115,0.018459599,-0.006543946,0.004531431,0.006642838,-0.003002400,-0.000973504,-0.012977039,-0.001838364,-0.233267909
1609046863694291200,198,1609046863694291200,0.019266971,-0.009400369,-0.064834499,0.004389357,-0.023931021,-0.000164836,0.999703962,0.048010702,0.005152376,0.005875145,0.024193861,-0.006105708,0.006856934,0.006642889,-0.003002456,-0.000973501,-0.012976357,-0.001838397,-0.233258994
1609046863797416192,199,1609046863797416192,0.017931426,-0.009534012,-0.065581399,0.004412467,-0.023999485,-0.000179388,0.999702217,0.045975600,0.004426019,0.004000520,0.023612723,-0.005914478,0.007013415,0.006642882,-0.003002423,-0.000973500,-0.012971168,-0.001838688,-0.233190671
1609046863900552448,200,1609046863900552448,0.016683813,-0.008985280,-0.068593606,0.004431800,-0.024046380,-0.000166686,0.999701007,0.043998136,0.004231278,0.000199015,0.025260706,-0.005196891,0.008927321,0.006642884,-0.003002403,-0.000973500,-0.012957080,-0.001839560,-0.233005165
1609046863970771968,201,1609046863970771968,0.015583912,-0.008572102,-0.070980885,0.004317043,-0.024022786,-0.000207494,0.999702069,0.042686758,-0.000633405,-0.003435614,-0.000855010,-0.004401735,-0.008530690,0.006642888,-0.003002396,-0.000973498,-0.012947225,-0.001840169,-0.232875736
1609046864072424704,202,1609046864072424704,0.011020791,0.001226623,-0.069587390,0.004067063,-0.024149737,-0.000201547,0.999700059,0.035984170,0.011810082,-0.001141042,-0.002355384,-0.004116727,-0.008596864,0.006643023,-0.003002336,-0.000973509,-0.012954620,-0.001839686,-0.232972495
1609046864175596288,203,1609046864175596288,0.015309954,-0.002560343,-0.068025074,0.004210590,-0.023989773,-0.000225815,0.999703311,0.042851723,0.004451399,0.000843598,0.002872429,-0.002774257,-0.005762722,0.006642939,-0.003002418,-0.000973506,-0.012961969,-0.001839010,-0.233067114
1609046864278694144,204,1609046864278694144,0.019400814,-0.011909598,-0.067976616,0.004536269,-0.023910271,-0.000222205,0.999703792,0.048164210,-0.007695010,0.000895440,0.010370987,-0.005113361,-0.001486827,0.006642798,-0.003002460,-0.000973508,-0.012962007,-0.001839007,-0.233067605
1609046864382097920,205,1609046864382097920,0.016714484,-0.012263213,-0.066734638,0.004575647,-0.024007532,-0.000219844,0.999701282,0.043520345,-0.007018236,0.001617060,0.014189346,-0.006082930,0.000201985,0.006642810,-0.003002413,-0.000973508,-0.012967363,-0.001838554,-0.233137087
1609046864484856832,206,1609046864484856832,0.018375198,-0.011356014,-0.067659060,0.004557702,-0.023949753,-0.000235391,0.999702746,0.045973475,-0.004881656,0.000433184,0.017765798,-0.006495557,0.002203344,0.006642837,-0.003002450,-0.000973501,-0.012963235,-0.001838818,-0.233083614
1609046864588232448,207,1609046864588232448,0.019857478,-0.011651299,-0.068152708,0.004583786,-0.023910595,-0.000220758,0.999703568,0.048535926,-0.005019429,-0.000916878,0.021208126,-0.007521902,0.004346234,0.006642843,-0.003002477,-0.000973501,-0.012961667,-0.001838892,-0.233063205
1609046864690949888,208,1609046864690949888,0.022169704,-0.013509978,-0.068132910,0.004677683,-0.023863876,-0.000211346,0.999704251,0.051281675,-0.007317285,-0.000722880,0.021357711,-0.004633622,0.005789818,0.006642818,-0.003002501,-0.000973496,-0.012962640,-0.001838864,-0.233075975
1609046864793971456,209,1609046864793971456,0.019726250,-0.015024041,-0.065800741,0.004704992,-0.023933311,-0.000214454,0.999702463,0.047394658,-0.008450337,0.002637163,0.023141194,-0.006628066,0.006424604,0.006642814,-0.003002463,-0.000973499,-0.012972475,-0.001838796,-0.233206967
