time,field.header.seq,field.header.stamp,field.pose.pose.position.x,field.pose.pose.position.y,field.pose.pose.position.z,field.pose.pose.orientation.x,field.pose.pose.orientation.y,field.pose.pose.orientation.z,field.pose.pose.orientation.w,field.twist.twist.linear.x,field.twist.twist.linear.y,field.twist.twist.linear.z,field.twist.twist.angular.x,field.twist.twist.angular.y,field.twist.twist.angular.z,gbx,gby,gbz,abx,aby,abz
1609043648668736256,0,1609043648668736256,-0.000499848,-0.000634424,-0.000169490,0.004544235,-0.015543221,-0.000005743,0.999868870,-0.006053894,-0.004506969,-0.000740085,0.016070608,-0.008183568,0.005383918,0.006873958,-0.003047847,-0.000793636,-0.007248226,-0.001751913,-0.256246528
1609043648762487296,1,1609043648762487296,-0.001730115,-0.001979289,-0.000744687,0.005189968,-0.016000785,0.000022627,0.999858509,-0.012844403,-0.012711346,-0.004356837,0.013383910,-0.006833655,0.003604214,0.006873968,-0.003047846,-0.000793636,-0.007096745,-0.001712541,-0.251083900
1609043648857476096,2,1609043648857476096,-0.003895704,-0.004288886,-0.001983104,0.005575076,-0.016400671,0.000017513,0.999849957,-0.021096606,-0.024658627,-0.010401434,-0.002390886,-0.004289561,-0.006605884,0.006873982,-0.003047847,-0.000793636,-0.006907959,-0.001659295,-0.244804263
1609043648968594688,3,1609043648968594688,-0.007557961,-0.008540040,-0.004676334,0.005991577,-0.016675934,0.000006202,0.999842995,-0.030627599,-0.032708602,-0.017936166,0.015797477,-0.003915046,0.004444933,0.006874000,-0.003047849,-0.000793636,-0.006660981,-0.001585129,-0.236776394
1609043649062355712,4,1609043649062355712,-0.011406361,-0.013364209,-0.008461692,0.006181399,-0.016719874,0.000031149,0.999841105,-0.037715875,-0.043436797,-0.026997048,0.012556827,-0.004460794,0.003423465,0.006874022,-0.003047855,-0.000793637,-0.006417361,-0.001508592,-0.228980979
1609043649157798400,5,1609043649157798400,-0.015527963,-0.017956379,-0.013070011,0.006070978,-0.016685139,0.000032750,0.999842362,-0.044080507,-0.052393963,-0.036957343,-0.003989911,-0.003393801,-0.005472601,0.006874044,-0.003047864,-0.000793637,-0.006219324,-0.001444145,-0.222714778
1609043649268594944,6,1609043649268594944,-0.019535681,-0.023462247,-0.019020035,0.005850296,-0.016426479,0.000021123,0.999847961,-0.046150513,-0.053635376,-0.044650637,0.015098372,-0.004732261,0.005522660,0.006874065,-0.003047876,-0.000793637,-0.006090106,-0.001400971,-0.218667786
1609043649362310400,7,1609043649362310400,-0.021958274,-0.026360681,-0.023408507,0.005411340,-0.016122844,-0.000034856,0.999855375,-0.045747621,-0.053958361,-0.049561779,0.003042420,-0.005573808,-0.001996568,0.006874084,-0.003047892,-0.000793638,-0.006074133,-0.001395581,-0.218169011
1609043649457795328,8,1609043649457795328,-0.023615500,-0.028350886,-0.026709386,0.005029428,-0.015788646,-0.000028037,0.999862702,-0.043283807,-0.052162386,-0.049586232,0.000073785,-0.003077641,-0.004520554,0.006874101,-0.003047909,-0.000793638,-0.006158604,-0.001424383,-0.220797292
1609043649568291584,9,1609043649568291584,-0.025338662,-0.030479367,-0.029178227,0.004709626,-0.015501191,-0.000012651,0.999868758,-0.039882816,-0.045979611,-0.047482063,0.015874051,-0.005790473,0.005612068,0.006874117,-0.003047926,-0.000793638,-0.006305799,-0.001474467,-0.225383315
1609043649662141440,10,1609043649662141440,-0.024747637,-0.029876004,-0.028662336,0.004275270,-0.015174874,-0.000056180,0.999875713,-0.034793609,-0.040891078,-0.042179080,0.003745427,-0.004642218,-0.002358917,0.006874131,-0.003047944,-0.000793638,-0.006498032,-0.001539518,-0.231389015
1609043649757415168,11,1609043649757415168,-0.024365630,-0.029213725,-0.028332284,0.003943761,-0.014909614,-0.000067593,0.999881066,-0.030106492,-0.035445668,-0.037141902,0.000637451,-0.003602477,-0.004531106,0.006874145,-0.003047961,-0.000793639,-0.006651664,-0.001590788,-0.236216374
1609043649868411648,12,1609043649868411648,-0.024562961,-0.028222690,-0.029935832,0.003753238,-0.014749129,-0.000027654,0.999884181,-0.025941512,-0.026187259,-0.034407588,0.019860744,-0.004829402,0.007341904,0.006874156,-0.003047977,-0.000793640,-0.006727810,-0.001615615,-0.238630431
1609043649962271744,13,1609043649962271744,-0.023074152,-0.027736666,-0.027219203,0.003590595,-0.014548998,-0.000041133,0.999887710,-0.021151186,-0.025326908,-0.027616642,0.010460855,-0.005039900,0.001189711,0.006874165,-0.003047992,-0.000793640,-0.006885305,-0.001665824,-0.243666770
1609043650057522944,14,1609043650057522944,-0.022155820,-0.027571730,-0.026267451,0.003465097,-0.014397845,-0.000036437,0.999890341,-0.017324950,-0.023327628,-0.024173696,0.001104191,-0.002753219,-0.004172607,0.006874177,-0.003048004,-0.000793640,-0.006972190,-0.001692756,-0.246476862
1609043650168541952,15,1609043650168541952,-0.021843729,-0.029499677,-0.024593766,0.003451174,-0.014324338,-0.000026224,0.999891445,-0.014482026,-0.019748800,-0.018109967,0.020397486,-0.002893067,0.008740834,0.006874180,-0.003048012,-0.000793641,-0.007062407,-0.001719638,-0.249438315
1609043650262203648,16,1609043650262203648,-0.021522370,-0.028370180,-0.024570168,0.003266348,-0.014254359,-0.000075634,0.999893064,-0.012838672,-0.017731322,-0.017055738,0.009066858,-0.004224819,0.000249315,0.006874192,-0.003048022,-0.000793642,-0.007095831,-0.001729229,-0.250551523
1609043650357485312,17,1609043650357485312,-0.021332252,-0.029008636,-0.023355590,0.003167343,-0.014204099,-0.000114162,0.999894094,-0.011077888,-0.017704667,-0.013938257,0.000078086,-0.001508417,-0.003820030,0.006874198,-0.003048029,-0.000793643,-0.007144064,-0.001742433,-0.252182751
1609043650468751104,18,1609043650468751104,-0.022198527,-0.029232260,-0.025096130,0.003141054,-0.014198964,-0.000114731,0.999894249,-0.010440788,-0.012694573,-0.014252805,0.012974690,-0.004454443,0.002945256,0.006874205,-0.003048032,-0.000793644,-0.007140167,-0.001741435,-0.252048356
1609043650562211840,19,1609043650562211840,-0.021548641,-0.027675077,-0.024590487,0.003063801,-0.014149324,-0.000111235,0.999895193,-0.008333508,-0.010014733,-0.012355813,0.013257608,-0.005872215,0.004121399,0.006874218,-0.003048043,-0.000793645,-0.007167829,-0.001748038,-0.253021004
1609043650657418496,20,1609043650657418496,-0.021312369,-0.026513120,-0.025331532,0.003023205,-0.014115317,-0.000101456,0.999895798,-0.007764725,-0.009568531,-0.012397410,0.000652297,-0.002110922,-0.003552610,0.006874229,-0.003048050,-0.000793646,-0.007173467,-0.001749262,-0.253223880
1609043650768271360,21,1609043650768271360,-0.021344642,-0.026344477,-0.023767245,0.002988498,-0.014099611,-0.000099968,0.999896125,-0.006624650,-0.004894019,-0.008259469,0.016175851,-0.004260145,0.005546760,0.006874233,-0.003048056,-0.000793650,-0.007208259,-0.001756077,-0.254502471
1609043650862178816,22,1609043650862178816,-0.021907213,-0.026877588,-0.024510232,0.002968489,-0.014095487,-0.000126664,0.999896239,-0.006162368,-0.005774897,-0.009174925,0.004151068,-0.004646222,-0.002351423,0.006874233,-0.003048056,-0.000793650,-0.007209119,-0.001756213,-0.254535278
1609043650957247232,23,1609043650957247232,-0.021105098,-0.026015764,-0.023957841,0.002927828,-0.014052337,-0.000110747,0.999896968,-0.004869728,-0.003615823,-0.008034294,-0.000355606,-0.003278503,-0.004278711,0.006874242,-0.003048067,-0.000793653,-0.007224404,-0.001758410,-0.255126286
1609043651068470528,24,1609043651068470528,-0.021050863,-0.027122032,-0.023836022,0.002968079,-0.014048522,-0.000095045,0.999896905,-0.003556771,-0.000627171,-0.005658014,0.020448156,-0.004698459,0.008335312,0.006874232,-0.003048069,-0.000793658,-0.007233762,-0.001759470,-0.255498161
1609043651162469632,25,1609043651162469632,-0.021450972,-0.027029198,-0.024143354,0.002936846,-0.014043050,-0.000107458,0.999897073,-0.003296428,-0.002333689,-0.006835018,0.009001935,-0.005746646,0.000204988,0.006874235,-0.003048069,-0.000793659,-0.007236828,-0.001759705,-0.255624279
1609043651257454848,26,1609043651257454848,-0.020577229,-0.026869491,-0.024180099,0.002928508,-0.014018832,-0.000113376,0.999897436,-0.001996741,-0.003012659,-0.007330287,0.004232348,-0.003463457,-0.002299916,0.006874238,-0.003048078,-0.000793660,-0.007242615,-0.001759954,-0.255869602
1609043651368612864,27,1609043651368612864,-0.021078557,-0.027084784,-0.024476542,0.002971539,-0.014041853,-0.000070175,0.999896990,-0.002389722,0.000007821,-0.007211401,0.015624356,-0.003583745,0.005684153,0.006874237,-0.003048074,-0.000793662,-0.007246734,-0.001759993,-0.256049451
1609043651462187264,28,1609043651462187264,-0.020906281,-0.026755524,-0.023721364,0.002974704,-0.014043740,-0.000058951,0.999896955,-0.001792038,0.000115315,-0.005584633,0.013841681,-0.004849946,0.003586082,0.006874241,-0.003048077,-0.000793663,-0.007257691,-0.001759658,-0.256544694
1609043651557303808,29,1609043651557303808,-0.021055078,-0.026759367,-0.024230698,0.002970327,-0.014037523,-0.000064926,0.999897055,-0.001377418,-0.000952289,-0.005753563,0.001164182,-0.001265276,-0.005103366,0.006874242,-0.003048077,-0.000793663,-0.007257882,-0.001759638,-0.256553847
1609043651668114944,30,1609043651668114944,-0.021466187,-0.026418204,-0.023948336,0.002960333,-0.014050971,-0.000068853,0.999896896,-0.001210195,0.003286560,-0.003468625,0.012272606,-0.005557186,0.004515338,0.006874243,-0.003048073,-0.000793665,-0.007263146,-0.001759059,-0.256807759
1609043651762060544,31,1609043651762060544,-0.021568844,-0.026223028,-0.024301864,0.002958724,-0.014056770,-0.000060626,0.999896819,-0.000710965,0.004530083,-0.003995905,0.013467860,-0.005720927,0.004236337,0.006874242,-0.003048073,-0.000793665,-0.007263253,-0.001759037,-0.256813289
1609043651857352960,32,1609043651857352960,-0.021363110,-0.025833102,-0.023682192,0.002948377,-0.014045795,-0.000063937,0.999897004,-0.000347140,0.002128759,-0.004234631,-0.002893236,-0.004779969,-0.006690776,0.006874244,-0.003048076,-0.000793665,-0.007269614,-0.001757745,-0.257142325
1609043651968310528,33,1609043651968310528,-0.021180420,-0.025441857,-0.023775385,0.003028806,-0.014053775,-0.000003803,0.999896654,0.000677097,0.006874339,-0.002106412,0.014062835,-0.003978753,0.003531694,0.006874243,-0.003048076,-0.000793668,-0.007270833,-0.001757455,-0.257206905
1609043652062167040,34,1609043652062167040,-0.020708357,-0.025636258,-0.023720921,0.003131720,-0.014039061,0.000048123,0.999896542,0.001232409,0.004523647,-0.003011330,0.011930454,-0.005944629,0.004686925,0.006874236,-0.003048079,-0.000793668,-0.007272365,-0.001756991,-0.257292054
1609043652157705216,35,1609043652157705216,-0.020809828,-0.026098271,-0.023529697,0.003149721,-0.014029579,0.000041339,0.999896619,0.000718372,0.000510573,-0.003472047,0.000816004,-0.002264040,-0.004694511,0.006874230,-0.003048075,-0.000793668,-0.007274920,-0.001756136,-0.257438192
1609043652269840128,36,1609043652269840128,-0.021071515,-0.025684788,-0.024087763,0.003201751,-0.014057698,0.000074672,0.999896057,0.000432253,0.004775064,-0.003327644,0.025372898,-0.005031952,0.009301251,0.006874234,-0.003048070,-0.000793668,-0.007274200,-0.001756420,-0.257395027
1609043652363836160,37,1609043652363836160,-0.021081867,-0.025110515,-0.024586409,0.003151409,-0.014054179,0.000050104,0.999896268,0.000783458,0.003551583,-0.003498941,0.013666479,-0.005790063,0.004018607,0.006874242,-0.003048069,-0.000793667,-0.007273599,-0.001756670,-0.257358230
1609043652457461504,38,1609043652457461504,-0.020816275,-0.025406241,-0.024174707,0.003179224,-0.014047787,0.000055307,0.999896269,0.001453766,0.001165908,-0.003608727,0.000883583,-0.002387091,-0.004037629,0.006874241,-0.003048070,-0.000793665,-0.007277079,-0.001755113,-0.257576942
1609043652569962240,39,1609043652569962240,-0.020931212,-0.024789342,-0.024689349,0.003230581,-0.014071368,0.000088100,0.999895771,0.001553017,0.005334553,-0.003323821,0.021030556,-0.003401090,0.007983077,0.006874247,-0.003048065,-0.000793664,-0.007276547,-0.001755380,-0.257542097
1609043652663848192,40,1609043652663848192,-0.020091635,-0.025805343,-0.023756622,0.003222927,-0.014046130,0.000079830,0.999896151,0.002706372,0.002818166,-0.002628424,0.013737819,-0.003676696,0.004835053,0.006874230,-0.003048073,-0.000793666,-0.007281727,-0.001752716,-0.257886491
1609043652757585920,41,1609043652757585920,-0.019965535,-0.025919945,-0.023216211,0.003216554,-0.014038090,0.000065184,0.999896285,0.002313830,-0.000403959,-0.002121681,-0.003435477,-0.002885083,-0.007428671,0.006874233,-0.003048070,-0.000793664,-0.007284740,-0.001751074,-0.258092545
1609043652871131392,42,1609043652871131392,-0.020069871,-0.025344161,-0.023757906,0.003250913,-0.014045525,0.000092686,0.999896068,0.001942983,0.006003303,-0.000650507,0.026232287,-0.006241389,0.009590965,0.006874239,-0.003048064,-0.000793664,-0.007283482,-0.001751822,-0.258003070
1609043652963475200,43,1609043652963475200,-0.021063460,-0.024922525,-0.024131372,0.003163458,-0.014055385,0.000041258,0.999896213,0.000146149,0.005450214,-0.001938041,0.011140129,-0.006742110,0.004964291,0.006874248,-0.003048044,-0.000793661,-0.007282866,-0.001752199,-0.257958414
1609043653058115072,44,1609043653058115072,-0.020463392,-0.025386376,-0.023526257,0.003199224,-0.014037509,0.000053294,0.999896350,0.001168346,0.002084270,-0.001791990,-0.002703589,-0.002912884,-0.005719554,0.006874240,-0.003048051,-0.000793660,-0.007285512,-0.001750510,-0.258154259
1609043653169545728,45,1609043653169545728,-0.021358909,-0.025785183,-0.024133941,0.003209798,-0.014081020,0.000050247,0.999895704,0.000263645,0.003541259,-0.001347611,0.015600026,-0.002926935,0.005526977,0.006874236,-0.003048032,-0.000793659,-0.007284136,-0.001751430,-0.258049800
1609043653263297280,46,1609043653263297280,-0.020843125,-0.025960549,-0.023633452,0.003185316,-0.014060677,0.000036292,0.999896070,0.000770680,0.001639905,-0.000601217,0.009199513,-0.004465004,0.000767726,0.006874235,-0.003048039,-0.000793658,-0.007286108,-0.001750089,-0.258201166
1609043653357565440,47,1609043653357565440,-0.020758020,-0.024772121,-0.024043878,0.003184475,-0.014055367,0.000049724,0.999896146,0.000566365,0.002579161,-0.001333497,0.004413848,-0.003557517,-0.001285007,0.006874257,-0.003048040,-0.000793656,-0.007285165,-0.001750745,-0.258127550
1609043653470639104,48,1609043653470639104,-0.021200354,-0.024820397,-0.024172484,0.003185723,-0.014072345,0.000052776,0.999895903,-0.000109963,0.005072846,-0.000379320,0.016089503,-0.007425565,0.004685434,0.006874252,-0.003048031,-0.000793656,-0.007285199,-0.001750732,-0.258129758
1609043653563307520,49,1609043653563307520,-0.020650855,-0.024763653,-0.024213728,0.003144145,-0.014052398,0.000030852,0.999896316,0.000990433,0.002941648,-0.000145736,0.010447379,-0.007259643,0.002495194,0.006874253,-0.003048038,-0.000793654,-0.007285225,-0.001750716,-0.258131685
1609043653657113344,50,1609043653657113344,-0.020115250,-0.025381435,-0.023451919,0.003164701,-0.014036480,0.000044864,0.999896475,0.001656905,0.000248991,-0.000165128,-0.004023702,-0.004906165,-0.004515417,0.006874245,-0.003048042,-0.000793652,-0.007287395,-0.001749088,-0.258308552
1609043653757525504,51,1609043653757525504,-0.020242988,-0.026050636,-0.023084088,0.003169550,-0.014041059,0.000028443,0.999896396,0.000903680,-0.000455895,0.000467860,-0.002210465,-0.003239318,-0.007174015,0.006874237,-0.003048036,-0.000793651,-0.007288324,-0.001748380,-0.258385145
1609043653866878464,52,1609043653866878464,-0.020541453,-0.025967043,-0.023230206,0.003216853,-0.014069902,0.000079288,0.999895836,0.000967217,0.003352968,0.001158099,0.019914391,-0.002772752,0.008259233,0.006874240,-0.003048027,-0.000793650,-0.007287782,-0.001748803,-0.258339809
1609043653960734464,53,1609043653960734464,-0.020548832,-0.025867051,-0.022981759,0.003245751,-0.014059636,0.000089751,0.999895886,0.001449365,0.001742976,0.000726260,0.000770302,-0.000461126,-0.003617949,0.006874246,-0.003048024,-0.000793648,-0.007288331,-0.001748380,-0.258385799
1609043654057466368,54,1609043654057466368,-0.020726380,-0.025952116,-0.022733692,0.003211673,-0.014060021,0.000076120,0.999895992,0.001173309,0.000853274,0.000239695,0.000736288,-0.002208687,-0.003644088,0.006874249,-0.003048018,-0.000793646,-0.007288822,-0.001748001,-0.258427322
1609043654167167744,55,1609043654167167744,-0.020864795,-0.025171877,-0.023722266,0.003197083,-0.014088617,0.000065069,0.999895637,0.000398975,0.003597346,-0.000890615,0.016634487,-0.004287242,0.005674301,0.006874265,-0.003048014,-0.000793642,-0.007286492,-0.001749776,-0.258230490
1609043654261045248,56,1609043654261045248,-0.020367443,-0.025039814,-0.023927486,0.003182215,-0.014070356,0.000051958,0.999895943,0.001411407,0.002679310,-0.000754760,0.008789002,-0.004797692,0.001004326,0.006874270,-0.003048020,-0.000793639,-0.007286282,-0.001749939,-0.258212594
1609043654357563392,57,1609043654357563392,-0.020045960,-0.024189129,-0.024255444,0.003133750,-0.014056598,0.000034900,0.999896290,0.001656983,0.003043173,-0.001177295,0.004259495,-0.004767532,-0.001584599,0.006874288,-0.003048022,-0.000793637,-0.007285842,-0.001750274,-0.258175241
1609043654466949888,58,1609043654466949888,-0.020716694,-0.025125510,-0.024057354,0.003177457,-0.014088220,0.000047573,0.999895706,0.000893710,0.002444613,-0.000602330,0.013878262,-0.004287046,0.006447649,0.006874272,-0.003048006,-0.000793636,-0.007286568,-0.001749724,-0.258236624
1609043654563715840,59,1609043654563715840,-0.020268676,-0.026424507,-0.023288245,0.003229387,-0.014072716,0.000058997,0.999895758,0.001447540,-0.000747851,-0.000340031,0.011078306,-0.003546264,0.002003928,0.006874254,-0.003048010,-0.000793636,-0.007288569,-0.001748225,-0.258405392
1609043654657459456,60,1609043654657459456,-0.020347438,-0.025860031,-0.023303306,0.003167859,-0.014071986,0.000039733,0.999895966,0.001501160,-0.000689244,-0.000844789,-0.000587036,-0.000691676,-0.001939793,0.006874272,-0.003048006,-0.000793633,-0.007288673,-0.001748148,-0.258414192
1609043654768308992,61,1609043654768308992,-0.021220188,-0.025632003,-0.023591834,0.003167807,-0.014107394,0.000052025,0.999895466,0.000827376,0.002095744,-0.000606802,0.015669132,-0.003626152,0.006132277,0.006874281,-0.003047990,-0.000793632,-0.007288234,-0.001748467,-0.258377438
1609043654861835264,62,1609043654861835264,-0.021134839,-0.025315807,-0.023908246,0.003125480,-0.014088615,0.000043398,0.999895865,0.000793236,0.001885944,-0.001553439,0.009956742,-0.004592093,0.002359797,0.006874287,-0.003047991,-0.000793632,-0.007287891,-0.001748715,-0.258348884
1609043654958330112,63,1609043654958330112,-0.020930187,-0.026163108,-0.023281081,0.003137120,-0.014075010,0.000048855,0.999896020,0.001124195,-0.000404814,-0.001042994,0.000809604,-0.002799140,-0.002495579,0.006874275,-0.003047991,-0.000793632,-0.007289594,-0.001747494,-0.258489669
1609043655068126720,64,1609043655068126720,-0.020789010,-0.025790534,-0.023554829,0.003202719,-0.014084219,0.000086679,0.999895679,0.001937427,0.004268133,-0.000298973,0.020489221,-0.004037118,0.007882016,0.006874279,-0.003047991,-0.000793632,-0.007289245,-0.001747744,-0.258460863
1609043655162305536,65,1609043655162305536,-0.020760155,-0.025680717,-0.023792991,0.003118928,-0.014071745,0.000037313,0.999896123,0.001414545,0.002476678,-0.000404264,0.009115424,-0.006297258,0.003319269,0.006874282,-0.003047988,-0.000793630,-0.007288960,-0.001747945,-0.258437570
1609043655257473024,66,1609043655257473024,-0.020987751,-0.025130617,-0.023816022,0.003071039,-0.014077185,0.000008543,0.999896195,0.001127831,0.002067701,-0.001358531,-0.000148826,-0.003516821,-0.003353652,0.006874295,-0.003047983,-0.000793627,-0.007289143,-0.001747817,-0.258452430
1609043655367793408,67,1609043655367793408,-0.021077852,-0.025251442,-0.023842721,0.003100206,-0.014080646,0.000017888,0.999896057,0.001155623,0.003306508,-0.001666660,0.016465982,-0.003677866,0.005689595,0.006874289,-0.003047979,-0.000793627,-0.007289489,-0.001747575,-0.258480227
1609043655463260928,68,1609043655463260928,-0.021261371,-0.025196892,-0.023723319,0.003107482,-0.014071545,0.000013295,0.999896162,0.000424262,0.001309280,-0.002035959,0.009820794,-0.003722676,0.001671645,0.006874292,-0.003047974,-0.000793626,-0.007290191,-0.001747087,-0.258536316
1609043655558699008,69,1609043655558699008,-0.020988074,-0.025848315,-0.023273813,0.003100487,-0.014058332,-0.000004091,0.999896370,0.000812796,-0.001116728,-0.002319161,0.001449561,-0.001826951,-0.003030855,0.006874286,-0.003047976,-0.000793626,-0.007291650,-0.001746084,-0.258651944
1609043655669824768,70,1609043655669824768,-0.020908833,-0.026040667,-0.023582990,0.003124755,-0.014055045,0.000007229,0.999896340,0.001345671,0.001725722,-0.001289673,0.020983670,-0.004493786,0.008313273,0.006874284,-0.003047976,-0.000793626,-0.007291531,-0.001746168,-0.258642459
1609043655763274752,71,1609043655763274752,-0.020822045,-0.026110807,-0.023788664,0.003051249,-0.014046955,-0.000041240,0.999896680,0.001269181,0.000262979,-0.001642241,0.010537244,-0.005833597,0.000039121,0.006874284,-0.003047975,-0.000793626,-0.007291500,-0.001746190,-0.258640055
1609043655857172224,72,1609043655857172224,-0.020555299,-0.025465364,-0.023894077,0.003048224,-0.014057006,-0.000026762,0.999896549,0.001585411,0.002955618,-0.001342120,0.005833953,-0.004278244,-0.000082820,0.006874294,-0.003047978,-0.000793626,-0.007291641,-0.001746091,-0.258651073
1609043655972023808,73,1609043655972023808,-0.020749199,-0.025332576,-0.023724729,0.003109208,-0.014075772,0.000003793,0.999896097,0.001241390,0.006388950,0.000215646,0.024837129,-0.007634960,0.009786043,0.006874290,-0.003047971,-0.000793627,-0.007292201,-0.001745695,-0.258694635
1609043656063204864,74,1609043656063204864,-0.020925458,-0.025902387,-0.023462996,0.003022191,-0.014059014,-0.000056263,0.999896598,0.000874474,0.002098358,0.000051278,0.004534431,-0.003863206,-0.001510993,0.006874279,-0.003047965,-0.000793629,-0.007292828,-0.001745247,-0.258743260
1609043656161874176,75,1609043656161874176,-0.020842310,-0.025730868,-0.023459997,0.002982223,-0.014054078,-0.000085342,0.999896786,0.000994918,0.002137133,0.000626838,0.005238475,-0.004289282,-0.000332405,0.006874278,-0.003047965,-0.000793629,-0.007292790,-0.001745275,-0.258740348
1609043656257388032,76,1609043656257388032,-0.020736452,-0.025949465,-0.023202349,0.002993894,-0.014058117,-0.000082591,0.999896694,0.001436948,0.001397269,0.000954208,0.002363801,-0.002108092,-0.002948310,0.006874273,-0.003047963,-0.000793631,-0.007293158,-0.001745004,-0.258768559
1609043656368046592,77,1609043656368046592,-0.020711994,-0.025666841,-0.023415081,0.002978537,-0.014079037,-0.000094872,0.999896445,0.001308396,0.004333673,0.001463703,0.013404359,-0.007124198,0.004920498,0.006874272,-0.003047960,-0.000793632,-0.007292536,-0.001745473,-0.258721212
1609043656457219840,78,1609043656457219840,-0.020614793,-0.026124654,-0.023407597,0.002989857,-0.014071011,-0.000104749,0.999896523,0.001357996,0.001076733,0.000601149,-0.001863119,-0.004371988,-0.006139210,0.006874263,-0.003047959,-0.000793634,-0.007292441,-0.001745545,-0.258714062
1609043656561094912,79,1609043656561094912,-0.020611029,-0.025565051,-0.023375331,0.002978883,-0.014079419,-0.000100267,0.999896438,0.001463832,0.004061131,0.000847847,0.005678253,-0.002635870,-0.000223775,0.006874267,-0.003047957,-0.000793636,-0.007292331,-0.001745630,-0.258705820
1609043656663915008,80,1609043656663915008,-0.020623441,-0.025413918,-0.023261700,0.002987230,-0.014079255,-0.000093311,0.999896416,0.001826980,0.004648748,0.001037541,0.014448027,-0.006641120,0.002986725,0.006874263,-0.003047954,-0.000793638,-0.007292419,-0.001745562,-0.258712325
1609043656766721536,81,1609043656766721536,-0.020509258,-0.025576574,-0.023181628,0.003003510,-0.014071783,-0.000093255,0.999896472,0.001877179,0.003966836,0.000638409,0.013421081,-0.006238683,0.004172170,0.006874255,-0.003047951,-0.000793641,-0.007292587,-0.001745429,-0.258724773
1609043656870594048,82,1609043656870594048,-0.020926646,-0.025744809,-0.023323615,0.003007379,-0.014084218,-0.000092858,0.999896286,0.001580459,0.003904444,0.000867620,0.016438035,-0.004425422,0.005801241,0.006874248,-0.003047941,-0.000793644,-0.007292253,-0.001745697,-0.258700299
1609043656972902656,83,1609043656972902656,-0.021272789,-0.025981177,-0.023504083,0.003013041,-0.014091209,-0.000083528,0.999896171,0.000806847,0.004082552,0.000644967,0.025152227,-0.007390478,0.009560489,0.006874239,-0.003047933,-0.000793649,-0.007291944,-0.001745951,-0.258677788
1609043657075711744,84,1609043657075711744,-0.021591344,-0.025734389,-0.023588237,0.003026434,-0.014109072,-0.000077180,0.999895879,0.000422299,0.005712625,0.000640588,0.028683189,-0.005507568,0.011876789,0.006874238,-0.003047927,-0.000793652,-0.007291831,-0.001746047,-0.258669606
1609043657178982400,85,1609043657178982400,-0.021595990,-0.025812277,-0.023289947,0.003104904,-0.014120050,-0.000032197,0.999895486,0.000298281,0.006071759,0.001157333,0.031776715,-0.005514995,0.014479030,0.006874228,-0.003047926,-0.000793658,-0.007292487,-0.001745492,-0.258716558
1609043657283605760,86,1609043657283605760,-0.021560608,-0.026030252,-0.023454200,0.003145229,-0.014122662,-0.000021705,0.999895323,0.000652962,0.006706421,0.001155290,0.030568887,-0.008713540,0.014772216,0.006874217,-0.003047926,-0.000793664,-0.007292147,-0.001745782,-0.258692476
1609043657387769344,87,1609043657387769344,-0.020883414,-0.025817148,-0.023552516,0.003239277,-0.014117212,0.000034318,0.999895100,0.001149050,0.007434770,0.000425738,0.033989996,-0.005233376,0.013362003,0.006874211,-0.003047935,-0.000793670,-0.007292033,-0.001745881,-0.258684496
1609043657456836352,88,1609043657456836352,-0.020841941,-0.025638114,-0.023648393,0.003016156,-0.014082448,-0.000096584,0.999896284,0.000954140,0.003097591,-0.000798525,0.001498941,-0.001395079,-0.003409357,0.006874211,-0.003047935,-0.000793670,-0.007291977,-0.001745928,-0.258680608
1609043657557137152,89,1609043657557137152,-0.020324845,-0.025335406,-0.023809831,0.003065350,-0.014065835,-0.000067858,0.999896370,0.001810098,0.003139126,-0.001217053,-0.001955181,-0.003127337,-0.005424936,0.006874214,-0.003047940,-0.000793674,-0.007291829,-0.001746051,-0.258670364
1609043657660401152,90,1609043657660401152,-0.020747448,-0.024927072,-0.023855560,0.003074925,-0.014082927,-0.000053250,0.999896101,0.001033255,0.003104118,-0.000216881,0.001055076,-0.005336018,-0.004532024,0.006874218,-0.003047930,-0.000793677,-0.007291826,-0.001746053,-0.258670213
1609043657769903360,91,1609043657769903360,-0.020569169,-0.025337288,-0.023628284,0.003202094,-0.014105781,0.000017572,0.999895381,0.001766537,0.005913027,0.001268751,0.025867851,-0.009179989,0.009895667,0.006874206,-0.003047929,-0.000793678,-0.007292188,-0.001745765,-0.258694868
1609043657871286016,92,1609043657871286016,-0.021082028,-0.025307371,-0.023556612,0.003174898,-0.014116589,-0.000001692,0.999895315,0.000756949,0.004206457,0.001106391,0.025721280,-0.005947548,0.010060007,0.006874206,-0.003047919,-0.000793681,-0.007292279,-0.001745695,-0.258701044
1609043657975111424,93,1609043657975111424,-0.021061722,-0.025305601,-0.023613374,0.003245848,-0.014124007,0.000047585,0.999894982,0.000850260,0.003577240,0.002144960,0.028822929,-0.006288626,0.012359100,0.006874205,-0.003047918,-0.000793684,-0.007292072,-0.001745847,-0.258687251
1609043658077710592,94,1609043658077710592,-0.021242708,-0.026069111,-0.023404864,0.003376542,-0.014162221,0.000098691,0.999894005,0.001080907,0.004511461,0.001886435,0.028951697,-0.007787278,0.010940408,0.006874194,-0.003047914,-0.000793685,-0.007292281,-0.001745702,-0.258701087
1609043658181786624,95,1609043658181786624,-0.021358229,-0.025507051,-0.023650290,0.003392029,-0.014168619,0.000126682,0.999893859,0.000482859,0.005400795,0.001858598,0.032422811,-0.006806584,0.015181988,0.006874203,-0.003047912,-0.000793687,-0.007291687,-0.001746077,-0.258662584
1609043658283475200,96,1609043658283475200,-0.021395027,-0.025324179,-0.023713462,0.003425895,-0.014187478,0.000140710,0.999893474,0.000805366,0.004955092,0.001464405,0.034544770,-0.005795002,0.014509349,0.006874205,-0.003047911,-0.000793687,-0.007291439,-0.001746221,-0.258646770
1609043658386534144,97,1609043658386534144,-0.021265818,-0.025212125,-0.023781681,0.003492905,-0.014183160,0.000181881,0.999893297,0.000901354,0.005937059,0.001078564,0.034177769,-0.006472430,0.014725818,0.006874205,-0.003047913,-0.000793689,-0.007291241,-0.001746327,-0.258634359
1609043658456804352,98,1609043658456804352,-0.020759795,-0.025370004,-0.023659899,0.003240127,-0.014131258,0.000025279,0.999894899,0.000890735,-0.000226848,-0.000571758,-0.002862110,-0.003851787,-0.006414712,0.006874210,-0.003047921,-0.000793687,-0.007291573,-0.001746163,-0.258654951
1609043658561256960,99,1609043658561256960,-0.020344138,-0.025844723,-0.023314690,0.003202266,-0.014118109,-0.000006050,0.999895207,0.001652708,-0.001609485,-0.000414261,0.005928583,-0.003692316,-0.001115711,0.006874210,-0.003047926,-0.000793686,-0.007292418,-0.001745775,-0.258706800
1609043658668093440,100,1609043658668093440,-0.021490758,-0.024598823,-0.023859616,0.003183366,-0.014171110,0.000004622,0.999894517,-0.000125397,0.002157601,-0.000100620,0.017002212,-0.006506808,0.006434673,0.006874237,-0.003047908,-0.000793687,-0.007291429,-0.001746201,-0.258646716
1609043658770936064,101,1609043658770936064,-0.020819392,-0.025300769,-0.024303264,0.003280521,-0.014154094,0.000053445,0.999894443,0.000446571,0.002339821,-0.000795247,0.021050356,-0.005074463,0.009029228,0.006874230,-0.003047920,-0.000793687,-0.007290788,-0.001746461,-0.258608419
1609043658874103296,102,1609043658874103296,-0.020671804,-0.024902572,-0.024386048,0.003318653,-0.014163729,0.000092251,0.999894178,0.000345394,0.002498962,-0.000400931,0.028876336,-0.006436686,0.011536539,0.006874241,-0.003047923,-0.000793689,-0.007290947,-0.001746399,-0.258617866
1609043658976997120,103,1609043658976997120,-0.020673597,-0.025112467,-0.024525381,0.003354182,-0.014169044,0.000114136,0.999893982,0.000081229,0.002474463,0.000169505,0.030327788,-0.006539452,0.013006040,0.006874239,-0.003047923,-0.000793689,-0.007290850,-0.001746431,-0.258612252
1609043659081444864,104,1609043659081444864,-0.020699037,-0.025445239,-0.024653562,0.003373097,-0.014175836,0.000123937,0.999893821,0.000127413,0.001293316,0.000349325,0.033697605,-0.007773907,0.014603489,0.006874236,-0.003047923,-0.000793689,-0.007290751,-0.001746461,-0.258606591
1609043659183437568,105,1609043659183437568,-0.020889231,-0.025415491,-0.024489951,0.003374257,-0.014195447,0.000140016,0.999893536,-0.000081402,0.002826361,0.000125805,0.033005383,-0.004034666,0.015654935,0.006874240,-0.003047921,-0.000793692,-0.007291214,-0.001746319,-0.258633117
1609043659286269184,106,1609043659286269184,-0.020739738,-0.025813020,-0.023793058,0.003393368,-0.014192217,0.000154252,0.999893515,-0.000006987,0.002326305,0.001532509,0.034011777,-0.006172654,0.013861439,0.006874234,-0.003047924,-0.000793698,-0.007292669,-0.001745883,-0.258715516
1609043659356725760,107,1609043659356725760,-0.020438997,-0.025948256,-0.023457064,0.003192485,-0.014147550,0.000040588,0.999894821,0.000258354,-0.001506222,0.000827009,0.002143126,-0.005151079,-0.002982332,0.006874241,-0.003047930,-0.000793698,-0.007293311,-0.001745703,-0.258751509
1609043659458543360,108,1609043659458543360,-0.020689653,-0.025333917,-0.023642916,0.003088742,-0.014132908,0.000006165,0.999895355,-0.000648345,-0.000800930,0.000302970,-0.000453666,-0.001335459,-0.002436821,0.006874260,-0.003047929,-0.000793696,-0.007292820,-0.001745836,-0.258724133
1609043659563061248,109,1609043659563061248,-0.021308525,-0.025483224,-0.023588988,0.003080717,-0.014143138,0.000007430,0.999895235,-0.001195464,0.000212863,-0.000024704,0.010199845,-0.004760713,0.001196139,0.006874262,-0.003047922,-0.000793695,-0.007292988,-0.001745789,-0.258733491
1609043659664602624,110,1609043659664602624,-0.021296041,-0.025931824,-0.023803660,0.003058578,-0.014123980,-0.000013526,0.999895574,-0.001114350,-0.000104997,-0.000576626,0.009685179,-0.003708693,0.002438056,0.006874258,-0.003047925,-0.000793696,-0.007292677,-0.001745878,-0.258716320
1609043659767888896,111,1609043659767888896,-0.021533989,-0.025875025,-0.023739049,0.003121837,-0.014128066,0.000032293,0.999895320,-0.001081359,0.002770438,-0.000193719,0.017274523,-0.003090586,0.006369307,0.006874261,-0.003047923,-0.000793695,-0.007292998,-0.001745782,-0.258734065
1609043659870728448,112,1609043659870728448,-0.021410099,-0.025887798,-0.023664426,0.003161972,-0.014122832,0.000062068,0.999895266,-0.000578362,0.003771663,0.000695593,0.024103099,-0.006959086,0.010592100,0.006874259,-0.003047927,-0.000793695,-0.007293223,-0.001745713,-0.258746461
1609043659980032512,113,1609043659980032512,-0.021511836,-0.025932302,-0.023755559,0.003303678,-0.014137498,0.000149030,0.999894592,-0.000429181,0.005468729,0.000947141,0.032557540,-0.007053792,0.014623634,0.006874255,-0.003047927,-0.000793695,-0.007293114,-0.001745746,-0.258740506
1609043660082999808,114,1609043660082999808,-0.020804752,-0.025998189,-0.023767574,0.003354529,-0.014117483,0.000181487,0.999894700,0.001123264,0.004298014,0.000810666,0.032302193,-0.005516967,0.014240301,0.006874253,-0.003047937,-0.000793696,-0.007293140,-0.001745737,-0.258741951
1609043660186392832,115,1609043660186392832,-0.020929334,-0.025987469,-0.023622504,0.003358065,-0.014127326,0.000183615,0.999894549,0.000887818,0.004083268,0.000876048,0.034391642,-0.006455369,0.014757116,0.006874252,-0.003047933,-0.000793699,-0.007293445,-0.001745644,-0.258758913
1609043660257445888,116,1609043660257445888,-0.020839390,-0.026549179,-0.023030396,0.003144157,-0.014084792,0.000046626,0.999895860,0.000638338,-0.001633114,0.000671488,0.001139058,-0.002792672,-0.001568963,0.006874248,-0.003047934,-0.000793698,-0.007294566,-0.001745312,-0.258821314
1609043660358417664,117,1609043660358417664,-0.021287708,-0.025640276,-0.023282244,0.003094727,-0.014107549,0.000030950,0.999895694,0.000071966,0.001252482,0.000511458,0.005155755,-0.004698649,0.000189047,0.006874270,-0.003047927,-0.000793696,-0.007293965,-0.001745489,-0.258787673
1609043660461256704,118,1609043660461256704,-0.020840215,-0.025497607,-0.023392349,0.003063645,-0.014093357,0.000034110,0.999895990,0.000831917,0.002806829,0.001299219,0.010275389,-0.002662169,0.002755316,0.006874272,-0.003047934,-0.000793694,-0.007293625,-0.001745593,-0.258768640
1609043660564266496,119,1609043660564266496,-0.020992402,-0.025411310,-0.023604954,0.003133443,-0.014093218,0.000086492,0.999895772,0.000222375,0.003708632,0.001370195,0.014362391,-0.008384870,0.004435135,0.006874274,-0.003047930,-0.000793691,-0.007293099,-0.001745760,-0.258739048
1609043660667532288,120,1609043660667532288,-0.021734797,-0.025343174,-0.023640427,0.003132159,-0.014109495,0.000077671,0.999895547,-0.000537176,0.004048617,0.001473249,0.014358392,-0.006184054,0.004794246,0.006874274,-0.003047918,-0.000793686,-0.007292922,-0.001745816,-0.258729016
1609043660771424256,121,1609043660771424256,-0.021465022,-0.025402886,-0.023772362,0.003166001,-0.014101981,0.000106862,0.999895544,0.000141575,0.004839691,0.001715725,0.023729578,-0.008719935,0.009600694,0.006874268,-0.003047922,-0.000793685,-0.007292546,-0.001745938,-0.258707700
1609043660873684992,122,1609043660873684992,-0.021484751,-0.025313404,-0.023717856,0.003199915,-0.014093059,0.000116852,0.999895561,0.000148977,0.003998427,0.002103161,0.028627448,-0.005853336,0.011597767,0.006874267,-0.003047922,-0.000793685,-0.007292462,-0.001745965,-0.258702859
1609043660977250560,123,1609043660977250560,-0.021458787,-0.025388142,-0.023407264,0.003265323,-0.014099734,0.000156574,0.999895250,-0.000109687,0.003425589,0.002007693,0.028315695,-0.005810991,0.011868062,0.006874266,-0.003047921,-0.000793684,-0.007292814,-0.001745850,-0.258723185
1609043661080220928,124,1609043661080220928,-0.021482527,-0.026283276,-0.023225260,0.003326130,-0.014125019,0.000174196,0.999894690,0.000092246,0.003417067,0.002192486,0.032624468,-0.010365183,0.014541137,0.006874252,-0.003047920,-0.000793683,-0.007292922,-0.001745816,-0.258729401
1609043661183395328,125,1609043661183395328,-0.021305191,-0.026183709,-0.023130577,0.003358893,-0.014101782,0.000200254,0.999894903,0.000960351,0.004018627,0.001752806,0.034368426,-0.004101666,0.014152514,0.006874254,-0.003047921,-0.000793683,-0.007292966,-0.001745801,-0.258731993
1609043661286161152,126,1609043661286161152,-0.020627543,-0.026186297,-0.023215965,0.003405689,-0.014092837,0.000218523,0.999894867,0.002204242,0.004160071,0.002175603,0.034221634,-0.007428268,0.015379693,0.006874253,-0.003047929,-0.000793684,-0.007292662,-0.001745896,-0.258714094
1609043661356396800,127,1609043661356396800,-0.020717515,-0.025785025,-0.023408851,0.003132098,-0.014055275,0.000053684,0.999896313,0.001510522,0.000675413,0.000382218,0.000533754,-0.003134937,-0.002778462,0.006874266,-0.003047925,-0.000793681,-0.007292324,-0.001745998,-0.258694031
1609043661458095616,128,1609043661458095616,-0.020866208,-0.025191134,-0.023810699,0.003066965,-0.014060184,0.000026143,0.999896447,0.001452005,0.000617336,-0.000882144,0.002762686,-0.003300317,-0.002255808,0.006874280,-0.003047920,-0.000793678,-0.007291750,-0.001746176,-0.258659539
1609043661561083904,129,1609043661561083904,-0.020707471,-0.025953058,-0.023747452,0.003071249,-0.014059232,0.000015017,0.999896447,0.001503105,0.000641767,-0.000818685,0.009707797,-0.005656608,0.000938098,0.006874269,-0.003047918,-0.000793677,-0.007291998,-0.001746093,-0.258674596
1609043661664525568,130,1609043661664525568,-0.020733886,-0.025906553,-0.023747333,0.003067307,-0.014073849,0.000014736,0.999896254,0.001602808,0.001351220,-0.000190021,0.013531413,-0.006197692,0.004494670,0.006874271,-0.003047915,-0.000793677,-0.007292142,-0.001746041,-0.258683447
1609043661768240896,131,1609043661768240896,-0.020390555,-0.026045027,-0.023604611,0.003090072,-0.014074678,0.000024762,0.999896172,0.002231265,0.002572545,0.000385608,0.018176310,-0.004888770,0.006098483,0.006874268,-0.003047916,-0.000793678,-0.007292438,-0.001745928,-0.258701779
1609043661870469376,132,1609043661870469376,-0.020724470,-0.025813590,-0.023588718,0.003144226,-0.014093360,0.000060826,0.999895738,0.001713188,0.004729176,0.000637162,0.020498561,-0.002741939,0.008164090,0.006874270,-0.003047907,-0.000793678,-0.007292482,-0.001745910,-0.258704512
1609043661973753088,133,1609043661973753088,-0.020932943,-0.025861429,-0.023643768,0.003169982,-0.014117900,0.000087934,0.999895309,0.001533070,0.004991405,0.000505529,0.028140038,-0.006731642,0.011554875,0.006874266,-0.003047902,-0.000793678,-0.007292427,-0.001745933,-0.258701046
1609043662076670464,134,1609043662076670464,-0.021010638,-0.026142309,-0.023575781,0.003111823,-0.014109244,0.000042142,0.999895617,0.001453809,0.005201929,0.001681304,0.030408014,-0.006810563,0.012911230,0.006874258,-0.003047898,-0.000793679,-0.007292546,-0.001745881,-0.258708503
1609043662183703296,135,1609043662183703296,-0.020979608,-0.026126455,-0.022928468,0.003228197,-0.014119712,0.000109711,0.999895095,0.001193464,0.005056276,0.001278366,0.035083964,-0.005860012,0.014534199,0.006874253,-0.003047895,-0.000793683,-0.007293401,-0.001745484,-0.258762489
1609043662285902336,136,1609043662285902336,-0.021025032,-0.026414011,-0.022728181,0.003303041,-0.014139014,0.000146836,0.999894573,0.001097427,0.004851642,0.001812616,0.032462887,-0.008628296,0.013880213,0.006874246,-0.003047893,-0.000793685,-0.007293630,-0.001745373,-0.258776891
1609043662356905728,137,1609043662356905728,-0.020329461,-0.027187277,-0.022643113,0.003116887,-0.014080617,0.000024603,0.999896005,0.001774038,-0.000821084,0.000860954,0.001232524,-0.002925255,-0.003425452,0.006874236,-0.003047901,-0.000793685,-0.007293710,-0.001745334,-0.258781933
1609043662457743616,138,1609043662457743616,-0.020425860,-0.026556277,-0.022848695,0.003041636,-0.014095237,-0.000001930,0.999896031,0.001613808,-0.000615207,0.000771643,0.001448602,-0.003459297,-0.003810959,0.006874251,-0.003047898,-0.000793685,-0.007293305,-0.001745532,-0.258756385
1609043662561408256,139,1609043662561408256,-0.021017763,-0.025991018,-0.023155338,0.003057082,-0.014131217,0.000011441,0.999895476,0.000751646,0.003150578,0.000496593,0.009774959,-0.004866081,0.001558861,0.006874262,-0.003047887,-0.000793683,-0.007292783,-0.001745794,-0.258723497
1609043662665227776,140,1609043662665227776,-0.020951014,-0.025786224,-0.023194802,0.003086315,-0.014125751,0.000037237,0.999895463,0.000584276,0.005275004,0.000799891,0.019050874,-0.006792460,0.006118343,0.006874260,-0.003047887,-0.000793683,-0.007292734,-0.001745820,-0.258720435
1609043662767758080,141,1609043662767758080,-0.020903128,-0.025525352,-0.023226571,0.003103556,-0.014117535,0.000038157,0.999895525,0.000915872,0.007236739,0.001588674,0.017040888,-0.003959325,0.005576366,0.006874258,-0.003047887,-0.000793683,-0.007292636,-0.001745871,-0.258714368
1609043662870408448,142,1609043662870408448,-0.021490158,-0.025745321,-0.023124442,0.003116027,-0.014145132,0.000030011,0.999895097,0.000310572,0.005482645,0.001455300,0.025400167,-0.007244750,0.009881601,0.006874249,-0.003047876,-0.000793683,-0.007292714,-0.001745831,-0.258719160
1609043662973894656,143,1609043662973894656,-0.021497419,-0.025661128,-0.023083574,0.003129349,-0.014140558,0.000042787,0.999895119,0.000591446,0.006195204,0.001837011,0.027379509,-0.005953869,0.011428985,0.006874245,-0.003047875,-0.000793684,-0.007292668,-0.001745856,-0.258716317
1609043663076516352,144,1609043663076516352,-0.021421943,-0.025574449,-0.022973591,0.003203520,-0.014151157,0.000089358,0.999894732,0.000313488,0.007272725,0.001739432,0.030896872,-0.005765998,0.013145167,0.006874239,-0.003047877,-0.000793688,-0.007292684,-0.001745848,-0.258717321
1609043663179625984,145,1609043663179625984,-0.021811332,-0.025851796,-0.022821085,0.003332556,-0.014168796,0.000157302,0.999894052,-0.000419713,0.008054530,0.001831726,0.031551462,-0.006327216,0.014925730,0.006874229,-0.003047871,-0.000793688,-0.007292816,-0.001745777,-0.258725255
1609043663283624192,146,1609043663283624192,-0.021763706,-0.025441651,-0.023018343,0.003393659,-0.014172005,0.000201281,0.999893793,0.000001292,0.008045254,0.000419924,0.033364300,-0.008599966,0.013707651,0.006874229,-0.003047873,-0.000793689,-0.007292555,-0.001745909,-0.258709712
1609043663386454784,147,1609043663386454784,-0.020876871,-0.025709940,-0.023152764,0.003388409,-0.014134881,0.000191393,0.999894338,0.001622075,0.005429468,-0.000274587,0.033636503,-0.004577881,0.013936385,0.006874221,-0.003047885,-0.000793690,-0.007292480,-0.001745944,-0.258705303
1609043663456806912,148,1609043663456806912,-0.020673285,-0.026085290,-0.023116819,0.003198854,-0.014092857,0.000072452,0.999895571,0.001607780,0.000182263,-0.002085857,-0.001327698,-0.002798255,-0.005020913,0.006874222,-0.003047886,-0.000793688,-0.007292722,-0.001745837,-0.258719593
1609043663559280640,149,1609043663559280640,-0.020946539,-0.026345040,-0.023221525,0.003191487,-0.014107644,0.000065385,0.999895387,0.000883322,0.000406311,-0.001439290,0.001515968,-0.002843842,-0.003445995,0.006874221,-0.003047879,-0.000793685,-0.007292797,-0.001745806,-0.258724032
1609043663661369600,150,1609043663661369600,-0.021057413,-0.026761788,-0.023183201,0.003219351,-0.014111847,0.000069054,0.999895238,0.000951187,0.001353090,-0.001562144,0.010534611,-0.004948574,0.001636537,0.006874220,-0.003047875,-0.000793683,-0.007293082,-0.001745696,-0.258740834
1609043663764312064,151,1609043663764312064,-0.021025609,-0.025575618,-0.023773355,0.003223602,-0.014109937,0.000080606,0.999895250,0.000907497,0.002799008,-0.001739214,0.013211675,-0.006713647,0.003226623,0.006874245,-0.003047876,-0.000793680,-0.007292538,-0.001745888,-0.258708796
1609043663867734784,152,1609043663867734784,-0.021037577,-0.025097471,-0.024186041,0.003247748,-0.014121658,0.000100127,0.999895005,0.000805832,0.005761949,-0.001740702,0.021929491,-0.003853728,0.010286257,0.006874250,-0.003047875,-0.000793679,-0.007292319,-0.001745958,-0.258695958
1609043663970979072,153,1609043663970979072,-0.020990615,-0.024897450,-0.024449403,0.003215154,-0.014128323,0.000089020,0.999895017,0.000835485,0.006543347,-0.001637856,0.019484371,-0.004052282,0.008019759,0.006874248,-0.003047874,-0.000793679,-0.007292279,-0.001745970,-0.258693624
1609043664074723584,154,1609043664074723584,-0.021361887,-0.025260728,-0.024216633,0.003252493,-0.014140381,0.000096486,0.999894725,-0.000190448,0.006065389,-0.000863081,0.029633055,-0.004666614,0.013177286,0.006874238,-0.003047868,-0.000793679,-0.007292921,-0.001745779,-0.258731006
1609043664176994816,155,1609043664176994816,-0.021011132,-0.025821160,-0.024074727,0.003281574,-0.014118006,0.000105990,0.999894945,0.000399563,0.004709554,-0.000800815,0.029544961,-0.006104282,0.012668722,0.006874227,-0.003047873,-0.000793680,-0.007293367,-0.001745650,-0.258756970
1609043664279771136,156,1609043664279771136,-0.020995820,-0.025829398,-0.024275189,0.003390286,-0.014126563,0.000166592,0.999894454,0.000684526,0.004965455,-0.000463344,0.034976095,-0.006788286,0.014498525,0.006874224,-0.003047872,-0.000793680,-0.007293306,-0.001745666,-0.258753421
1609043664383482624,157,1609043664383482624,-0.021409353,-0.025748053,-0.023840526,0.003279827,-0.014124006,0.000114875,0.999894865,0.000019797,0.004182930,0.000081328,0.031087758,-0.006213753,0.014471450,0.006874225,-0.003047864,-0.000793684,-0.007294057,-0.001745467,-0.258797384
1609043664486382592,158,1609043664486382592,-0.021452035,-0.025919592,-0.023999369,0.003353396,-0.014135238,0.000162122,0.999894456,0.000134133,0.004173308,0.000021334,0.034128241,-0.004504096,0.015180377,0.006874221,-0.003047864,-0.000793684,-0.007293995,-0.001745483,-0.258793725
1609043664556564224,159,1609043664556564224,-0.021249346,-0.025415762,-0.024073309,0.003079947,-0.014078534,0.000009956,0.999896149,0.000319454,0.000099309,-0.001145667,0.000620326,-0.000633616,-0.003919914,0.006874233,-0.003047867,-0.000793682,-0.007294046,-0.001745470,-0.258796737
1609043664658283264,160,1609043664658283264,-0.021208247,-0.025258489,-0.024168641,0.003102513,-0.014083241,0.000038297,0.999896012,0.000301450,0.000381230,-0.001828663,0.002216254,-0.001897399,-0.003441763,0.006874234,-0.003047868,-0.000793682,-0.007294079,-0.001745461,-0.258798687
1609043664761707008,161,1609043664761707008,-0.021474871,-0.025172468,-0.024107709,0.003118649,-0.014101934,0.000055218,0.999895698,0.000384981,0.003587101,-0.000272026,0.011232221,-0.004066717,0.001594565,0.006874237,-0.003047863,-0.000793678,-0.007294292,-0.001745400,-0.258811368
1609043664864668672,162,1609043664864668672,-0.021434843,-0.025020627,-0.024205636,0.003147004,-0.014107355,0.000060588,0.999895532,0.000484621,0.003633226,-0.000490365,0.016069500,-0.005491838,0.004810420,0.006874237,-0.003047863,-0.000793678,-0.007294280,-0.001745403,-0.258810658
1609043664967721472,163,1609043664967721472,-0.021310184,-0.025379939,-0.023862028,0.003207176,-0.014109557,0.000097515,0.999895307,0.000933575,0.003542420,0.000539231,0.022936819,-0.005183967,0.008914722,0.006874230,-0.003047863,-0.000793676,-0.007294786,-0.001745256,-0.258840785
1609043665072690176,164,1609043665072690176,-0.021341545,-0.025783930,-0.023681559,0.003215193,-0.014112098,0.000097234,0.999895245,0.001019886,0.003462742,0.001482225,0.028458582,-0.009176984,0.011877762,0.006874224,-0.003047861,-0.000793676,-0.007295013,-0.001745191,-0.258854365
1609043665173795584,165,1609043665173795584,-0.021435206,-0.026148127,-0.023546388,0.003209368,-0.014120555,0.000091820,0.999895145,0.001062914,0.004091535,0.002049183,0.024425363,-0.006776700,0.010205222,0.006874219,-0.003047857,-0.000793674,-0.007295110,-0.001745162,-0.258860159
1609043665277085952,166,1609043665277085952,-0.021579800,-0.025737917,-0.023493770,0.003253616,-0.014135825,0.000124183,0.999894783,0.000531211,0.003908958,0.001618199,0.026872858,-0.006742278,0.010739954,0.006874226,-0.003047855,-0.000793673,-0.007295073,-0.001745172,-0.258857968
1609043665380308992,167,1609043665380308992,-0.021124042,-0.026241193,-0.023202765,0.003294352,-0.014131532,0.000143122,0.999894708,0.001302682,0.003066434,0.002014219,0.034570929,-0.007831085,0.014171679,0.006874216,-0.003047860,-0.000793676,-0.007295364,-0.001745088,-0.258875253
1609043665483161088,168,1609043665483161088,-0.021164833,-0.026347746,-0.023020757,0.003332748,-0.014137178,0.000178415,0.999894495,0.001612796,0.003856689,0.002352701,0.032129347,-0.006206139,0.013813478,0.006874215,-0.003047857,-0.000793677,-0.007295465,-0.001745057,-0.258881300
1609043665558884608,169,1609043665558884608,-0.020799909,-0.026327800,-0.022811867,0.003158952,-0.014090744,0.000068460,0.999895728,0.001412992,0.000220312,0.001502071,0.005328890,-0.004741172,-0.001508373,0.006874220,-0.003047861,-0.000793676,-0.007295633,-0.001745009,-0.258891349
1609043665661927424,170,1609043665661927424,-0.020557753,-0.025356450,-0.022888296,0.003118870,-0.014095908,0.000049702,0.999895782,0.001454500,0.001259093,0.001407353,0.004738702,-0.006649845,-0.000331820,0.006874240,-0.003047864,-0.000793673,-0.007295389,-0.001745077,-0.258876760
1609043665765121024,171,1609043665765121024,-0.020446593,-0.025275305,-0.022767138,0.003096698,-0.014095508,0.000035026,0.999895858,0.001924719,0.004039722,0.002767715,0.014639091,-0.004906284,0.003654120,0.006874238,-0.003047863,-0.000793673,-0.007295316,-0.001745099,-0.258872394
1609043665867801600,172,1609043665867801600,-0.020596474,-0.025142287,-0.022706172,0.003131210,-0.014124182,0.000043076,0.999895345,0.001504426,0.005261839,0.003465197,0.017584890,-0.006100548,0.005252733,0.006874236,-0.003047858,-0.000793672,-0.007295085,-0.001745171,-0.258858501
1609043665970708992,173,1609043665970708992,-0.020997161,-0.025727314,-0.022992318,0.003149077,-0.014124009,0.000050660,0.999895291,0.000510768,0.004298384,0.002422208,0.019698791,-0.006929153,0.009329023,0.006874224,-0.003047849,-0.000793672,-0.007294499,-0.001745361,-0.258823420
1609043666074698240,174,1609043666074698240,-0.020956183,-0.026168346,-0.022852044,0.003238605,-0.014136417,0.000093857,0.999894827,0.000176572,0.003575159,0.001899855,0.026117591,-0.008307163,0.009729608,0.006874214,-0.003047849,-0.000793672,-0.007294497,-0.001745362,-0.258823312
1609043666181234176,175,1609043666181234176,-0.020884745,-0.026441961,-0.023020878,0.003424214,-0.014154829,0.000212568,0.999893930,0.000571276,0.004344811,0.002042521,0.035378098,-0.007913329,0.014722745,0.006874210,-0.003047849,-0.000793672,-0.007294141,-0.001745466,-0.258802287
1609043666258632448,176,1609043666258632448,-0.020741645,-0.026393089,-0.022839119,0.003277548,-0.014117250,0.000122637,0.999894967,0.000420139,0.000178829,0.001839478,0.004757499,-0.004327590,-0.000875907,0.006874218,-0.003047851,-0.000793669,-0.007294251,-0.001745439,-0.258808701
1609043666360102144,177,1609043666360102144,-0.020981658,-0.026032829,-0.023011268,0.003239550,-0.014112217,0.000095020,0.999895165,0.000180444,0.000814418,0.002088256,0.005200624,-0.003841535,-0.001404315,0.006874232,-0.003047847,-0.000793664,-0.007293868,-0.001745518,-0.258786294
1609043666464158464,178,1609043666464158464,-0.021402456,-0.025160748,-0.023340343,0.003178900,-0.014126838,0.000075038,0.999895155,-0.000003471,0.002967887,0.001275850,0.004504230,-0.003688624,0.000243050,0.006874252,-0.003047843,-0.000793659,-0.007293299,-0.001745620,-0.258753098
1609043666566326272,179,1609043666566326272,-0.020949630,-0.025207815,-0.023614958,0.003183596,-0.014131245,0.000081907,0.999895077,0.000948140,0.003771872,0.001099296,0.016454678,-0.006697485,0.005815832,0.006874251,-0.003047850,-0.000793656,-0.007292894,-0.001745691,-0.258729698
1609043666669156864,180,1609043666669156864,-0.021430238,-0.025575102,-0.023494941,0.003247394,-0.014157725,0.000115213,0.999894494,0.000335111,0.004349534,0.001206984,0.016860809,-0.003235322,0.005746685,0.006874246,-0.003047843,-0.000793654,-0.007292985,-0.001745676,-0.258734888
1609043666772404480,181,1609043666772404480,-0.021438020,-0.025637937,-0.023465316,0.003305414,-0.014171515,0.000131048,0.999894107,0.000113080,0.005458660,0.001961581,0.025971225,-0.008040694,0.010824324,0.006874243,-0.003047843,-0.000793652,-0.007292930,-0.001745683,-0.258731807
1609043666876152320,182,1609043666876152320,-0.021473414,-0.025486861,-0.023421808,0.003313284,-0.014184775,0.000136898,0.999893892,0.000047010,0.006445466,0.002342216,0.028597210,-0.006512055,0.013011618,0.006874241,-0.003047843,-0.000793652,-0.007292858,-0.001745691,-0.258727831
1609043666978578176,183,1609043666978578176,-0.021275301,-0.025620972,-0.023313732,0.003322923,-0.014181403,0.000126933,0.999893909,0.000787982,0.005752736,0.002479439,0.031261533,-0.008084226,0.011154409,0.006874236,-0.003047847,-0.000793653,-0.007292819,-0.001745694,-0.258725722
1609043667082442752,184,1609043667082442752,-0.021106077,-0.025439066,-0.023370286,0.003388700,-0.014202854,0.000166280,0.999893378,0.001025077,0.005984158,0.002420266,0.032671999,-0.006622719,0.014928903,0.006874235,-0.003047849,-0.000793654,-0.007292589,-0.001745713,-0.258713480
1609043667184716800,185,1609043667184716800,-0.021049330,-0.025286931,-0.023452103,0.003391181,-0.014193340,0.000166245,0.999893505,0.000479987,0.004829020,0.001950087,0.032739855,-0.008671108,0.014490698,0.006874235,-0.003047850,-0.000793654,-0.007292386,-0.001745726,-0.258702784
1609043667256566016,186,1609043667256566016,-0.020750620,-0.025777567,-0.023372909,0.003240381,-0.014153200,0.000063773,0.999894586,0.000206905,-0.000946752,0.000876678,-0.001750797,-0.003422770,-0.005608319,0.006874235,-0.003047855,-0.000793652,-0.007292430,-0.001745724,-0.258705100
1609043667358994176,187,1609043667358994176,-0.020838700,-0.026356574,-0.023239771,0.003229066,-0.014141357,0.000051629,0.999894791,0.000075939,-0.002973555,0.000772339,0.001895904,-0.000047323,-0.003111130,0.006874235,-0.003047854,-0.000793651,-0.007292523,-0.001745722,-0.258709870
1609043667460701696,188,1609043667460701696,-0.021019713,-0.026559198,-0.023013508,0.003240428,-0.014158123,0.000063424,0.999894516,0.000184641,-0.001454543,0.001647613,0.009715981,-0.006888263,0.000959380,0.006874242,-0.003047851,-0.000793648,-0.007292665,-0.001745722,-0.258717156
1609043667563713792,189,1609043667563713792,-0.021564132,-0.026517369,-0.022866754,0.003230123,-0.014176954,0.000062273,0.999894283,-0.000658900,-0.000416031,0.002235169,0.015091784,-0.006088989,0.004122007,0.006874252,-0.003047846,-0.000793646,-0.007292650,-0.001745721,-0.258716412
1609043667665854720,190,1609043667665854720,-0.021409212,-0.026641944,-0.022862956,0.003168767,-0.014165264,0.000033397,0.999894646,0.000081082,-0.000412095,0.001342866,0.014336910,-0.006431559,0.004285976,0.006874257,-0.003047850,-0.000793645,-0.007292502,-0.001745717,-0.258709025
1609043667769175296,191,1609043667769175296,-0.021173591,-0.025920105,-0.023185194,0.003215944,-0.014165089,0.000076927,0.999894495,0.000728473,0.001825677,0.001280135,0.017556427,-0.004795271,0.006555497,0.006874273,-0.003047856,-0.000793645,-0.007292002,-0.001745706,-0.258684505
1609043667874624000,192,1609043667874624000,-0.021927715,-0.025994168,-0.023520211,0.003190416,-0.014168761,0.000056567,0.999894527,0.000237784,0.002782627,0.002274182,0.027862305,-0.007245667,0.010865774,0.006874274,-0.003047845,-0.000793646,-0.007291439,-0.001745704,-0.258656904
1609043667981836544,193,1609043667981836544,-0.021314387,-0.026384078,-0.023390892,0.003306866,-0.014181465,0.000132804,0.999893961,0.001764841,0.004709214,0.002840858,0.032939028,-0.007927385,0.014910254,0.006874265,-0.003047854,-0.000793651,-0.007291398,-0.001745705,-0.258654918
1609043668084876800,194,1609043668084876800,-0.021119364,-0.026100591,-0.023480402,0.003311110,-0.014185838,0.000127389,0.999893886,0.001593445,0.005571513,0.002346160,0.035465170,-0.005490648,0.014717824,0.006874267,-0.003047856,-0.000793653,-0.007291087,-0.001745720,-0.258639898
1609043668156871936,195,1609043668156871936,-0.020731894,-0.025292350,-0.023619294,0.003108146,-0.014146162,0.000007242,0.999895107,0.001660474,0.000221589,0.000592929,0.001579786,-0.002407692,-0.003443669,0.006874282,-0.003047862,-0.000793654,-0.007290851,-0.001745733,-0.258628529
1609043668257738752,196,1609043668257738752,-0.020439539,-0.026060205,-0.023402161,0.003158250,-0.014136600,0.000005382,0.999895085,0.001945813,0.000336548,0.001160420,0.000198594,-0.002397156,-0.002907613,0.006874273,-0.003047864,-0.000793653,-0.007290991,-0.001745723,-0.258635279
1609043668369698304,197,1609043668369698304,-0.020480012,-0.026061339,-0.023296072,0.003227490,-0.014160262,0.000064061,0.999894528,0.001629451,0.003350845,0.002083004,0.019864576,-0.006033200,0.007823582,0.006874273,-0.003047861,-0.000793653,-0.007290948,-0.001745727,-0.258633209
1609043668472450048,198,1609043668472450048,-0.020952356,-0.026392514,-0.023534738,0.003266720,-0.014173163,0.000079005,0.999894216,0.000812739,0.003050394,0.001741821,0.025020413,-0.005642359,0.009778135,0.006874270,-0.003047852,-0.000793652,-0.007290525,-0.001745754,-0.258613010
1609043668576154112,199,1609043668576154112,-0.021153158,-0.025636088,-0.023715978,0.003264533,-0.014180144,0.000085391,0.999894124,0.000910278,0.005598731,0.001975203,0.028081167,-0.008340217,0.010598191,0.006874283,-0.003047850,-0.000793653,-0.007290169,-0.001745777,-0.258596116
1609043668679510272,200,1609043668679510272,-0.021022008,-0.025870523,-0.023532381,0.003317017,-0.014184890,0.000110026,0.999893881,0.001257556,0.005826137,0.002733535,0.031181367,-0.006375203,0.013714044,0.006874275,-0.003047852,-0.000793655,-0.007290238,-0.001745772,-0.258599409
1609043668758439424,201,1609043668758439424,-0.020630122,-0.026085472,-0.023091379,0.003342831,-0.014159881,0.000119690,0.999894149,0.001435481,0.000126680,0.001343695,0.004995064,-0.003845124,-0.001918257,0.006874277,-0.003047857,-0.000793654,-0.007290689,-0.001745750,-0.258620538
1609043668861402112,202,1609043668861402112,-0.020638265,-0.025757530,-0.023197629,0.003301772,-0.014168808,0.000106587,0.999894160,0.001448071,0.000472136,0.001862660,0.004798663,-0.003230750,-0.001940982,0.006874291,-0.003047856,-0.000793650,-0.007290331,-0.001745749,-0.258603882
1609043668967531264,203,1609043668967531264,-0.020568767,-0.027070084,-0.022571864,0.003413441,-0.014184456,0.000163304,0.999893556,0.001849135,0.000394148,0.003432285,0.020881768,-0.003734741,0.008107498,0.006874276,-0.003047855,-0.000793650,-0.007290847,-0.001745770,-0.258627745
1609043669075342592,204,1609043669075342592,-0.020883414,-0.026660813,-0.022753517,0.003462815,-0.014210807,0.000188511,0.999893007,0.001653716,0.002253985,0.003076415,0.028075017,-0.005411996,0.011744867,0.006874290,-0.003047849,-0.000793648,-0.007290291,-0.001745715,-0.258602303
1609043669178456576,205,1609043669178456576,-0.021318648,-0.025803932,-0.023145229,0.003492355,-0.014240416,0.000209986,0.999892479,0.000852392,0.003531008,0.002666132,0.032293651,-0.007227256,0.014785487,0.006874312,-0.003047844,-0.000793645,-0.007289540,-0.001745594,-0.258568518
1609043669283041792,206,1609043669283041792,-0.021126449,-0.025128486,-0.023617084,0.003534941,-0.014239861,0.000254809,0.999892327,0.001172579,0.005176206,0.002001765,0.035435550,-0.005696821,0.013397532,0.006874330,-0.003047850,-0.000793642,-0.007288733,-0.001745427,-0.258532934
1609043669356589312,207,1609043669356589312,-0.021068265,-0.025098309,-0.023579908,0.003314508,-0.014201707,0.000132610,0.999893648,0.000411210,0.000402544,0.000772658,0.000331661,-0.000882799,-0.004023313,0.006874342,-0.003047853,-0.000793637,-0.007288709,-0.001745421,-0.258531911
1609043669458377472,208,1609043669458377472,-0.021010136,-0.024872193,-0.023608367,0.003319747,-0.014209503,0.000144124,0.999893519,0.000424432,-0.000237161,0.000757932,0.001438916,-0.001787665,-0.002481683,0.006874353,-0.003047856,-0.000793632,-0.007288569,-0.001745385,-0.258525880
1609043669561326336,209,1609043669561326336,-0.020749034,-0.025140400,-0.023723631,0.003310618,-0.014198669,0.000141821,0.999893703,0.000406489,-0.000276323,-0.000456621,0.004006158,-0.003635787,-0.001174404,0.006874357,-0.003047862,-0.000793627,-0.007288414,-0.001745342,-0.258519342
