time,field.header.seq,field.header.stamp,field.pose.pose.position.x,field.pose.pose.position.y,field.pose.pose.position.z,field.pose.pose.orientation.x,field.pose.pose.orientation.y,field.pose.pose.orientation.z,field.pose.pose.orientation.w,field.twist.twist.linear.x,field.twist.twist.linear.y,field.twist.twist.linear.z,field.twist.twist.angular.x,field.twist.twist.angular.y,field.twist.twist.angular.z, ex,ey,ez,erx,ery,erz,evx,evy,evz,gbx,gby,gbz,abx,aby,abz
1609055989142338304,0,1609055989142338304,0.002242764,0.000369577,0.000001108,0.001671260,-0.007039709,-0.000278493,0.999973786,0.047738646,0.002498588,-0.000987605,-0.002379022,-0.000611822,-0.008755493,-0.030388428,-0.023121695,-0.034873793,-0.005906249,0.064210783,-0.000798519,-0.304099863,-0.228843218,-0.348466174,0.006935767,-0.003581199,-0.001651688,-0.011546178,-0.001118961,-0.173194885
1609055989254841856,1,1609055989254841856,0.011260453,0.000388457,-0.000644595,0.002662408,-0.005966795,-0.000526689,0.999978516,0.107133815,0.000842033,-0.007461067,0.003340955,-0.000818563,-0.004389614,-0.043277791,-0.039434440,-0.037692363,-0.003495059,0.013765690,-0.000668281,-0.449671798,-0.394541084,-0.375675005,0.006935780,-0.003581203,-0.001651688,-0.011275828,-0.001084725,-0.166114746
1609055989348921088,2,1609055989348921088,0.022735020,-0.000299262,-0.002175014,0.003131681,-0.006195726,-0.000659354,0.999975685,0.150586236,-0.005122531,-0.015235820,0.001120720,-0.000135178,-0.007306382,-0.043477927,-0.029062598,-0.024656232,-0.005362486,0.012082907,-0.000565057,-0.467156703,-0.289199816,-0.244208495,0.006935801,-0.003581213,-0.001651688,-0.011077755,-0.001051709,-0.159536792
1609055989442510336,3,1609055989442510336,0.035377295,-0.002654325,-0.005190817,0.003924533,-0.007314410,-0.000721812,0.999965288,0.182140611,-0.016183496,-0.026455392,-0.001603178,0.002531380,-0.011549456,-0.056328230,-0.033780863,-0.029210395,-0.005675778,0.012594864,-0.000414796,-0.602417924,-0.334674430,-0.288369914,0.006935835,-0.003581228,-0.001651688,-0.010820029,-0.000998864,-0.149618506
1609055989554576128,4,1609055989554576128,0.049641714,-0.006999011,-0.010349691,0.004459552,-0.009420069,-0.000774961,0.999945386,0.202732130,-0.028438446,-0.038522333,0.001663238,0.002127909,-0.007281050,-0.080254626,-0.029946183,-0.024206362,-0.008025847,0.014179034,0.000132102,-0.809809705,-0.298225583,-0.242054180,0.006935889,-0.003581255,-0.001651689,-0.010576832,-0.000937494,-0.139240783
1609055989649075456,5,1609055989649075456,0.057678207,-0.012228338,-0.015740248,0.004771798,-0.011642582,-0.000788219,0.999920526,0.202844444,-0.039552968,-0.047192928,0.000304152,0.000447315,-0.007904486,-0.086617471,-0.024471096,-0.014178592,-0.008849234,0.018759045,0.000093626,-0.901778587,-0.239909129,-0.137122368,0.006935957,-0.003581302,-0.001651690,-0.010423069,-0.000893890,-0.132456397
1609055989742199040,6,1609055989742199040,0.058123574,-0.020092956,-0.022928099,0.005192935,-0.014396750,-0.000724201,0.999882614,0.182570299,-0.055863868,-0.060103077,-0.003235919,0.001813504,-0.009605312,-0.106297239,-0.026907962,-0.014833536,-0.009661746,0.022914361,0.000710561,-1.091380822,-0.262756406,-0.142825779,0.006936047,-0.003581369,-0.001651693,-0.010243875,-0.000839329,-0.124570526
1609055989854644992,7,1609055989854644992,0.055366724,-0.023989461,-0.030529323,0.004687490,-0.016808404,-0.000709448,0.999847489,0.160206189,-0.053160269,-0.067700593,0.003288053,-0.002480942,-0.005870793,-0.104952982,-0.000966824,-0.003464334,-0.010019240,0.027125279,0.000900087,-1.045595225,-0.012672862,-0.038522046,0.006936144,-0.003581467,-0.001651697,-0.010183601,-0.000820436,-0.122022309
1609055989949838080,8,1609055989949838080,0.039254024,-0.030571515,-0.033220894,0.004649981,-0.019188858,-0.000672868,0.999804837,0.117382902,-0.059431066,-0.064477428,0.003281544,-0.004418696,-0.006895848,-0.111937536,-0.012006604,0.009140566,-0.009150744,0.033023523,0.000909840,-1.145328646,-0.113746689,0.098886056,0.006936253,-0.003581590,-0.001651702,-0.010320001,-0.000863785,-0.127504689
1609055990042352896,9,1609055990042352896,0.027748002,-0.029868173,-0.033422675,0.003998798,-0.020271623,-0.000605204,0.999786330,0.095281930,-0.050188229,-0.057371150,-0.002495103,0.002394309,-0.008885612,-0.081037766,0.008089330,0.013499182,-0.009158741,0.037286658,0.000725817,-0.831377670,0.089199020,0.142429677,0.006936351,-0.003581749,-0.001651706,-0.010541885,-0.000931405,-0.135840036
1609055990155371264,10,1609055990155371264,0.018911157,-0.030601623,-0.032053812,0.003481068,-0.020848943,-0.000669094,0.999776353,0.085119238,-0.041305703,-0.046315572,-0.000079164,-0.002104908,-0.005343116,-0.069017324,0.005713150,0.016707994,-0.008168836,0.039483755,0.000285491,-0.688032380,0.052089605,0.161181372,0.006936445,-0.003581928,-0.001651708,-0.010820987,-0.001010422,-0.145520083
1609055990248407040,11,1609055990248407040,0.013464767,-0.030298252,-0.031449962,0.003143805,-0.020860581,-0.000675145,0.999777224,0.084588083,-0.035101834,-0.040786462,0.000513015,0.002819879,-0.006755375,-0.049631240,0.003679255,0.008741063,-0.006964675,0.041686776,-0.000410735,-0.513815532,0.041738596,0.092310706,0.006936528,-0.003582131,-0.001651707,-0.010986603,-0.001054135,-0.150915237
1609055990342290432,12,1609055990342290432,0.001860335,-0.038385232,-0.034472971,0.003279349,-0.021131444,-0.000624274,0.999771133,0.075484502,-0.044354523,-0.042301614,-0.001151918,0.003413206,-0.009669605,-0.057304741,-0.013001883,0.000783431,-0.006566729,0.041466728,0.000441941,-0.590417185,-0.124570849,0.012481375,0.006936609,-0.003582328,-0.001651711,-0.011004726,-0.001058428,-0.151438603
1609055990454520832,13,1609055990454520832,-0.003247298,-0.035024019,-0.031425918,0.002768640,-0.021013064,-0.000645207,0.999775159,0.080901350,-0.029776150,-0.032890202,0.003759655,-0.000076654,-0.005030767,-0.044690800,0.011290091,0.012495513,-0.006673728,0.041112813,0.000841094,-0.447031975,0.107657321,0.120762423,0.006936702,-0.003582556,-0.001651717,-0.011235039,-0.001110166,-0.158072674
1609055990548463872,14,1609055990548463872,-0.008133478,-0.033000149,-0.026305379,0.002521189,-0.020748302,-0.000626274,0.999781356,0.086493843,-0.023178275,-0.023567492,-0.000707649,-0.000836053,-0.010474027,-0.037999583,0.004960974,0.011844284,-0.005472713,0.041046690,0.000379894,-0.397176205,0.053854658,0.122050368,0.006936783,-0.003582791,-0.001651721,-0.011466180,-0.001157965,-0.164394007
1609055990642499328,15,1609055990642499328,-0.008023181,-0.028508937,-0.034247867,0.002235490,-0.020330393,-0.000579554,0.999790649,0.099670402,-0.013454375,-0.033527760,-0.002623157,-0.000467051,-0.009561585,-0.029823985,0.008460038,-0.008041104,-0.004530551,0.039818377,0.000355858,-0.311199203,0.087273766,-0.078569467,0.006936861,-0.003583038,-0.001651725,-0.011317434,-0.001129968,-0.160509245
1609055990754375936,16,1609055990754375936,-0.005451746,-0.026817476,-0.024344963,0.002052362,-0.019925820,-0.000624144,0.999799160,0.117385247,-0.006308622,-0.017039395,0.003125588,-0.001040131,-0.004820216,-0.030558233,0.003032227,0.018947882,-0.004294106,0.039752967,0.000367833,-0.303137093,0.028861242,0.185527013,0.006936933,-0.003583290,-0.001651728,-0.011667222,-0.001187829,-0.169177121
1609055990848349952,17,1609055990848349952,-0.005247928,-0.030461009,-0.028513776,0.002089999,-0.019564192,-0.000646211,0.999806210,0.129281214,-0.008729935,-0.021500516,0.004181849,-0.000507636,-0.008489043,-0.029957102,-0.006385381,-0.003600120,-0.003699662,0.040184070,-0.000387536,-0.319592163,-0.062580973,-0.034110554,0.006936985,-0.003583543,-0.001651727,-0.011604412,-0.001178517,-0.167670017
1609055990942098176,18,1609055990942098176,-0.010468964,-0.026183021,-0.037144495,0.001902076,-0.019397967,-0.000594833,0.999809856,0.133518158,-0.000054139,-0.030997006,0.001730594,0.003877243,-0.008763138,-0.036615722,0.006051924,-0.009488585,-0.003318240,0.037485760,0.000519981,-0.394247080,0.062679727,-0.091357275,0.006937065,-0.003583767,-0.001651733,-0.011441453,-0.001156994,-0.163891103
1609055991054707200,19,1609055991054707200,-0.011659562,-0.025891090,-0.038214612,0.001796366,-0.019176367,-0.000649811,0.999814292,0.145232282,0.003790548,-0.030454917,0.000922215,0.000790639,-0.006979314,-0.039118144,-0.001216930,0.003570703,-0.003367616,0.037346088,0.000423953,-0.384766166,-0.011613067,0.032857025,0.006937130,-0.003583988,-0.001651738,-0.011495881,-0.001162520,-0.165060514
1609055991148312320,20,1609055991148312320,-0.011420143,-0.026368872,-0.033482013,0.001774123,-0.018826871,-0.000657541,0.999820969,0.157090801,0.004677605,-0.023258970,0.000064563,0.000637611,-0.008491335,-0.030503459,-0.002583412,0.009923832,-0.003392688,0.036834750,0.000722750,-0.327648896,-0.025579806,0.102218610,0.006937187,-0.003584218,-0.001651745,-0.011663642,-0.001177278,-0.168618180
1609055991244228864,21,1609055991244228864,-0.008736405,-0.021689644,-0.038531694,0.001645966,-0.018480884,-0.000582137,0.999827690,0.171575611,0.012302336,-0.027381400,-0.001639046,0.000510551,-0.008150564,-0.029982620,0.005015537,-0.003820113,-0.003023378,0.036253331,0.000389268,-0.315531380,0.051345807,-0.037125214,0.006937266,-0.003584452,-0.001651750,-0.011603255,-0.001172713,-0.167344286
1609055991354644736,22,1609055991354644736,-0.002051797,-0.026537759,-0.034551554,0.001734389,-0.018127335,-0.000634617,0.999833981,0.190637101,0.007966615,-0.021089136,0.000219539,0.002833606,-0.006700516,-0.030429945,-0.010998208,0.009551293,-0.003271208,0.036869356,-0.000458658,-0.302455031,-0.108348295,0.094020158,0.006937289,-0.003584686,-0.001651747,-0.011748016,-0.001179766,-0.170249703
1609055991453095936,23,1609055991453095936,-0.004023698,-0.021321619,-0.032544160,0.001585363,-0.018046940,-0.000674031,0.999835657,0.196893845,0.016505991,-0.017522063,0.001075322,-0.005481479,-0.006787777,-0.041388469,0.005719257,0.005527277,-0.002904598,0.035162141,0.000299057,-0.430412242,0.057063153,0.056049995,0.006937381,-0.003584857,-0.001651752,-0.011827958,-0.001181678,-0.171783042
1609055991546940672,24,1609055991546940672,0.021269400,-0.009764073,0.027108680,0.001478318,-0.017814732,-0.000605578,0.999840029,0.232698426,0.030276685,0.048773682,0.002257104,0.002150005,-0.007235587,0.006570656,0.016353034,0.085126225,0.006237024,0.007895377,0.000188752,0.048570838,0.164297938,0.852784676,0.006937391,-0.003584956,-0.001651756,-0.013040863,-0.001198123,-0.195304679
1609055991642104064,25,1609055991642104064,0.009191470,-0.019592105,-0.006349207,0.001739683,-0.018001709,-0.000603168,0.999836261,0.223180020,0.017230912,0.007924773,-0.000163003,0.003190011,-0.010581980,-0.063027560,-0.021645942,-0.054139891,-0.002837661,0.035605544,-0.000073471,-0.654174120,-0.216280203,-0.543331305,0.006937367,-0.003585007,-0.001651755,-0.012296870,-0.001201596,-0.181027619
1609055991753189120,26,1609055991753189120,0.008287144,-0.024947725,-0.017669135,0.001852756,-0.017846622,-0.000689942,0.999838782,0.227746442,0.012508357,-0.005227417,0.001536774,-0.000871412,-0.007672733,-0.048482253,-0.013065112,-0.017575213,-0.003733040,0.036067277,-0.000335486,-0.490630916,-0.129679496,-0.175116382,0.006937382,-0.003585130,-0.001651752,-0.012064011,-0.001206216,-0.176603742
1609055991846676224,27,1609055991846676224,0.004543630,-0.024064894,-0.032855587,0.001785026,-0.017826747,-0.000630548,0.999839299,0.227352474,0.014954082,-0.021977116,0.000381832,0.002193941,-0.006965633,-0.050586263,-0.001851489,-0.021512429,-0.003250500,0.033748035,0.000484978,-0.522916723,-0.018017023,-0.214387992,0.006937450,-0.003585208,-0.001651759,-0.011790297,-0.001215698,-0.171474347
1609055991943787776,28,1609055991943787776,0.001786532,-0.021671795,-0.037651705,0.001756784,-0.017891774,-0.000594283,0.999838209,0.228028014,0.018323813,-0.025676843,-0.000600159,-0.000182449,-0.009393563,-0.049120700,0.000402180,-0.004087920,-0.002150651,0.033048038,0.000253037,-0.508558165,0.005104996,-0.039592285,0.006937518,-0.003585274,-0.001651764,-0.011738636,-0.001217499,-0.170480448
1609055992052787456,29,1609055992052787456,0.000287840,-0.021769022,-0.039587480,0.001715709,-0.017940929,-0.000663718,0.999837356,0.230429573,0.020304904,-0.025884693,0.000961391,-0.000625735,-0.007653334,-0.053835881,-0.004862587,0.001432330,-0.003045136,0.034551543,0.000465497,-0.531972256,-0.047372627,0.012826510,0.006937567,-0.003585327,-0.001651770,-0.011749995,-0.001215751,-0.170642450
1609055992146739200,30,1609055992146739200,0.002207196,-0.025461360,-0.032501628,0.001815703,-0.017803486,-0.000612184,0.999839669,0.237395765,0.014874823,-0.017144553,0.000283217,-0.000830241,-0.007591599,-0.039682480,-0.010578627,0.014341633,-0.003470531,0.035917404,-0.000365299,-0.426308191,-0.105654792,0.146438676,0.006937576,-0.003585448,-0.001651767,-0.011913033,-0.001201440,-0.173537296
1609055992243468544,31,1609055992243468544,0.001894064,-0.027777833,-0.031782649,0.001865803,-0.017734309,-0.000583535,0.999840824,0.240889493,0.012441141,-0.014550055,-0.001138140,0.000738961,-0.009836918,-0.046515393,-0.007833019,0.003431940,-0.003726842,0.034994521,0.000034065,-0.489409664,-0.077358616,0.035685746,0.006937609,-0.003585515,-0.001651768,-0.011948793,-0.001197189,-0.174141216
1609055992352989696,32,1609055992352989696,0.008098372,-0.022570576,-0.034751537,0.001700547,-0.017630441,-0.000662332,0.999842906,0.250905799,0.021898438,-0.016546898,0.004582220,-0.004510318,-0.003715468,-0.047549861,0.004941798,-0.001966904,-0.002538588,0.033863114,0.000435226,-0.455432921,0.051304958,-0.021073884,0.006937713,-0.003585590,-0.001651776,-0.011924016,-0.001199222,-0.173674339
1609055992447055360,33,1609055992447055360,0.007784199,-0.026534714,-0.032767670,0.001801259,-0.017672573,-0.000618814,0.999842014,0.251930523,0.015393641,-0.014355268,-0.000832938,-0.002269572,-0.009489636,-0.047171615,-0.011329309,0.005487983,-0.003396984,0.035247188,-0.000212279,-0.502558541,-0.113581908,0.057248277,0.006937714,-0.003585632,-0.001651774,-0.011978888,-0.001191670,-0.174617460
1609055992541869056,34,1609055992541869056,0.004681775,-0.025905601,-0.037865013,0.001813290,-0.017841283,-0.000587977,0.999839014,0.249053339,0.016338409,-0.019697816,-0.001174773,0.001180724,-0.010481868,-0.055736861,-0.002792076,-0.006149959,-0.002402874,0.032690948,0.000237734,-0.575741655,-0.026435015,-0.060073870,0.006937768,-0.003585593,-0.001651779,-0.011916004,-0.001199207,-0.173475068
1609055992654246912,35,1609055992654246912,0.010109903,-0.027625397,-0.035276878,0.001788819,-0.017752793,-0.000695051,0.999840565,0.256520760,0.016410409,-0.016399046,0.002733597,-0.001513907,-0.003789610,-0.051412159,-0.007699617,0.008109675,-0.003433415,0.035641825,-0.000170970,-0.492715833,-0.075059460,0.079460926,0.006937793,-0.003585631,-0.001651777,-0.011988984,-0.001187747,-0.174741611
1609055992746981632,36,1609055992746981632,0.006369847,-0.025398503,-0.032388376,0.001765444,-0.017799736,-0.000641536,0.999839808,0.252152433,0.018512042,-0.012580289,-0.001213591,0.002801383,-0.007655603,-0.054551955,0.000247412,0.007098283,-0.003012886,0.035378463,-0.000198037,-0.577006804,0.002725921,0.073181473,0.006937877,-0.003585604,-0.001651778,-0.012052190,-0.001176919,-0.175831782
1609055992842277888,37,1609055992842277888,0.001742059,-0.022667369,-0.036419901,0.001687014,-0.017920230,-0.000583154,0.999837826,0.246033435,0.020793550,-0.015728751,-0.002543575,-0.000016155,-0.009900294,-0.055710299,0.000699486,-0.005144866,-0.002942274,0.033631601,0.000594469,-0.588275163,0.007704785,-0.050011682,0.006937963,-0.003585547,-0.001651788,-0.012003908,-0.001184206,-0.174960470
1609055992952941056,38,1609055992952941056,0.011147930,-0.025102367,-0.030706491,0.001748062,-0.017740674,-0.000678536,0.999840864,0.257468452,0.019082880,-0.007325542,0.003256239,-0.002860426,-0.006240464,-0.040937685,-0.009731906,0.012635304,-0.003420078,0.036100540,-0.000401006,-0.400775255,-0.095817027,0.125074926,0.006937965,-0.003585647,-0.001651783,-0.012110206,-0.001164564,-0.176819872
1609055993047142144,39,1609055993047142144,0.007550839,-0.030327559,-0.032570531,0.001882036,-0.017893092,-0.000648228,0.999837924,0.252666123,0.011709814,-0.009012789,0.002032179,0.001866101,-0.009049099,-0.055366264,-0.013562749,-0.002232838,-0.003855414,0.035326976,-0.000017892,-0.585378430,-0.136177134,-0.021293109,0.006937950,-0.003585592,-0.001651782,-0.012088502,-0.001167933,-0.176422784
1609055993142177024,40,1609055993142177024,0.002375151,-0.028382539,-0.027592650,0.001840662,-0.018085100,-0.000582321,0.999834587,0.244940542,0.014879176,-0.003092691,-0.002068612,0.000509586,-0.010264184,-0.061120385,0.000072361,0.010139096,-0.003631438,0.034483226,0.000823763,-0.629304255,0.001928995,0.102168600,0.006938043,-0.003585491,-0.001651795,-0.012166567,-0.001151788,-0.177783369
1609055993253173248,41,1609055993253173248,0.005018461,-0.029023275,-0.029564003,0.001854180,-0.018003752,-0.000651470,0.999835988,0.248246019,0.015662051,-0.005982522,0.001446796,0.002791481,-0.006767413,-0.051296074,-0.005342838,-0.003066080,-0.003444574,0.036046504,-0.000264517,-0.511486072,-0.052362650,-0.029621100,0.006938085,-0.003585499,-0.001651792,-0.012140115,-0.001156605,-0.177309969
1609055993346942976,42,1609055993346942976,0.001117669,-0.028404019,-0.026327689,0.001881767,-0.018043003,-0.000592633,0.999835265,0.242130471,0.015940702,-0.001896005,-0.000834925,-0.002974201,-0.008467773,-0.054774122,-0.002717490,0.006661978,-0.003695675,0.035181946,0.000199664,-0.577947287,-0.026630517,0.067171572,0.006938153,-0.003585441,-0.001651797,-0.012187794,-0.001146111,-0.178138785
1609055993442277120,43,1609055993442277120,0.026120303,-0.009958782,0.020149123,0.001559439,-0.017887044,-0.000524753,0.999838660,0.271133154,0.040026874,0.051557296,0.001426941,0.002761870,-0.010525014,0.001541979,0.030767255,0.084270192,0.005827631,0.007284323,0.000021489,-0.008077237,0.308917632,0.842805091,0.006938338,-0.003585515,-0.001651806,-0.012816145,-0.001012868,-0.189165068
1609055993553157376,44,1609055993553157376,0.021657190,-0.016191047,-0.006702309,0.001808932,-0.018243796,-0.000577302,0.999831765,0.259628164,0.030182574,0.016469690,0.001593022,0.000099693,-0.007786728,-0.072784758,-0.020813202,-0.059557532,-0.002307616,0.033477290,0.000274325,-0.710323411,-0.203290690,-0.589524779,0.006938250,-0.003585328,-0.001651807,-0.012380346,-0.001110324,-0.181481960
1609055993647142656,45,1609055993647142656,0.012739843,-0.023142052,-0.023239492,0.002025915,-0.018472972,-0.000562487,0.999827149,0.245883403,0.017657645,-0.004074501,0.001278034,0.001104021,-0.007286362,-0.060862771,-0.017838419,-0.033069573,-0.003074396,0.036202907,-0.000445486,-0.659723992,-0.181726936,-0.332655844,0.006938190,-0.003585214,-0.001651800,-0.012140266,-0.001164674,-0.177273949
1609055993743473920,46,1609055993743473920,0.009283047,-0.027654281,-0.027056404,0.002152967,-0.018478142,-0.000525680,0.999826808,0.240356396,0.010544693,-0.009258525,-0.001634046,0.004081779,-0.010656972,-0.056441739,-0.012745946,-0.006453354,-0.004225055,0.036873184,-0.000379294,-0.588487971,-0.126271656,-0.063570021,0.006938184,-0.003585160,-0.001651794,-0.012092201,-0.001175079,-0.176437049
1609055993853214208,47,1609055993853214208,0.009974068,-0.027363327,-0.033012194,0.002091276,-0.018464374,-0.000593576,0.999827156,0.238515824,0.012726853,-0.014835969,0.000334945,0.003707367,-0.006923810,-0.055853184,-0.003017555,-0.009270476,-0.003190024,0.034396274,0.000357556,-0.550061931,-0.028461659,-0.093231465,0.006938243,-0.003585109,-0.001651801,-0.012024290,-0.001189629,-0.175266889
1609055993946878208,48,1609055993946878208,0.010182588,-0.027345356,-0.037224448,0.002098245,-0.018397691,-0.000566949,0.999828386,0.238231291,0.013623209,-0.018011912,0.000985821,-0.000529267,-0.007587993,-0.046540869,-0.003329225,-0.005641787,-0.003229038,0.037044200,-0.000642190,-0.494603226,-0.033176110,-0.054838967,0.006938296,-0.003585136,-0.001651794,-0.011984400,-0.001197953,-0.174585426
1609055994043884800,49,1609055994043884800,0.011897784,-0.029610649,-0.035298714,0.002131653,-0.018379877,-0.000551797,0.999828651,0.239172601,0.010157672,-0.014126813,-0.000044554,0.001800124,-0.008808130,-0.048744370,-0.008177260,0.006949198,-0.004282660,0.036588662,-0.000234978,-0.498310021,-0.079484104,0.069649829,0.006938324,-0.003585147,-0.001651791,-0.012028180,-0.001188563,-0.175327139
1609055994153219072,50,1609055994153219072,0.013594962,-0.028144277,-0.031717276,0.002022157,-0.018425793,-0.000622113,0.999827992,0.240280607,0.014077444,-0.009288565,0.000791750,0.001575494,-0.007265362,-0.053920853,-0.000987484,0.009434563,-0.004352942,0.036908913,-0.000507773,-0.531397401,-0.008251161,0.094234328,0.006938414,-0.003585133,-0.001651787,-0.012087513,-0.001176314,-0.176326384
1609055994246809600,51,1609055994246809600,0.004810811,-0.028821454,-0.032389905,0.002025640,-0.018635510,-0.000574871,0.999824127,0.228203237,0.012622924,-0.010251558,-0.000633154,0.000106796,-0.008736210,-0.062609607,-0.004818580,0.000031019,-0.003774247,0.036212723,0.000139901,-0.656031707,-0.047454304,0.002253402,0.006938471,-0.003585012,-0.001651790,-0.012084532,-0.001176738,-0.176275758
1609055994342040832,52,1609055994342040832,0.002592283,-0.024073982,-0.036922875,0.001895420,-0.018532922,-0.000532905,0.999826312,0.226419751,0.019497493,-0.015037612,-0.000522741,0.002865736,-0.009893846,-0.049124931,0.005184579,-0.007002363,-0.003419991,0.035942225,0.000057121,-0.520305745,0.052598754,-0.068828463,0.006938598,-0.003585009,-0.001651795,-0.012037734,-0.001185830,-0.175499750
1609055994453434112,53,1609055994453434112,0.011924284,-0.025003735,-0.031687691,0.001881071,-0.018255649,-0.000622003,0.999831389,0.238776052,0.019465099,-0.006923151,0.000557081,0.000558558,-0.004993303,-0.041060863,-0.007382101,0.013048401,-0.003769416,0.037157915,-0.000451596,-0.391381551,-0.070707533,0.128867908,0.006938621,-0.003585112,-0.001651789,-0.012118111,-0.001170046,-0.176824651
1609055994546814976,54,1609055994546814976,0.004987705,-0.024291450,-0.035055812,0.001893790,-0.018506719,-0.000564896,0.999826783,0.228776486,0.019494859,-0.009915842,0.002521749,-0.001557678,-0.007749555,-0.058630656,-0.002974804,-0.005561776,-0.002966510,0.034536672,0.000262158,-0.615689030,-0.029877055,-0.054658268,0.006938680,-0.003585007,-0.001651794,-0.012080242,-0.001177426,-0.176201952
1609055994642157568,55,1609055994642157568,0.008353348,-0.025564816,-0.032077960,0.001929705,-0.018358747,-0.000540837,0.999829456,0.234692258,0.017253409,-0.006056108,0.001521436,-0.001237918,-0.008695342,-0.042322864,-0.007126658,0.007467549,-0.003667417,0.037243982,-0.000457748,-0.440605855,-0.070110576,0.075454586,0.006938705,-0.003585074,-0.001651788,-0.012124271,-0.001168810,-0.176923022
1609055994752910336,56,1609055994752910336,0.010211112,-0.027594342,-0.030790720,0.001954884,-0.018293315,-0.000585157,0.999830581,0.237356159,0.016067597,-0.003543522,0.001751246,0.001956302,-0.006258325,-0.051012746,-0.008388445,0.003496286,-0.003595888,0.036811013,-0.000415697,-0.508874401,-0.082680265,0.034774297,0.006938723,-0.003585078,-0.001651783,-0.012142472,-0.001165276,-0.177221395
1609055994846797312,57,1609055994846797312,0.003684813,-0.028638017,-0.030699396,0.001980901,-0.018300261,-0.000562192,0.999830416,0.228834378,0.015101026,-0.003196307,0.000876390,-0.001540049,-0.008111365,-0.051679728,-0.005275689,0.000519819,-0.003897954,0.035999552,-0.000140204,-0.570453886,-0.055111884,0.006057574,0.006938770,-0.003585031,-0.001651783,-0.012142725,-0.001165251,-0.177227093
1609055994943265792,58,1609055994943265792,0.007163030,-0.026927252,-0.031673730,0.001938595,-0.018090382,-0.000534053,0.999834334,0.233866054,0.017114288,-0.004300916,-0.000596413,0.000613001,-0.010064648,-0.042485837,-0.001082884,-0.001439963,-0.003590094,0.036600518,-0.000377423,-0.441758516,-0.008905201,-0.013901623,0.006938845,-0.003585099,-0.001651779,-0.012132813,-0.001167180,-0.177066819
1609055995053593856,59,1609055995053593856,0.013703306,-0.026977992,-0.029768505,0.001882295,-0.017993632,-0.000636013,0.999836127,0.241935245,0.018419539,-0.001273523,0.001725538,-0.003006912,-0.005423364,-0.047623623,-0.005286121,0.004510717,-0.003894047,0.036239582,-0.000476468,-0.456493368,-0.050106169,0.044586530,0.006938890,-0.003585142,-0.001651774,-0.012155694,-0.001162834,-0.177447236
1609055995146582016,60,1609055995146582016,0.009087053,-0.028588889,-0.029360377,0.001953330,-0.018105091,-0.000580587,0.999834013,0.236706117,0.015441905,-0.001168162,-0.001176047,0.001128815,-0.009335912,-0.052139157,-0.006960351,0.000727445,-0.003802462,0.036044236,-0.000289134,-0.564454515,-0.070393803,0.008279502,0.006938924,-0.003585100,-0.001651771,-0.012157048,-0.001162630,-0.177472982
1609055995243135488,61,1609055995243135488,0.011058182,-0.027368492,-0.029435727,0.001898971,-0.017993533,-0.000568336,0.999836138,0.240421822,0.017621824,-0.002072693,-0.001200368,0.000280538,-0.009620771,-0.046538553,-0.001945465,-0.000091033,-0.003483559,0.036412126,-0.000513082,-0.483222823,-0.018419476,0.000022680,0.006938992,-0.003585132,-0.001651766,-0.012154746,-0.001163132,-0.177437638
1609055995353129984,62,1609055995353129984,0.014366980,-0.028051140,-0.027994406,0.001871500,-0.017870950,-0.000645837,0.999838342,0.243676805,0.017620993,0.000121360,-0.001050220,-0.000824359,-0.005570287,-0.051377984,-0.006163450,0.003022546,-0.003967062,0.036039091,-0.000457581,-0.505611602,-0.059871837,0.030302272,0.006939033,-0.003585135,-0.001651760,-0.012167825,-0.001160648,-0.177664238
1609055995447021568,63,1609055995447021568,0.006712157,-0.022901341,-0.025316636,0.001753774,-0.018063085,-0.000561262,0.999835154,0.231949467,0.024477628,0.003199668,0.002725492,0.000160757,-0.007692169,-0.060917524,0.005122629,0.004988890,-0.003882263,0.034566023,0.000651006,-0.638967242,0.051143978,0.050258694,0.006939170,-0.003585021,-0.001651774,-0.012189168,-0.001156523,-0.178038448
1609055995542001408,64,1609055995542001408,0.005252876,-0.025117425,-0.027178896,0.001857789,-0.018098204,-0.000540109,0.999834342,0.230536655,0.019336664,0.000253354,0.000267338,0.000220829,-0.010732673,-0.049933026,-0.009610592,-0.004532305,-0.003581792,0.035825347,-0.000299234,-0.522721227,-0.094885074,-0.044811630,0.006939179,-0.003585013,-0.001651770,-0.012164883,-0.001161481,-0.177620955
1609055995653618688,65,1609055995653618688,0.006984299,-0.023197409,-0.031953974,0.001803627,-0.018189939,-0.000613792,0.999832734,0.232252667,0.022832959,-0.005586314,0.002695286,-0.000246848,-0.007004475,-0.051663319,-0.001720361,-0.009654432,-0.002776550,0.033748011,0.000562523,-0.509448739,-0.015291476,-0.096121784,0.006939242,-0.003584995,-0.001651780,-0.012116603,-0.001171394,-0.176780713
1609055995746976000,66,1609055995746976000,0.002960896,-0.020978039,-0.028891260,0.001777754,-0.018273763,-0.000539601,0.999831295,0.227473924,0.026331508,-0.002472915,0.003455195,-0.001378100,-0.006148327,-0.055652440,-0.001407498,0.006908468,-0.003521401,0.034851416,0.000747180,-0.573885606,-0.013958131,0.070226500,0.006939319,-0.003584934,-0.001651793,-0.012146298,-0.001165306,-0.177308128
1609055995842116608,67,1609055995842116608,0.003915973,-0.024942038,-0.029188993,0.001920772,-0.018076735,-0.000488084,0.999834638,0.230063031,0.018844482,-0.003286838,-0.002033431,0.003508426,-0.009605699,-0.043091743,-0.012761814,-0.000316047,-0.003206568,0.036348540,-0.000564120,-0.459723082,-0.127509821,-0.002240625,0.006939295,-0.003584982,-0.001651784,-0.012143299,-0.001165977,-0.177259814
1609055995952973056,68,1609055995952973056,0.012053700,-0.026215531,-0.027465221,0.001931916,-0.017775334,-0.000589831,0.999839966,0.241298721,0.016864964,-0.000518280,0.001549469,-0.000581056,-0.007152793,-0.040432208,-0.007477513,0.003950454,-0.003857485,0.036157005,-0.000482171,-0.397275572,-0.072033552,0.039355422,0.006939319,-0.003585078,-0.001651778,-0.012159390,-0.001162627,-0.177550453
1609055996046935808,69,1609055996046935808,0.009987572,-0.027264627,-0.028272833,0.001948283,-0.017847411,-0.000563765,0.999838665,0.237857771,0.015918131,-0.001234268,0.000987103,0.000329444,-0.007636672,-0.052104900,-0.005933221,-0.001842871,-0.003271997,0.035329620,-0.000290709,-0.544570903,-0.059455843,-0.017928813,0.006939355,-0.003585050,-0.001651775,-0.012149132,-0.001164843,-0.177370543
1609055996142228224,70,1609055996142228224,0.006116105,-0.025139757,-0.033275404,0.001924038,-0.018022677,-0.000517499,0.999835593,0.233156350,0.017905487,-0.007459826,-0.002469118,0.001562319,-0.011502800,-0.051451390,0.000253482,-0.010254740,-0.002740134,0.033135604,0.000522053,-0.550843010,0.002722302,-0.101376449,0.006939433,-0.003585000,-0.001651785,-0.012104593,-0.001174288,-0.176557722
1609055996252979456,71,1609055996252979456,0.006070444,-0.027483695,-0.035321554,0.001944933,-0.018054029,-0.000598678,0.999834942,0.233520609,0.016078522,-0.008761046,0.001372077,-0.002624973,-0.007025276,-0.055804056,-0.009341593,-0.002680847,-0.003895034,0.035653456,-0.000263260,-0.551286887,-0.091470006,-0.027195841,0.006939451,-0.003584968,-0.001651781,-0.012091039,-0.001177198,-0.176312564
1609055996348141312,72,1609055996348141312,0.007270458,-0.027049425,-0.030058606,0.001924509,-0.017926895,-0.000573527,0.999837284,0.236143511,0.017043900,-0.002767336,0.000954880,0.002206963,-0.007552383,-0.046701429,-0.003380845,0.012169372,-0.003855744,0.035768363,-0.000430946,-0.484586826,-0.033178975,0.122689981,0.006939512,-0.003584992,-0.001651777,-0.012137612,-0.001167511,-0.177191646
1609055996442091520,73,1609055996442091520,0.004808374,-0.027251311,-0.032618345,0.001876890,-0.017802727,-0.000593367,0.999839581,0.233554443,0.016307449,-0.006041050,-0.000710303,0.002000208,-0.009336647,-0.044284667,-0.003807794,-0.005031844,-0.003331870,0.036046611,-0.000390909,-0.496573991,-0.040006983,-0.049160741,0.006939561,-0.003585020,-0.001651773,-0.012116962,-0.001171901,-0.176805563
1609055996553064704,74,1609055996553064704,0.012151427,-0.023090042,-0.030480849,0.001728368,-0.017700342,-0.000650933,0.999841631,0.242735416,0.024105782,-0.001934669,0.000941393,-0.001884244,-0.007772792,-0.044198531,0.002530498,0.005508691,-0.003687727,0.033974731,0.000518951,-0.428741404,0.027332004,0.054244797,0.006939665,-0.003585074,-0.001651783,-0.012135570,-0.001167939,-0.177171960
1609055996647095296,75,1609055996647095296,0.010767790,-0.023299681,-0.026674791,0.001729783,-0.017807246,-0.000608034,0.999839757,0.240395234,0.023366227,0.002032284,0.002152399,-0.002364241,-0.008503107,-0.049563115,-0.005683341,0.007958693,-0.004153147,0.033973228,0.000466730,-0.525901136,-0.057786970,0.080316889,0.006939711,-0.003585047,-0.001651791,-0.012162032,-0.001162007,-0.177702968
1609055996742244096,76,1609055996742244096,0.032234640,-0.020880983,-0.026492219,0.001774031,-0.017883790,-0.000573522,0.999838334,0.266125829,0.024426120,0.000703683,-0.001604434,-0.001116663,-0.012103269,0.000000000,0.000000000,0.000000000,0.000000000,-0.000000000,-0.000000000,-0.036935138,-0.000171562,0.000776358,0.006939713,-0.003585019,-0.001651791,-0.012162053,-0.001161999,-0.177704056
1609055996842350848,77,1609055996842350848,0.020568897,-0.021636388,-0.025332897,0.001811461,-0.018247601,-0.000552757,0.999831705,0.246672238,0.023067877,0.001487829,0.000052283,0.002657680,-0.010454873,-0.076795884,-0.007203338,0.001853459,-0.002880245,0.034603701,0.000420383,-0.786595749,-0.071116009,0.019300282,0.006939748,-0.003584798,-0.001651799,-0.012164768,-0.001161281,-0.177772050
1609055996951497216,78,1609055996951497216,0.023120361,-0.024030172,-0.024284756,0.001843987,-0.018195117,-0.000595896,0.999832577,0.247158196,0.020367815,0.002367029,0.002940195,-0.001490898,-0.005604758,-0.057785839,-0.010849889,0.001432069,-0.003578543,0.036638479,-0.000463203,-0.556107412,-0.104640281,0.015192571,0.006939752,-0.003584775,-0.001651793,-0.012167662,-0.001160543,-0.177838500
1609055997046060288,79,1609055997046060288,0.016185494,-0.028327627,-0.024537628,0.001932683,-0.018296909,-0.000616180,0.999830540,0.236680076,0.013155952,0.001457052,-0.001929339,-0.001477496,-0.010865711,-0.055706911,-0.011929878,-0.001160068,-0.003735793,0.036825313,-0.000425784,-0.606183712,-0.121030817,-0.011459388,0.006939749,-0.003584721,-0.001651787,-0.012161535,-0.001162014,-0.177721810
1609055997142051584,80,1609055997142051584,0.010166128,-0.029326077,-0.025666405,0.001909862,-0.018424949,-0.000649117,0.999828211,0.228289840,0.012617595,0.000019737,-0.002518818,-0.001120175,-0.010501566,-0.054842665,-0.005202126,-0.002965074,-0.003736243,0.036290445,-0.000148224,-0.590001224,-0.052658457,-0.029311011,0.006939799,-0.003584680,-0.001651786,-0.012149842,-0.001164805,-0.177493012
1609055997253302272,81,1609055997253302272,0.016723625,-0.029331250,-0.025496479,0.001830405,-0.018258423,-0.000673891,0.999831399,0.237194928,0.014853026,-0.000842724,0.001355960,-0.001616168,-0.005709738,-0.048657300,-0.004495007,0.000205480,-0.004038342,0.037008902,-0.000295016,-0.461409162,-0.042236317,0.002926127,0.006939855,-0.003584743,-0.001651783,-0.012149374,-0.001164924,-0.177487744
1609055997347134720,82,1609055997347134720,0.010297327,-0.025839511,-0.028663012,0.001728112,-0.018332927,-0.000661062,0.999830226,0.228394524,0.019856449,-0.004419985,0.000102276,0.001012569,-0.009842636,-0.054806982,0.003062261,-0.006755579,-0.003462053,0.034564544,0.000682121,-0.589778567,0.029392819,-0.067067517,0.006939965,-0.003584686,-0.001651797,-0.012125445,-0.001170456,-0.177021734
1609055997442186240,83,1609055997442186240,0.007976276,-0.022174359,-0.029702867,0.001667398,-0.018310678,-0.000615703,0.999830766,0.225774944,0.025133325,-0.005910965,0.000605467,0.002178472,-0.010742589,-0.047966546,0.002278969,-0.001613983,-0.002873919,0.034668533,0.000778961,-0.514586884,0.022062525,-0.014874224,0.006940059,-0.003584690,-0.001651811,-0.012118978,-0.001171978,-0.176898871
1609055997553153280,84,1609055997553153280,0.015796339,-0.024878437,-0.028912615,0.001716783,-0.018109329,-0.000658429,0.999834322,0.236290507,0.022097907,-0.004273422,0.002521660,-0.001302764,-0.005427833,-0.044042956,-0.011900040,0.002914666,-0.003563348,0.036920180,-0.000207251,-0.421412895,-0.115211427,0.028619621,0.006940048,-0.003584781,-0.001651808,-0.012127148,-0.001169979,-0.177058963
1609055997647198208,85,1609055997647198208,0.009823061,-0.027803431,-0.032086047,0.001826173,-0.018255199,-0.000644115,0.999831485,0.228866618,0.016638125,-0.008589077,-0.000271520,-0.000623925,-0.009157562,-0.057316343,-0.010074336,-0.006045831,-0.003178958,0.035960367,-0.000100523,-0.603007202,-0.100950223,-0.059198790,0.006940054,-0.003584721,-0.001651807,-0.012106143,-0.001175185,-0.176655622
1609055997742726400,86,1609055997742726400,0.012134970,-0.022930555,-0.030171579,0.001685955,-0.018205317,-0.000644736,0.999832640,0.233163883,0.023417890,-0.005613231,-0.000689489,0.001312313,-0.009308629,-0.044011845,0.004574164,0.005546121,-0.002723123,0.034027148,0.000785523,-0.457738818,0.046992724,0.056016286,0.006940163,-0.003584760,-0.001651822,-0.012122595,-0.001171089,-0.176973435
1609055997852991488,87,1609055997852991488,0.016137362,-0.023791248,-0.028431063,0.001696385,-0.018075045,-0.000658251,0.999834977,0.238388167,0.022100917,-0.002964485,0.001723810,-0.004282250,-0.007830227,-0.048694494,-0.007766344,0.004667323,-0.003433930,0.036685787,-0.000333290,-0.479633007,-0.074589299,0.046528981,0.006940186,-0.003584803,-0.001651818,-0.012135921,-0.001167645,-0.177230557
1609055997946794240,88,1609055997946794240,0.010963928,-0.024005499,-0.031921407,0.001704342,-0.018194481,-0.000632595,0.999832814,0.230602203,0.021081946,-0.006985048,0.000986809,0.001357348,-0.007871942,-0.058708091,-0.005466827,-0.006885430,-0.003214875,0.034389870,0.000634102,-0.604481363,-0.054102725,-0.068375931,0.006940229,-0.003584724,-0.001651829,-0.012112693,-0.001173736,-0.176784371
1609055998042378240,89,1609055998042378240,0.009767051,-0.025367529,-0.029504261,0.001755682,-0.018139204,-0.000638745,0.999833726,0.229484346,0.018371524,-0.003684894,-0.001618761,0.000394140,-0.010922642,-0.047449591,-0.007217401,0.006104135,-0.003100302,0.036566256,-0.000051732,-0.503499744,-0.071968597,0.062073899,0.006940252,-0.003584749,-0.001651829,-0.012130208,-0.001168976,-0.177122500
1609055998153190144,90,1609055998153190144,0.013650678,-0.022907713,-0.031649796,0.001663824,-0.018127029,-0.000639622,0.999834103,0.234207658,0.024449008,-0.005750454,0.000056335,0.000776435,-0.006780378,-0.050613365,-0.001157201,-0.003759695,-0.002625159,0.033384908,0.000793224,-0.486964267,-0.008815910,-0.037695250,0.006940317,-0.003584752,-0.001651843,-0.012117334,-0.001172468,-0.176875390
1609055998247286784,91,1609055998247286784,0.014247400,-0.025877145,-0.028608752,0.001755372,-0.018026292,-0.000656922,0.999835756,0.235985884,0.018745863,-0.002650680,0.002477629,-0.003584637,-0.008783841,-0.046091291,-0.010471634,0.007254520,-0.003499664,0.036427797,-0.000144427,-0.484273829,-0.104879273,0.073608274,0.006940317,-0.003584787,-0.001651841,-0.012138019,-0.001166612,-0.177275300
1609055998342132736,92,1609055998342132736,0.011903252,-0.026785631,-0.029657043,0.001828894,-0.018003897,-0.000666337,0.999836022,0.233099719,0.017023752,-0.003577768,-0.001924422,0.001640187,-0.009821398,-0.050251206,-0.005757651,-0.001945536,-0.002154527,0.036237584,-0.000470443,-0.531947515,-0.057583921,-0.018967759,0.006940341,-0.003584789,-0.001651836,-0.012130995,-0.001168555,-0.177139707
1609055998443231488,93,1609055998443231488,0.010584545,-0.023814982,-0.026178178,0.001706805,-0.017932852,-0.000676355,0.999837508,0.232064518,0.022280199,0.000284900,-0.000268234,0.000916511,-0.009777601,-0.048191029,0.001203440,0.007759042,-0.003414993,0.036256966,-0.000174907,-0.511427380,0.011622550,0.078560244,0.006940434,-0.003584810,-0.001651836,-0.012152013,-0.001162485,-0.177553031
1609055998553320704,94,1609055998553320704,0.013486554,-0.023828191,-0.027250139,0.001664725,-0.017844300,-0.000736863,0.999839120,0.236485937,0.022776164,0.000100816,-0.000252718,-0.003073356,-0.008819889,-0.048821022,-0.005817800,-0.002735313,-0.003467832,0.036135339,-0.000354063,-0.487182805,-0.056316752,-0.027222905,0.006940473,-0.003584845,-0.001651832,-0.012143190,-0.001165051,-0.177378608
1609055998645436160,95,1609055998645436160,0.012271609,-0.025454465,-0.025697663,0.001729237,-0.017850748,-0.000731841,0.999838899,0.236200902,0.019237730,0.000570023,-0.002358540,0.001240652,-0.008701706,-0.048490667,-0.007884314,0.003023041,-0.003085278,0.035720534,0.000007512,-0.515142392,-0.078915077,0.031431213,0.006940490,-0.003584853,-0.001651833,-0.012150320,-0.001162780,-0.177524124
1609055998742155008,96,1609055998742155008,0.011730409,-0.027861906,-0.025543332,0.001774432,-0.017783670,-0.000745209,0.999840006,0.235744383,0.016452092,0.001115550,-0.001644117,0.000170676,-0.009764851,-0.045888306,-0.008796152,-0.000091606,-0.003394014,0.035933815,-0.000025785,-0.494550959,-0.089004075,-0.000753229,0.006940503,-0.003584882,-0.001651833,-0.012148914,-0.001163155,-0.177496811
1609055998851514880,97,1609055998851514880,0.014594595,-0.024822894,-0.027445991,0.001661378,-0.017703256,-0.000779401,0.999841601,0.239810171,0.021111730,-0.002264036,0.001550559,0.002038009,-0.009173794,-0.051493414,0.000619065,-0.004490784,-0.003121668,0.035718676,-0.000167286,-0.507888933,0.009165707,-0.043806745,0.006940590,-0.003584900,-0.001651834,-0.012136505,-0.001167128,-0.177237654
1609055998945259264,98,1609055998945259264,0.013149515,-0.024954941,-0.026426768,0.001682493,-0.017662344,-0.000760555,0.999842304,0.238685071,0.020701778,-0.001475503,-0.001306151,0.001043070,-0.010232781,-0.046294621,-0.004661160,0.002312507,-0.003407944,0.035566482,-0.000043187,-0.505602682,-0.048316684,0.024226153,0.006940635,-0.003584918,-0.001651835,-0.012141187,-0.001165439,-0.177341109
1609055999042351872,99,1609055999042351872,0.011547985,-0.020975773,-0.031424563,0.001604728,-0.017760630,-0.000711430,0.999840727,0.236463829,0.027174621,-0.007658632,-0.002009607,0.001304906,-0.009576194,-0.053149337,0.002281256,-0.010703739,-0.002285063,0.033042046,0.000695747,-0.549371984,0.023045480,-0.106097471,0.006940724,-0.003584878,-0.001651848,-0.012114852,-0.001174713,-0.176760153
1609055999152014592,100,1609055999152014592,0.014188620,-0.023898230,-0.029929474,0.001700560,-0.017734068,-0.000747793,0.999841013,0.239423210,0.023112648,-0.005762143,0.000511327,0.001276120,-0.008067346,-0.051916228,-0.012151979,0.004762835,-0.003265781,0.035665320,-0.000147096,-0.511646099,-0.118970629,0.047683108,0.006940711,-0.003584883,-0.001651846,-0.012124507,-0.001170937,-0.176982936
1609055999245441024,101,1609055999245441024,0.012531322,-0.026142975,-0.028285858,0.001787375,-0.017721630,-0.000748202,0.999841082,0.238049063,0.018738203,-0.003410033,-0.000271288,0.001232470,-0.008682587,-0.046579484,-0.008664281,0.004214783,-0.002776136,0.035573243,-0.000217999,-0.508363439,-0.088247294,0.043485486,0.006940717,-0.003584896,-0.001651844,-0.012132886,-0.001167555,-0.177180738
1609055999342576384,102,1609055999342576384,0.010113182,-0.025337985,-0.025645492,0.001744473,-0.017708634,-0.000734807,0.999841398,0.234744234,0.019074664,-0.000937164,-0.001177063,0.001951130,-0.009911490,-0.051450395,-0.002950704,0.006030561,-0.003386748,0.035018133,0.000236105,-0.544407585,-0.029116526,0.061707580,0.006940779,-0.003584877,-0.001651849,-0.012144653,-0.001162749,-0.177464736
1609055999451529728,103,1609055999451529728,0.014053364,-0.023223998,-0.027320045,0.001651703,-0.017631216,-0.000777137,0.999842892,0.240420325,0.022760224,-0.002269964,0.002476534,0.002160363,-0.007599644,-0.049200103,-0.001547747,-0.003701435,-0.003614236,0.034052796,0.000681831,-0.485275034,-0.013161857,-0.036787860,0.006940852,-0.003584892,-0.001651861,-0.012136020,-0.001166149,-0.177258190
1609055999545406208,104,1609055999545406208,0.007526134,-0.022275930,-0.025569248,0.001648269,-0.017800937,-0.000739253,0.999839919,0.231811471,0.022070254,0.000138398,-0.001558711,0.000457661,-0.008049602,-0.057279101,-0.002957610,0.003848903,-0.003270135,0.034297792,0.001222417,-0.609225217,-0.030208918,0.038970466,0.006940915,-0.003584813,-0.001651881,-0.012142187,-0.001163343,-0.177419387
1609055999643129856,105,1609055999643129856,0.010767294,-0.025276706,-0.025211462,0.001744767,-0.017690332,-0.000712850,0.999841737,0.237282675,0.017687429,-0.000067167,-0.001232545,0.000491858,-0.011129971,-0.041856724,-0.010813746,0.000534834,-0.003313319,0.035888333,-0.000040147,-0.442038869,-0.107534242,0.006064941,0.006940909,-0.003584882,-0.001651880,-0.012142517,-0.001163083,-0.177431685
1609055999751463680,106,1609055999751463680,0.014332190,-0.024045835,-0.025544029,0.001684496,-0.017641452,-0.000747106,0.999842679,0.241783664,0.020525543,-0.000481950,-0.001641527,-0.002182349,-0.007784181,-0.050523987,-0.002910322,-0.000981957,-0.003489997,0.035493264,-0.000126696,-0.497958166,-0.026772124,-0.009371989,0.006940971,-0.003584902,-0.001651881,-0.012139738,-0.001164192,-0.177364247
1609055999845542656,107,1609055999845542656,0.018177856,-0.026788683,-0.023022338,0.001762194,-0.017539007,-0.000747156,0.999844348,0.247190051,0.016377231,0.002359266,-0.000570086,0.001341378,-0.008791605,-0.045356866,-0.010022806,0.005192447,-0.003348005,0.035280962,-0.000088329,-0.465112540,-0.098877805,0.052421046,0.006940973,-0.003584941,-0.001651879,-0.012148272,-0.001160065,-0.177598335
1609055999942207488,108,1609055999942207488,0.013638590,-0.022723799,-0.029110236,0.001682428,-0.017677992,-0.000668575,0.999842093,0.240348706,0.021855686,-0.005512671,-0.002716145,0.003901795,-0.010431999,-0.054185158,0.003539951,-0.013845724,-0.002829391,0.032702638,0.000804884,-0.579205972,0.035465672,-0.137879431,0.006941080,-0.003584874,-0.001651895,-0.012123352,-0.001171835,-0.176913474
1609056000051607040,109,1609056000051607040,0.016520405,-0.025874381,-0.028086194,0.001750458,-0.017671282,-0.000714505,0.999842063,0.243563793,0.017397800,-0.004256733,0.001108757,0.003890308,-0.006685203,-0.053805607,-0.011618081,0.003302257,-0.003129725,0.035656521,-0.000061270,-0.524165548,-0.112646977,0.032988004,0.006941070,-0.003584868,-0.001651894,-0.012127783,-0.001169443,-0.177046594
1609056000145654016,110,1609056000145654016,0.017213781,-0.027007915,-0.029305012,0.001786572,-0.017666984,-0.000696962,0.999842088,0.244539181,0.015207815,-0.006392052,0.000880545,-0.001901443,-0.009301582,-0.047755073,-0.006357262,-0.001944617,-0.004078497,0.036118940,-0.000237331,-0.501796755,-0.062780191,-0.018233488,0.006941112,-0.003584891,-0.001651891,-0.012123881,-0.001171259,-0.176939669
1609056000244156928,111,1609056000244156928,0.013513730,-0.025737469,-0.028514859,0.001745145,-0.017736313,-0.000675449,0.999840948,0.239299112,0.018736562,-0.004838675,0.000079402,-0.000033738,-0.008453511,-0.054249156,-0.001602828,0.002577779,-0.003477272,0.035356618,-0.000049376,-0.573073058,-0.016584338,0.026742442,0.006941186,-0.003584852,-0.001651893,-0.012126904,-0.001169540,-0.177037105
1609056000351586304,112,1609056000351586304,0.017016379,-0.027964223,-0.028044524,0.001792055,-0.017658196,-0.000732857,0.999842207,0.243968517,0.016598896,-0.004404336,0.001897245,0.000589643,-0.007047253,-0.050625411,-0.008982170,0.001949655,-0.002728152,0.035675506,-0.000077446,-0.499101218,-0.087983907,0.019717868,0.006941191,-0.003584869,-0.001651892,-0.012129016,-0.001168307,-0.177107071
1609056000445257728,113,1609056000445257728,0.013723057,-0.029903003,-0.026774545,0.001829935,-0.017710249,-0.000707566,0.999841236,0.239723657,0.014441362,-0.002995125,0.002023515,0.001540869,-0.007567543,-0.053290339,-0.007404163,0.003263431,-0.003628713,0.035595944,0.000013131,-0.563392605,-0.074711686,0.033667078,0.006941220,-0.003584836,-0.001651893,-0.012132927,-0.001166123,-0.177234769
1609056000542327040,114,1609056000542327040,0.013453875,-0.028054754,-0.030795551,0.001786947,-0.017715565,-0.000676619,0.999841241,0.239275659,0.016734486,-0.007181393,-0.001729664,0.000864845,-0.009471713,-0.050753358,-0.000545973,-0.008350393,-0.002936345,0.035706568,-0.000205491,-0.525162878,-0.003796658,-0.082976280,0.006941296,-0.003584842,-0.001651893,-0.012119990,-0.001172647,-0.176838496
1609056000652031744,115,1609056000652031744,0.017105960,-0.027544193,-0.028785755,0.001731286,-0.017679031,-0.000732240,0.999841947,0.243539421,0.019173272,-0.004433937,0.000781677,0.001270674,-0.007362436,-0.051765181,-0.004114242,0.005758106,-0.003611902,0.035477853,-0.000121256,-0.503967735,-0.038741740,0.057390884,0.006941351,-0.003584852,-0.001651893,-0.012127337,-0.001168758,-0.177076410
1609056000745265152,116,1609056000745265152,0.010252991,-0.023927638,-0.032424087,0.001647869,-0.017863360,-0.000699740,0.999838835,0.234257643,0.024410125,-0.009142204,0.000438645,0.004556832,-0.009052912,-0.059010216,0.002206482,-0.007249871,-0.002986497,0.033531559,0.000517784,-0.620560482,0.021382200,-0.071160839,0.006941452,-0.003584756,-0.001651904,-0.012116280,-0.001174380,-0.176730370
1609056000843383808,117,1609056000843383808,0.007280077,-0.021466360,-0.034246455,0.001641310,-0.017921750,-0.000630648,0.999837846,0.231113254,0.027312549,-0.010190135,-0.003704932,0.003139074,-0.009266407,-0.050964450,-0.000772482,-0.002500277,-0.002576245,0.034229127,0.000506937,-0.539486590,-0.008286215,-0.023912017,0.006941520,-0.003584732,-0.001651914,-0.012112068,-0.001176488,-0.176602266
1609056000951564544,118,1609056000951564544,0.011759979,-0.024997071,-0.030504087,0.001750579,-0.017817004,-0.000668330,0.999839509,0.237381312,0.022487276,-0.004883713,-0.000083610,-0.003247293,-0.008995840,-0.047125160,-0.013225086,0.010190062,-0.002911605,0.035786747,-0.000162975,-0.464123333,-0.129317021,0.101429107,0.006941491,-0.003584774,-0.001651911,-0.012125568,-0.001169261,-0.177028163
1609056001045497344,119,1609056001045497344,0.012465019,-0.025896406,-0.027759005,0.001800207,-0.017748457,-0.000651085,0.999840651,0.238669294,0.020565059,-0.001723549,-0.001700737,0.000443069,-0.009659216,-0.044885047,-0.006642523,0.006643749,-0.003538226,0.035892339,-0.000268041,-0.478601294,-0.066561767,0.067339139,0.006941522,-0.003584811,-0.001651908,-0.012134187,-0.001164679,-0.177300480
1609056001142189824,120,1609056001142189824,0.011378603,-0.027544652,-0.029048479,0.001875798,-0.017751019,-0.000633161,0.999840478,0.237785071,0.018378939,-0.003398726,0.000169220,0.001735786,-0.011974162,-0.048663194,-0.007742678,-0.002733195,-0.003188959,0.035328370,-0.000304295,-0.516778601,-0.077643580,-0.026625109,0.006941541,-0.003584815,-0.001651905,-0.012129793,-0.001166902,-0.177166275
1609056001251592704,121,1609056001251592704,0.014008423,-0.024835547,-0.032934922,0.001765149,-0.017766991,-0.000665106,0.999840375,0.241020284,0.023179216,-0.007990672,-0.000405084,-0.000259779,-0.007565829,-0.054973007,-0.000598687,-0.007603196,-0.003225595,0.033588373,0.000635829,-0.530011762,-0.002791203,-0.076096162,0.006941621,-0.003584787,-0.001651917,-0.012118708,-0.001172463,-0.176819272
1609056001345245696,122,1609056001345245696,0.015761460,-0.021529277,-0.029614965,0.001688289,-0.017692547,-0.000636426,0.999841847,0.243868175,0.026453359,-0.003533135,0.001363661,-0.001701179,-0.009241604,-0.043235407,0.000832898,0.008498513,-0.003767621,0.034382174,0.000630352,-0.462782129,0.008333153,0.085845574,0.006941713,-0.003584823,-0.001651929,-0.012129494,-0.001167035,-0.177163632
1609056001441905408,123,1609056001441905408,0.014276183,-0.020312427,-0.029220294,0.001687188,-0.017729082,-0.000614317,0.999841215,0.241355895,0.026837937,-0.002997347,-0.001668889,0.000202397,-0.009403087,-0.049801953,-0.003348056,0.001221448,-0.002698356,0.033763718,0.000745021,-0.528462413,-0.033903812,0.013098781,0.006941761,-0.003584800,-0.001651941,-0.012130415,-0.001166528,-0.177196269
1609056001551408384,124,1609056001551408384,0.035213605,-0.015585521,0.009913853,0.001710236,-0.017780779,-0.000631212,0.999840248,0.264386355,0.031843506,0.041576190,0.000800080,-0.003732542,-0.006689661,-0.014395733,0.003039076,0.084562872,0.004765823,0.007780030,0.000691457,-0.136042786,0.033477853,0.845937489,0.006941740,-0.003584765,-0.001651954,-0.012238694,-0.001109430,-0.180697841
1609056001645374208,125,1609056001645374208,0.026061654,-0.021777456,-0.002221099,0.001939326,-0.018055201,-0.000615269,0.999834921,0.248710321,0.020411803,0.023679009,0.000173908,-0.000608455,-0.008561365,-0.067365505,-0.017586564,-0.034936403,-0.003464867,0.035872286,-0.000232756,-0.705165104,-0.176411334,-0.351827445,0.006941695,-0.003584626,-0.001651949,-0.012192922,-0.001133461,-0.179225448
1609056001745228032,126,1609056001745228032,0.023526750,-0.025444865,-0.010302559,0.002012607,-0.018138198,-0.000623250,0.999833269,0.243260626,0.015889161,0.011713263,0.001199581,0.002535037,-0.008812442,-0.059970340,-0.012013498,-0.023119694,-0.003990827,0.036386136,-0.000171622,-0.604239318,-0.118438366,-0.230045541,0.006941697,-0.003584572,-0.001651947,-0.012161822,-0.001148374,-0.178262907
1609056001842144512,127,1609056001842144512,0.018844926,-0.026321897,-0.016443472,0.002012217,-0.018224131,-0.000621601,0.999831709,0.235862401,0.014053769,0.002767826,-0.000798300,0.000721978,-0.010436151,-0.057578828,-0.005697295,-0.016095901,-0.003803811,0.036639832,-0.000310990,-0.599514588,-0.055710911,-0.160425981,0.006941746,-0.003584528,-0.001651944,-0.012139183,-0.001158064,-0.177592368
1609056001951433216,128,1609056001951433216,0.021345203,-0.027367048,-0.019137068,0.001977988,-0.018140699,-0.000660008,0.999833270,0.237985905,0.013079358,-0.001278723,0.002555388,0.000119439,-0.006536088,-0.051664755,-0.006102688,-0.006674563,-0.003951872,0.036619519,-0.000305161,-0.508682170,-0.058712416,-0.065846084,0.006941790,-0.003584550,-0.001651940,-0.012129100,-0.001161875,-0.177308876
1609056002045352192,129,1609056002045352192,0.017879813,-0.027732604,-0.020240508,0.001968789,-0.018156721,-0.000642203,0.999833009,0.233244429,0.012265223,-0.002436348,0.001106876,0.003299895,-0.009995002,-0.052544729,-0.004106922,-0.002438356,-0.004382175,0.036444934,-0.000350987,-0.554936103,-0.040538058,-0.023959005,0.006941855,-0.003584536,-0.001651937,-0.012124865,-0.001163386,-0.177192566
1609056002141948416,130,1609056002141948416,0.014240345,-0.026637772,-0.024979463,0.001945796,-0.018197687,-0.000631760,0.999832315,0.229453552,0.014247291,-0.008185530,-0.000766304,0.002820648,-0.010315256,-0.052520177,-0.001440517,-0.010143242,-0.003623731,0.036685346,-0.000274452,-0.554997243,-0.013639339,-0.100534884,0.006941933,-0.003584530,-0.001651935,-0.012109003,-0.001168206,-0.176778007
1609056002251665152,131,1609056002251665152,0.013398459,-0.022984564,-0.033627852,0.001819272,-0.018258123,-0.000666700,0.999831429,0.227807986,0.019799829,-0.017179621,-0.000232243,-0.000782818,-0.007336418,-0.057559432,0.002317879,-0.016843508,-0.002420096,0.033256618,0.000345234,-0.562524391,0.025852838,-0.169052932,0.006942028,-0.003584476,-0.001651943,-0.012081623,-0.001175631,-0.176092980
1609056002345260800,132,1609056002345260800,0.011018944,-0.025860111,-0.032379552,0.001919074,-0.018216166,-0.000646792,0.999832021,0.225686801,0.014381207,-0.014894283,0.000099743,0.001468735,-0.008491512,-0.048933273,-0.009621645,0.005812928,-0.003700741,0.036578163,-0.000092196,-0.518135005,-0.095914145,0.060308970,0.006942040,-0.003584488,-0.001651942,-0.012090760,-0.001173504,-0.176307060
1609056002442515200,133,1609056002442515200,0.013383081,-0.026557014,-0.029585224,0.001954100,-0.018038228,-0.000640537,0.999835183,0.230322812,0.013355057,-0.010362524,-0.001596621,0.004104305,-0.011040286,-0.041907134,-0.005211467,0.008887532,-0.003835485,0.036614087,-0.000371456,-0.441946765,-0.050746106,0.090138409,0.006942085,-0.003584564,-0.001651938,-0.012105274,-0.001170328,-0.176638597
1609056002551279360,134,1609056002551279360,0.013313367,-0.021924761,-0.034356606,0.001787272,-0.018075596,-0.000664525,0.999834805,0.230201258,0.021320972,-0.014960542,0.000188460,-0.002352021,-0.006758531,-0.054832003,0.004081464,-0.008094782,-0.003218238,0.034268810,0.000304508,-0.541423350,0.042930676,-0.081197268,0.006942202,-0.003584538,-0.001651946,-0.012090917,-0.001173492,-0.176307962
1609056002645958400,135,1609056002645958400,0.011607224,-0.026257269,-0.032584870,0.001921423,-0.018006387,-0.000671823,0.999835800,0.228902233,0.014167105,-0.012191874,-0.000403819,-0.000144670,-0.009523607,-0.046540210,-0.012241475,0.006510271,-0.003222266,0.036326621,-0.000271023,-0.500418246,-0.123354186,0.067199981,0.006942185,-0.003584561,-0.001651941,-0.012101656,-0.001171419,-0.176543532
1609056002742298624,136,1609056002742298624,0.008908230,-0.023528654,-0.035400532,0.001867180,-0.018068971,-0.000628358,0.999834802,0.226251757,0.017866913,-0.013357975,-0.000157344,0.000403744,-0.011083977,-0.049765227,0.001370987,-0.004183833,-0.002777265,0.033684279,0.000618662,-0.527012373,0.014466584,-0.040867968,0.006942272,-0.003584543,-0.001651953,-0.012094098,-0.001173032,-0.176372119
1609056002851812608,137,1609056002851812608,0.015808162,-0.026743308,-0.029551034,0.001924050,-0.017880997,-0.000664935,0.999838050,0.236368304,0.015036750,-0.005607145,0.003091269,-0.003431020,-0.007478763,-0.043630638,-0.010914445,0.015827990,-0.002759698,0.036168800,-0.000265258,-0.423671283,-0.106621287,0.157450775,0.006942258,-0.003584621,-0.001651949,-0.012120698,-0.001168096,-0.176947516
1609056002946768640,138,1609056002946768640,0.011258042,-0.024859588,-0.032348670,0.001850119,-0.017967826,-0.000655639,0.999836639,0.230234248,0.017192818,-0.009566732,-0.000772888,-0.002024677,-0.009943555,-0.054023345,-0.000280247,-0.005259807,-0.003221836,0.034075744,0.000504131,-0.569968909,-0.002265517,-0.051077724,0.006942340,-0.003584571,-0.001651958,-0.012111297,-0.001169945,-0.176737568
1609056003041858304,139,1609056003041858304,0.010584340,-0.024975128,-0.030605473,0.001846366,-0.017941062,-0.000658714,0.999837124,0.230192859,0.017696872,-0.006932886,-0.002290009,0.002020868,-0.009483078,-0.049760163,-0.004741184,0.005587871,-0.003368547,0.035881693,-0.000166876,-0.515000518,-0.046366350,0.056647432,0.006942387,-0.003584581,-0.001651957,-0.012120196,-0.001168490,-0.176927279
1609056003151423232,140,1609056003151423232,0.008158249,-0.024426529,-0.029102808,0.001839408,-0.017954506,-0.000624948,0.999836918,0.227925741,0.019807151,-0.005315986,-0.000978776,-0.005552192,-0.006986645,-0.049845858,-0.003409364,0.004480167,-0.003627188,0.035812857,-0.000289510,-0.527670209,-0.034545636,0.046006038,0.006942446,-0.003584582,-0.001651955,-0.012127198,-0.001167369,-0.177075680
1609056003245030912,141,1609056003245030912,0.008199568,-0.023262003,-0.033123773,0.001829284,-0.017908961,-0.000599856,0.999837768,0.229566738,0.019984943,-0.009369908,-0.001810303,-0.001776550,-0.010451114,-0.045006578,-0.002288732,-0.008121147,-0.002960809,0.033853310,0.000315747,-0.479389320,-0.022589191,-0.080500084,0.006942504,-0.003584603,-0.001651961,-0.012113341,-0.001169893,-0.176772167
1609056003342184704,142,1609056003342184704,0.012765569,-0.025871164,-0.029187845,0.001906343,-0.017730442,-0.000615513,0.999840797,0.237269611,0.016703100,-0.004219432,-0.000817186,0.002572051,-0.009452615,-0.040672718,-0.009901987,0.010445232,-0.003797918,0.036065062,-0.000362608,-0.424329074,-0.098132727,0.105491165,0.006942510,-0.003584685,-0.001651956,-0.012130165,-0.001167005,-0.177135676
1609056003451509504,143,1609056003451509504,0.016255998,-0.020607418,-0.031885412,0.001719085,-0.017711771,-0.000652037,0.999841444,0.241065075,0.025186914,-0.007079038,0.000176263,-0.001552654,-0.006925334,-0.048427955,0.005004870,-0.005264387,-0.002216099,0.032513187,0.000513022,-0.483033125,0.051536194,-0.052152339,0.006942617,-0.003584688,-0.001651967,-0.012121256,-0.001168667,-0.176934554
1609056003545015040,144,1609056003545015040,0.014209673,-0.024677552,-0.029353265,0.001874036,-0.017734612,-0.000628969,0.999840775,0.238563501,0.018184789,-0.004047389,0.000054506,0.000278596,-0.008074062,-0.050998587,-0.012790070,0.006724015,-0.003491210,0.035632220,-0.000181510,-0.540283476,-0.128484271,0.068479682,0.006942602,-0.003584671,-0.001651964,-0.012131101,-0.001166874,-0.177156583
1609056003641527808,145,1609056003641527808,0.011006997,-0.025046346,-0.030871765,0.001897393,-0.017826918,-0.000618608,0.999839096,0.234728688,0.017167337,-0.005973765,-0.001150881,0.003041131,-0.010208583,-0.056241748,-0.005369772,-0.002855127,-0.003212393,0.035453751,-0.000187036,-0.580486406,-0.052013711,-0.027548650,0.006942645,-0.003584627,-0.001651963,-0.012126162,-0.001167901,-0.177039878
1609056003751260928,146,1609056003751260928,0.017302877,-0.026610198,-0.028149476,0.001872038,-0.017695441,-0.000673313,0.999841444,0.243498163,0.016752491,-0.001883197,-0.000624137,0.002350341,-0.007696136,-0.048235507,-0.008030600,0.007218870,-0.003706313,0.035878805,-0.000208378,-0.462877860,-0.077552476,0.071479439,0.006942668,-0.003584673,-0.001651960,-0.012136260,-0.001166028,-0.177276826
1609056003845069824,147,1609056003845069824,0.014210927,-0.026204243,-0.027715331,0.001855901,-0.017728268,-0.000685533,0.999840884,0.239084523,0.016257596,-0.002079327,0.000597164,-0.000031351,-0.010317102,-0.051028934,-0.003003481,0.001054015,-0.003309362,0.035647405,-0.000201266,-0.546872556,-0.030131340,0.011565067,0.006942728,-0.003584656,-0.001651959,-0.012137197,-0.001165910,-0.177298645
1609056003941593856,148,1609056003941593856,0.009760392,-0.024726790,-0.031571346,0.001811286,-0.017879040,-0.000672840,0.999838290,0.232970200,0.018444127,-0.006265816,-0.002095730,0.000219980,-0.009633783,-0.057835169,-0.001585968,-0.008452617,-0.002979648,0.033356145,0.000750774,-0.596218258,-0.014564258,-0.083951242,0.006942799,-0.003584577,-0.001651973,-0.012124640,-0.001168410,-0.176989038
