time,field.header.seq,field.header.stamp,field.pose.pose.position.x,field.pose.pose.position.y,field.pose.pose.position.z,field.pose.pose.orientation.x,field.pose.pose.orientation.y,field.pose.pose.orientation.z,field.pose.pose.orientation.w,field.twist.twist.linear.x,field.twist.twist.linear.y,field.twist.twist.linear.z,field.twist.twist.angular.x,field.twist.twist.angular.y,field.twist.twist.angular.z,gbx,gby,gbz,abx,aby,abz
1609059014279815424,0,1609059014279815424,-0.000298493,-0.000708666,-0.000069991,0.001900222,-0.044698365,0.000011076,0.998998721,-0.004183998,-0.007680722,-0.000398735,0.018662540,-0.003563470,-0.000795710,0.006790796,-0.003633845,-0.001773955,-0.016107382,-0.000202540,-0.185102199
1609059014373925376,1,1609059014373925376,-0.001273188,-0.002398636,-0.000746551,0.002672389,-0.044933335,0.000090518,0.998986409,-0.009849084,-0.017200471,-0.005389584,0.016332038,-0.004471168,-0.002633935,0.006790805,-0.003633843,-0.001773955,-0.015472798,-0.000187850,-0.177893720
1609059014468769792,2,1609059014468769792,-0.003366158,-0.005346923,-0.002430520,0.003183806,-0.045425019,0.000201678,0.998962657,-0.018161886,-0.029316153,-0.013058261,0.008723328,-0.002810824,-0.006317825,0.006790821,-0.003633843,-0.001773956,-0.014701968,-0.000161811,-0.169193824
1609059014579801088,3,1609059014579801088,-0.007788138,-0.010479384,-0.005946672,0.003650496,-0.046045799,0.000173927,0.998932644,-0.031602978,-0.040552068,-0.022903305,0.023256384,-0.004037782,0.000283607,0.006790843,-0.003633846,-0.001773957,-0.013814261,-0.000122959,-0.159246780
1609059014673628928,4,1609059014673628928,-0.012190855,-0.015157612,-0.009763243,0.003555946,-0.046187759,0.000151637,0.998926435,-0.040372710,-0.049903359,-0.031867868,0.014661988,-0.003222556,-0.004967310,0.006790866,-0.003633855,-0.001773957,-0.013300122,-0.000096967,-0.153521534
1609059014768413184,5,1609059014768413184,-0.017803382,-0.022022469,-0.016591947,0.003703014,-0.046269421,0.000135944,0.998922124,-0.049577289,-0.061393363,-0.045468396,0.015569126,-0.003052891,-0.004244472,0.006790891,-0.003633866,-0.001773957,-0.012338294,-0.000043553,-0.142867735
1609059014879488512,6,1609059014879488512,-0.022349586,-0.027024063,-0.023112927,0.003329474,-0.045962088,0.000122454,0.998937629,-0.052759348,-0.061793036,-0.053798502,0.018664533,-0.003021262,-0.000905626,0.006790913,-0.003633883,-0.001773957,-0.012060926,-0.000026840,-0.139810034
1609059014975207424,7,1609059014975207424,-0.025034041,-0.030364245,-0.031678062,0.002908664,-0.045595196,0.000098448,0.998955759,-0.051409779,-0.061180646,-0.065798017,0.016026122,-0.003132149,-0.001525289,0.006790930,-0.003633903,-0.001773956,-0.011467721,0.000010170,-0.133286749
1609059015068381696,8,1609059015068381696,-0.026911330,-0.030990110,-0.034445017,0.002359274,-0.045231651,0.000083753,0.998973736,-0.048777182,-0.054972401,-0.062896299,0.009015174,-0.001362951,-0.005556241,0.006790947,-0.003633926,-0.001773956,-0.011996069,-0.000023359,-0.139089505
1609059015179516672,9,1609059015179516672,-0.029575018,-0.032325021,-0.035678662,0.002005430,-0.044887690,0.000050546,0.998990025,-0.046867454,-0.047138514,-0.056448415,0.021364115,-0.003295170,-0.000070705,0.006790963,-0.003633948,-0.001773955,-0.012766623,-0.000071634,-0.147553467
1609059015273656064,10,1609059015273656064,-0.030626630,-0.032632387,-0.033619136,0.001620351,-0.044586946,0.000032636,0.999004193,-0.043183232,-0.042936593,-0.047026052,0.013897405,-0.000710914,-0.003157216,0.006790979,-0.003633969,-0.001773955,-0.013571037,-0.000120824,-0.156396679
1609059015368644096,11,1609059015368644096,-0.030980782,-0.030495565,-0.031272900,0.001207527,-0.044320484,0.000005062,0.999016635,-0.038515441,-0.034405998,-0.038065900,0.010250994,-0.001398194,-0.004516441,0.006790994,-0.003633992,-0.001773954,-0.014236137,-0.000159810,-0.163721435
1609059015479629824,12,1609059015479629824,-0.028724450,-0.030513251,-0.028257560,0.001079161,-0.043988801,-0.000000880,0.999031441,-0.029740731,-0.028902623,-0.028949447,0.020593552,-0.001811117,-0.000917113,0.006791002,-0.003634015,-0.001773953,-0.014829263,-0.000192191,-0.170271731
1609059015574507776,13,1609059015574507776,-0.031311897,-0.032582062,-0.030795671,0.001015616,-0.043958665,0.000002988,0.999032834,-0.030061969,-0.029450516,-0.030259948,0.013646944,-0.002833668,-0.003739465,0.006791012,-0.003634024,-0.001773952,-0.014841544,-0.000192812,-0.170407793
1609059015668402432,14,1609059015668402432,-0.028265941,-0.029447316,-0.027956731,0.000782190,-0.043701773,0.000003391,0.999044315,-0.023259608,-0.022352290,-0.023097808,0.009483761,-0.001324318,-0.005988212,0.006791026,-0.003634048,-0.001773951,-0.015214061,-0.000210272,-0.174549704
1609059015780409600,15,1609059015780409600,-0.025621431,-0.028738265,-0.026898561,0.000796838,-0.043458415,0.000006311,0.999054919,-0.017106771,-0.015726647,-0.019343633,0.024024198,-0.005123048,0.000445684,0.006791035,-0.003634068,-0.001773950,-0.015437611,-0.000219433,-0.177049309
1609059015873701376,16,1609059015873701376,-0.026011312,-0.030134550,-0.028851453,0.000763989,-0.043420337,0.000005380,0.999056600,-0.016199204,-0.015943258,-0.019984355,0.018211503,-0.001869448,-0.002546642,0.006791043,-0.003634074,-0.001773950,-0.015431543,-0.000219206,-0.176981169
1609059015968589824,17,1609059015968589824,-0.024305811,-0.029635709,-0.024412033,0.000693683,-0.043349875,0.000018548,0.999059711,-0.012580262,-0.014283501,-0.013011822,0.008269330,-0.002497371,-0.006484053,0.006791054,-0.003634089,-0.001773949,-0.015750702,-0.000228834,-0.180591999
1609059016080282368,18,1609059016080282368,-0.025240086,-0.030130475,-0.028685002,0.000725767,-0.043332265,-0.000006905,0.999060453,-0.011768533,-0.011886768,-0.017378465,0.018225886,-0.000449796,-0.000734240,0.006791059,-0.003634093,-0.001773949,-0.015625960,-0.000225966,-0.179169452
1609059016173344512,19,1609059016173344512,-0.025448255,-0.028888576,-0.029767139,0.000617865,-0.043296970,0.000002806,0.999062055,-0.010236889,-0.009323946,-0.017473998,0.016468974,-0.003305941,-0.001385971,0.006791074,-0.003634101,-0.001773949,-0.015651028,-0.000226354,-0.179457623
1609059016268229376,20,1609059016268229376,-0.023789556,-0.028278965,-0.025822310,0.000559325,-0.043207670,0.000026420,0.999065956,-0.006882953,-0.008707722,-0.012431317,0.008838210,-0.000337482,-0.005365487,0.006791084,-0.003634115,-0.001773948,-0.015876513,-0.000228401,-0.182067985
1609059016379208960,21,1609059016379208960,-0.023972892,-0.027886892,-0.022231482,0.000551656,-0.043190015,0.000006399,0.999066724,-0.006531730,-0.006472604,-0.007018036,0.017676001,-0.001235741,-0.002252970,0.006791094,-0.003634119,-0.001773948,-0.016061174,-0.000228465,-0.184226044
1609059016472890624,22,1609059016472890624,-0.022779341,-0.026235122,-0.024116069,0.000441403,-0.043171266,0.000000844,0.999067589,-0.003392585,-0.004585195,-0.008232626,0.012640609,-0.001072879,-0.005827522,0.006791109,-0.003634131,-0.001773948,-0.016017725,-0.000228804,-0.183713920
1609059016567803392,23,1609059016567803392,-0.023126038,-0.026770525,-0.025251779,0.000435633,-0.043168471,-0.000002413,0.999067712,-0.002899550,-0.005255792,-0.008987849,0.011143135,-0.002679314,-0.005270232,0.006791108,-0.003634131,-0.001773947,-0.016007788,-0.000228980,-0.183595615
1609059016679177472,24,1609059016679177472,-0.023340687,-0.027162997,-0.026316519,0.000513200,-0.043117289,0.000003772,0.999069885,-0.002877750,-0.003752981,-0.008991141,0.024180599,-0.001237568,0.001655463,0.006791109,-0.003634132,-0.001773947,-0.016005420,-0.000229062,-0.183566953
1609059016773328640,25,1609059016773328640,-0.023262547,-0.027519648,-0.026932271,0.000482301,-0.043100508,0.000017419,0.999070625,-0.002154950,-0.004582552,-0.009170375,0.017853923,-0.001181463,-0.001280723,0.006791109,-0.003634135,-0.001773947,-0.016011937,-0.000228791,-0.183646425
1609059016868166144,26,1609059016868166144,-0.020843379,-0.027412174,-0.024819077,0.000456998,-0.043034649,0.000016795,0.999073476,0.000815694,-0.004518026,-0.006597644,0.010763606,-0.003360000,-0.005582160,0.006791115,-0.003634156,-0.001773947,-0.016098134,-0.000224531,-0.184706601
1609059016979616768,27,1609059016979616768,-0.021652606,-0.027652304,-0.023021078,0.000511769,-0.043111478,0.000006479,0.999070137,-0.000776671,-0.003062000,-0.004220731,0.025030419,-0.003736350,0.001397956,0.006791120,-0.003634146,-0.001773948,-0.016167506,-0.000220317,-0.185570098
1609059017073848064,28,1609059017073848064,-0.022082210,-0.028272220,-0.023016422,0.000485066,-0.043144028,0.000005275,0.999068745,-0.000016630,-0.004484694,-0.004190454,0.017009977,-0.002403600,-0.002706355,0.006791120,-0.003634140,-0.001773948,-0.016178798,-0.000219504,-0.185712222
1609059017168544256,29,1609059017168544256,-0.023655106,-0.027487384,-0.026031831,0.000399263,-0.043160786,-0.000010806,0.999068059,-0.001222495,-0.003927659,-0.007541769,0.008708104,-0.001214465,-0.006076841,0.006791135,-0.003634123,-0.001773947,-0.016113546,-0.000224873,-0.184882520
1609059017279754496,30,1609059017279754496,-0.023858038,-0.027808386,-0.026924194,0.000442903,-0.043127958,-0.000014346,0.999069458,-0.001316097,-0.002321507,-0.008018697,0.021854948,-0.005032708,0.000847566,0.006791135,-0.003634123,-0.001773947,-0.016112693,-0.000224965,-0.184871431
1609059017373468416,31,1609059017373468416,-0.023791296,-0.027982134,-0.023681986,0.000369091,-0.043139091,-0.000032564,0.999069007,-0.000575688,-0.003100319,-0.004125133,0.014470112,-0.002080270,-0.004408921,0.006791139,-0.003634124,-0.001773947,-0.016206258,-0.000214991,-0.186087191
1609059017468150784,32,1609059017468150784,-0.023782027,-0.027887485,-0.024036879,0.000341768,-0.043168369,-0.000044720,0.999067752,-0.000272627,-0.002660840,-0.004693601,0.014431970,0.000978286,-0.004058529,0.006791143,-0.003634125,-0.001773947,-0.016208191,-0.000214754,-0.186112658
1609059017578573568,33,1609059017578573568,-0.023785065,-0.027798650,-0.023406918,0.000372679,-0.043193957,-0.000032263,0.999066635,0.000448885,-0.000997687,-0.004340968,0.019411242,-0.004747010,-0.000619025,0.006791147,-0.003634126,-0.001773948,-0.016234626,-0.000211298,-0.186462901
1609059017674319360,34,1609059017674319360,-0.024757897,-0.027549696,-0.024163191,0.000354166,-0.043185193,-0.000034472,0.999067021,-0.000344525,-0.000558845,-0.004872013,0.017965410,-0.000157905,-0.002086822,0.006791152,-0.003634112,-0.001773947,-0.016228091,-0.000212230,-0.186375499
1609059017768546048,35,1609059017768546048,-0.023771104,-0.027009780,-0.024023402,0.000300119,-0.043139196,-0.000033816,0.999069026,0.001438487,-0.000588369,-0.005248395,0.009425450,-0.004036553,-0.005700151,0.006791160,-0.003634125,-0.001773949,-0.016241411,-0.000210165,-0.186555391
1609059017880162304,36,1609059017880162304,-0.024951187,-0.026747100,-0.024593821,0.000347070,-0.043187295,-0.000053051,0.999066932,-0.000479682,0.001936701,-0.004556401,0.021307962,-0.001341207,-0.000534116,0.006791162,-0.003634106,-0.001773949,-0.016240341,-0.000210357,-0.186540666
1609059017974379520,37,1609059017974379520,-0.023367056,-0.025879522,-0.024194120,0.000261554,-0.043163658,-0.000066690,0.999067979,0.002122040,0.001994197,-0.003180660,0.014294297,-0.003474770,-0.004864153,0.006791168,-0.003634129,-0.001773949,-0.016256354,-0.000207518,-0.186760310
1609059018067486464,38,1609059018067486464,-0.023472692,-0.026265987,-0.022837723,0.000253685,-0.043183805,-0.000075242,0.999067109,0.002735324,0.001481960,-0.002103905,0.011352334,-0.000879036,-0.004338677,0.006791159,-0.003634122,-0.001773949,-0.016288601,-0.000201435,-0.187206001
1609059018178694912,39,1609059018178694912,-0.023235272,-0.025695360,-0.022270340,0.000326388,-0.043160174,-0.000065030,0.999068110,0.003205706,0.004309870,-0.001214141,0.020676320,-0.001412635,0.000417244,0.006791162,-0.003634121,-0.001773951,-0.016303220,-0.000198518,-0.187409439
1609059018272431104,40,1609059018272431104,-0.021242963,-0.026808493,-0.022911340,0.000323600,-0.043118492,-0.000054427,0.999069911,0.006081939,0.001434038,-0.002081404,0.016947644,-0.000504284,-0.004455351,0.006791138,-0.003634143,-0.001773953,-0.016294428,-0.000200359,-0.187286264
1609059018367440640,41,1609059018367440640,-0.022259177,-0.025710352,-0.022316475,0.000279705,-0.043191868,-0.000048083,0.999066756,0.004169361,0.002583614,-0.000799585,0.009756405,-0.002765384,-0.005431192,0.006791153,-0.003634119,-0.001773953,-0.016307807,-0.000197441,-0.187474983
1609059018478589184,42,1609059018478589184,-0.022825512,-0.026437907,-0.022290359,0.000385127,-0.043243279,-0.000041999,0.999064497,0.002942490,0.003291695,-0.000785266,0.020521548,-0.001261628,-0.000219925,0.006791135,-0.003634104,-0.001773953,-0.016309927,-0.000196962,-0.187505003
1609059018572626944,43,1609059018572626944,-0.023018364,-0.026558784,-0.022046544,0.000377171,-0.043254900,-0.000031985,0.999063997,0.002913418,0.002246279,-0.000944780,0.015959656,-0.000082910,-0.003881018,0.006791133,-0.003634098,-0.001773954,-0.016316162,-0.000195503,-0.187593756
1609059018667671296,44,1609059018667671296,-0.024995913,-0.026075183,-0.019636538,0.000394842,-0.043301421,-0.000004019,0.999061976,-0.000172952,0.003302875,0.001051500,0.011191593,-0.002096395,-0.003937531,0.006791141,-0.003634067,-0.001773953,-0.016357581,-0.000185587,-0.188185196
1609059018778500608,45,1609059018778500608,-0.024114997,-0.026922910,-0.019612426,0.000495642,-0.043232823,0.000007082,0.999064901,0.000541392,0.002609871,0.000886284,0.021529904,-0.003110414,-0.000138353,0.006791124,-0.003634082,-0.001773952,-0.016356204,-0.000185921,-0.188165505
1609059018872721152,46,1609059018872721152,-0.022714742,-0.026207617,-0.020820159,0.000422224,-0.043193090,-0.000024644,0.999066653,0.003045553,0.002268104,0.000099565,0.016147882,-0.003599830,-0.004118124,0.006791135,-0.003634104,-0.001773952,-0.016336149,-0.000190884,-0.187877688
1609059018967651584,47,1609059018967651584,-0.022716606,-0.025039664,-0.021141849,0.000383215,-0.043218922,-0.000036863,0.999065552,0.003252176,0.004091020,-0.000819282,0.012210447,-0.002022438,-0.004228655,0.006791155,-0.003634099,-0.001773951,-0.016332221,-0.000191869,-0.187821144
1609059019078708480,48,1609059019078708480,-0.022760401,-0.025975567,-0.022324158,0.000487818,-0.043229223,-0.000008860,0.999065061,0.003222713,0.003018217,-0.001508860,0.018044954,-0.005825087,-0.001528421,0.006791135,-0.003634093,-0.001773952,-0.016315972,-0.000195993,-0.187586811
1609059019172344576,49,1609059019172344576,-0.022526973,-0.025653516,-0.022518976,0.000447291,-0.043196768,-0.000026687,0.999066483,0.003550065,0.002720983,-0.001529155,0.016854586,-0.002259011,-0.002774701,0.006791136,-0.003634092,-0.001773952,-0.016315656,-0.000196076,-0.187582217
1609059019267207936,50,1609059019267207936,-0.022748899,-0.026557236,-0.025316947,0.000454721,-0.043193327,-0.000018003,0.999066629,0.003427215,-0.000218705,-0.004522528,0.006892396,-0.003292055,-0.007396056,0.006791121,-0.003634081,-0.001773950,-0.016277742,-0.000205827,-0.187033045
1609059019378281472,51,1609059019378281472,-0.021750978,-0.027150716,-0.024975375,0.000492274,-0.043194631,-0.000022438,0.999066555,0.004921551,-0.000319845,-0.003361593,0.019404247,-0.003391723,-0.001742532,0.006791114,-0.003634088,-0.001773952,-0.016289493,-0.000202803,-0.187203464
1609059019472374272,52,1609059019472374272,-0.022409552,-0.026528350,-0.025875608,0.000443423,-0.043244969,-0.000032975,0.999064400,0.003587130,0.000209654,-0.004587216,0.014560552,-0.002704137,-0.002745544,0.006791128,-0.003634071,-0.001773953,-0.016282331,-0.000204647,-0.187099470
1609059019567658752,53,1609059019567658752,-0.023058627,-0.027549741,-0.025524545,0.000435258,-0.043238931,-0.000022610,0.999064665,0.002704027,-0.001928936,-0.003791280,0.007450946,-0.002545415,-0.005930461,0.006791116,-0.003634057,-0.001773952,-0.016293377,-0.000201792,-0.187259965
1609059019678522368,54,1609059019678522368,-0.023710703,-0.026936900,-0.025044195,0.000392252,-0.043235196,-0.000044240,0.999064844,0.001829332,-0.000067072,-0.002737089,0.019539600,-0.003025896,-0.000609482,0.006791128,-0.003634044,-0.001773953,-0.016305211,-0.000198721,-0.187431877
1609059019772648448,55,1609059019772648448,-0.022085332,-0.027998633,-0.024197792,0.000405502,-0.043190054,-0.000047680,0.999066791,0.004210466,-0.001657821,-0.001685403,0.016027940,-0.002123714,-0.003668424,0.006791112,-0.003634065,-0.001773955,-0.016320315,-0.000194778,-0.187651315
1609059019867471360,56,1609059019867471360,-0.022053598,-0.027596362,-0.024906982,0.000366225,-0.043224535,-0.000040611,0.999065315,0.004305215,-0.001067992,-0.002102053,0.008298184,-0.004323819,-0.007066530,0.006791122,-0.003634060,-0.001773955,-0.016312699,-0.000196768,-0.187540627
1609059019980206080,57,1609059019980206080,-0.022841370,-0.027473434,-0.024670618,0.000372235,-0.043275975,-0.000073055,0.999063084,0.003607516,-0.000032728,-0.001818576,0.024913330,-0.004647462,-0.000156442,0.006791126,-0.003634041,-0.001773956,-0.016318957,-0.000195120,-0.187631472
1609059020080105728,58,1609059020080105728,-0.021964646,-0.027295053,-0.025746812,0.000332791,-0.043242685,-0.000086440,0.999064538,0.004860529,-0.000022639,-0.003219114,0.019875612,-0.004814764,-0.000327003,0.006791127,-0.003634050,-0.001773958,-0.016308539,-0.000197880,-0.187480534
1609059020183548160,59,1609059020183548160,-0.021878948,-0.027308685,-0.025767380,0.000391698,-0.043248472,-0.000054938,0.999064269,0.004090987,0.000790938,-0.003324287,0.022988778,-0.002880347,0.001349551,0.006791126,-0.003634044,-0.001773959,-0.016313017,-0.000196685,-0.187545308
1609059020287601152,60,1609059020287601152,-0.021490336,-0.027366821,-0.026098948,0.000396482,-0.043272511,-0.000077327,0.999063225,0.004084286,0.000997591,-0.002529120,0.024155319,-0.004995553,0.002127963,0.006791125,-0.003634044,-0.001773959,-0.016312876,-0.000196726,-0.187543242
1609059020389884928,61,1609059020389884928,-0.021086065,-0.027446691,-0.026412965,0.000410499,-0.043293364,-0.000065498,0.999062316,0.004497761,0.001382266,-0.003000064,0.024426609,-0.005548824,0.004505921,0.006791124,-0.003634043,-0.001773959,-0.016312817,-0.000196742,-0.187542401
1609059020492948992,62,1609059020492948992,-0.021096024,-0.028210112,-0.025104469,0.000483474,-0.043296346,-0.000022548,0.999062156,0.003924802,0.000875176,-0.001333842,0.024839755,-0.000745982,0.007008830,0.006791111,-0.003634037,-0.001773963,-0.016332376,-0.000191434,-0.187822919
1609059020595948544,63,1609059020595948544,-0.023245276,-0.028325165,-0.025149200,0.000502763,-0.043344950,-0.000005233,0.999060039,0.000286061,0.000940799,-0.001882558,0.022869181,-0.001828606,0.004055837,0.006791111,-0.003633999,-0.001773967,-0.016333878,-0.000191024,-0.187844422
1609059020667799552,64,1609059020667799552,-0.023255497,-0.028311139,-0.025264846,0.000281690,-0.043357486,-0.000064184,0.999059580,0.000865837,-0.002392595,-0.001746688,0.007831950,-0.003367646,-0.005834468,0.006791113,-0.003633999,-0.001773967,-0.016334144,-0.000190951,-0.187848217
1609059020768152576,65,1609059020768152576,-0.023270687,-0.028373141,-0.025407642,0.000281863,-0.043385137,-0.000058588,0.999058380,0.000872552,-0.001169252,-0.001593285,0.011240010,-0.001987178,-0.005910219,0.006791113,-0.003633998,-0.001773967,-0.016334314,-0.000190905,-0.187850621
1609059020873144320,66,1609059020873144320,-0.023272967,-0.028345739,-0.025590377,0.000246570,-0.043411328,-0.000073876,0.999057251,0.001168346,-0.001379145,-0.002382589,0.011387270,-0.002024071,-0.005548393,0.006791114,-0.003633998,-0.001773967,-0.016334573,-0.000190834,-0.187854271
1609059020974766592,67,1609059020974766592,-0.024076995,-0.027783609,-0.025362429,0.000268459,-0.043428932,-0.000076208,0.999056480,-0.000264865,0.000252522,-0.001825566,0.018950267,-0.000621456,-0.001965858,0.006791122,-0.003633990,-0.001773967,-0.016340301,-0.000189285,-0.187934438
1609059021077505792,68,1609059021077505792,-0.025454184,-0.027837801,-0.023137444,0.000273280,-0.043443965,-0.000060808,0.999055826,-0.001339087,0.000631447,0.001070767,0.018230243,-0.001201202,-0.001459120,0.006791119,-0.003633978,-0.001773968,-0.016367895,-0.000181829,-0.188317931
1609059021180338432,69,1609059021180338432,-0.024812546,-0.026371996,-0.024085342,0.000287758,-0.043385233,-0.000076237,0.999058373,-0.000092175,0.003421212,0.000147313,0.024387648,-0.000647580,0.000241782,0.006791136,-0.003633995,-0.001773967,-0.016355743,-0.000185110,-0.188150256
1609059021283048192,70,1609059021283048192,-0.024871001,-0.026101443,-0.024081381,0.000324390,-0.043381435,-0.000093340,0.999058525,-0.000055471,0.004059910,0.000349606,0.025186434,-0.002968556,0.001597260,0.006791136,-0.003633995,-0.001773967,-0.016355626,-0.000185143,-0.188148649
1609059021386394880,71,1609059021386394880,-0.024166896,-0.026122614,-0.024116699,0.000392028,-0.043372231,-0.000075809,0.999058902,0.000876584,0.004882310,0.000011997,0.024497403,-0.002346296,0.002081807,0.006791125,-0.003634008,-0.001773969,-0.016355296,-0.000185232,-0.188144150
1609059021489202176,72,1609059021489202176,-0.023200791,-0.026664590,-0.025061527,0.000467643,-0.043354937,-0.000053683,0.999059622,0.002526927,0.004489954,-0.001300231,0.023635590,-0.003225754,0.003691902,0.006791107,-0.003634023,-0.001773972,-0.016345345,-0.000187919,-0.188008933
1609059021592097280,73,1609059021592097280,-0.024453366,-0.025112126,-0.023841477,0.000458008,-0.043362570,-0.000052405,0.999059295,0.000708380,0.006591425,-0.000212813,0.024425268,-0.003414207,0.004737535,0.006791126,-0.003634004,-0.001773975,-0.016360507,-0.000183853,-0.188214264
1609059021695342336,74,1609059021695342336,-0.023199330,-0.026545792,-0.024037971,0.000511095,-0.043285987,-0.000016746,0.999062592,0.002584269,0.005191900,-0.000653728,0.025950037,-0.002427806,0.005298691,0.006791094,-0.003634021,-0.001773979,-0.016359151,-0.000184216,-0.188195974
1609059021766953216,75,1609059021766953216,-0.021334881,-0.027626881,-0.022473317,0.000351097,-0.043248149,-0.000065700,0.999064297,0.005655637,-0.000156047,0.001021619,0.009996720,-0.003929270,-0.004819722,0.006791076,-0.003634046,-0.001773981,-0.016376626,-0.000179567,-0.188431557
1609059021867946240,76,1609059021867946240,-0.023119394,-0.027779495,-0.021653193,0.000286875,-0.043312249,-0.000135840,0.999061534,0.003000540,0.000201233,0.002079126,0.009302324,-0.000132747,-0.005336452,0.006791077,-0.003634015,-0.001773986,-0.016384314,-0.000177524,-0.188535233
1609059021970662144,77,1609059021970662144,-0.023863647,-0.027003249,-0.021910277,0.000310327,-0.043342404,-0.000134723,0.999060219,0.002048719,0.002248492,0.001005235,0.011713319,-0.002048497,-0.004442352,0.006791087,-0.003634003,-0.001773989,-0.016379640,-0.000178757,-0.188472307
1609059022074503936,78,1609059022074503936,-0.023736826,-0.026565104,-0.021855840,0.000379048,-0.043308036,-0.000128724,0.999061687,0.002114251,0.004428628,0.000610782,0.015809242,-0.001537779,-0.001642412,0.006791087,-0.003634002,-0.001773989,-0.016379617,-0.000178763,-0.188472001
1609059022178193408,79,1609059022178193408,-0.024642611,-0.027333197,-0.022472835,0.000421366,-0.043319631,-0.000129624,0.999061167,0.000084681,0.003802274,0.000944699,0.019303627,-0.007444793,-0.001900493,0.006791071,-0.003633988,-0.001773994,-0.016372593,-0.000180573,-0.188377724
1609059022280582912,80,1609059022280582912,-0.025091251,-0.027381877,-0.023003802,0.000457037,-0.043323393,-0.000105411,0.999060991,-0.000263563,0.003392652,0.000380204,0.019224064,-0.000193897,0.000414456,0.006791068,-0.003633983,-0.001773998,-0.016366444,-0.000182125,-0.188295319
1609059022383079168,81,1609059022383079168,-0.025087561,-0.026681270,-0.023432495,0.000452953,-0.043354532,-0.000094096,0.999059643,-0.000668132,0.004220925,0.000334821,0.023706542,-0.003600785,0.001123847,0.006791074,-0.003633986,-0.001773999,-0.016361788,-0.000183278,-0.188233094
1609059022486084864,82,1609059022486084864,-0.025084288,-0.026448999,-0.023755347,0.000463402,-0.043349572,-0.000100576,0.999059853,0.000153039,0.005066093,-0.000330364,0.024479870,-0.002093487,0.002199679,0.006791071,-0.003633989,-0.001774001,-0.016358752,-0.000184017,-0.188192630
1609059022589176832,83,1609059022589176832,-0.025710155,-0.026547494,-0.024361329,0.000514347,-0.043330306,-0.000090650,0.999060665,-0.000336534,0.004566944,-0.001337994,0.025053734,-0.001770087,0.002543946,0.006791064,-0.003633981,-0.001774006,-0.016353559,-0.000185260,-0.188123583
1609059022692739072,84,1609059022692739072,-0.024828372,-0.025550426,-0.024494332,0.000573932,-0.043292189,-0.000049429,0.999062288,0.000895725,0.006545816,-0.001993875,0.022984536,-0.002760503,0.004140902,0.006791072,-0.003633996,-0.001774011,-0.016354127,-0.000185127,-0.188131120
1609059022796793344,85,1609059022796793344,-0.023119767,-0.026160591,-0.025219273,0.000642552,-0.043267028,-0.000015031,0.999063337,0.003064952,0.005486779,-0.002881159,0.022862265,-0.005191831,0.005365332,0.006791054,-0.003634019,-0.001774015,-0.016349442,-0.000186205,-0.188068981
1609059022867232000,86,1609059022867232000,-0.023374435,-0.027187117,-0.025093576,0.000468366,-0.043307219,-0.000054156,0.999061691,0.003344125,0.000458186,-0.002644434,0.011571488,-0.003060630,-0.004481324,0.006791042,-0.003634011,-0.001774017,-0.016352875,-0.000185431,-0.188114508
1609059022967660800,87,1609059022967660800,-0.023803740,-0.026425088,-0.024671954,0.000470328,-0.043330822,-0.000046064,0.999060667,0.002634317,0.001604059,-0.002056730,0.009459426,-0.001318651,-0.004400420,0.006791058,-0.003634004,-0.001774017,-0.016359419,-0.000184002,-0.188201266
1609059023070525696,88,1609059023070525696,-0.023508255,-0.026980965,-0.024889477,0.000511148,-0.043297215,-0.000040667,0.999062104,0.002568546,0.000933375,-0.002563174,0.010922038,0.001169975,-0.004772291,0.006791052,-0.003634008,-0.001774016,-0.016359593,-0.000183965,-0.188203574
1609059023173918208,89,1609059023173918208,-0.022412286,-0.025794045,-0.025199390,0.000539027,-0.043263111,-0.000015445,0.999063568,0.003558393,0.003854010,-0.001833263,0.017645238,-0.003900548,-0.001068290,0.006791071,-0.003634023,-0.001774017,-0.016358772,-0.000184131,-0.188192700
1609059023277442816,90,1609059023277442816,-0.023084417,-0.026518808,-0.025015996,0.000601046,-0.043290711,-0.000014577,0.999062337,0.002628486,0.002424728,-0.001704884,0.019220585,-0.002286294,-0.001643187,0.006791060,-0.003634008,-0.001774018,-0.016362686,-0.000183367,-0.188244650
1609059023380221696,91,1609059023380221696,-0.023643602,-0.027558337,-0.026290702,0.000632979,-0.043310407,-0.000012986,0.999061464,0.002013818,0.000710662,-0.003712250,0.020794321,-0.001733768,0.000441961,0.006791048,-0.003633997,-0.001774017,-0.016353398,-0.000185099,-0.188121341
1609059023483368192,92,1609059023483368192,-0.023031967,-0.027201816,-0.026399008,0.000625298,-0.043296962,-0.000011175,0.999062051,0.002483109,0.001655238,-0.003626631,0.023710607,-0.003054435,0.002761114,0.006791057,-0.003634005,-0.001774018,-0.016356057,-0.000184624,-0.188156611
1609059023586247424,93,1609059023586247424,-0.023177133,-0.027014761,-0.025591135,0.000650072,-0.043269377,0.000005364,0.999063230,0.001568459,0.002184870,-0.002054708,0.026173566,-0.000854892,0.003651071,0.006791064,-0.003634001,-0.001774020,-0.016366527,-0.000182832,-0.188295563
1609059023689791744,94,1609059023689791744,-0.022480008,-0.027321175,-0.025176123,0.000668230,-0.043247965,-0.000001878,0.999064146,0.002640354,0.002048847,-0.000241485,0.022520106,-0.001434877,0.003366390,0.006791060,-0.003634008,-0.001774021,-0.016371431,-0.000182022,-0.188360723
1609059023792383488,95,1609059023792383488,-0.023315480,-0.027443270,-0.025388704,0.000666426,-0.043298562,-0.000001270,0.999061955,0.001024049,0.001857829,0.000138200,0.023228824,-0.004337028,0.002258660,0.006791063,-0.003633991,-0.001774022,-0.016369653,-0.000182304,-0.188337061
1609059023895503872,96,1609059023895503872,-0.023009387,-0.026576537,-0.024316697,0.000645768,-0.043312976,-0.000003049,0.999061344,0.001492432,0.003058645,0.001237369,0.021838995,-0.002330873,0.004992155,0.006791078,-0.003633995,-0.001774024,-0.016378691,-0.000180918,-0.188457234
1609059023967433984,97,1609059023967433984,-0.023046443,-0.027226164,-0.025082504,0.000458969,-0.043313823,-0.000029189,0.999061410,0.002273966,-0.001363529,0.000521735,0.007193116,-0.000263013,-0.006040820,0.006791075,-0.003633995,-0.001774025,-0.016371479,-0.000181996,-0.188361378
1609059024067342848,98,1609059024067342848,-0.023616538,-0.026958227,-0.024356221,0.000436948,-0.043301319,-0.000030337,0.999061962,0.001653586,-0.000678243,0.001669427,0.010856831,-0.002029479,-0.006005653,0.006791086,-0.003633986,-0.001774024,-0.016377218,-0.000181150,-0.188437680
1609059024172347648,99,1609059024172347648,-0.024048584,-0.025786714,-0.023831554,0.000432572,-0.043310124,-0.000031890,0.999061582,0.000627355,0.001261541,0.002310741,0.015317680,-0.003152728,-0.003342133,0.006791108,-0.003633982,-0.001774023,-0.016380143,-0.000180723,-0.188476598
1609059024273520128,100,1609059024273520128,-0.024422816,-0.026446107,-0.023779362,0.000484364,-0.043353343,-0.000038944,0.999059684,-0.000668824,0.001509650,0.002431494,0.017740926,-0.005261298,-0.002761040,0.006791099,-0.003633980,-0.001774023,-0.016378698,-0.000180933,-0.188457390
1609059024378080512,101,1609059024378080512,-0.025090054,-0.027051214,-0.023391797,0.000530342,-0.043375481,-0.000028580,0.999058700,-0.001364933,0.001111227,0.001757162,0.018573305,-0.002746359,-0.001080218,0.006791093,-0.003633975,-0.001774023,-0.016380364,-0.000180696,-0.188479467
1609059024479891968,102,1609059024479891968,-0.025106956,-0.026801189,-0.024028659,0.000493310,-0.043329766,-0.000038911,0.999060702,-0.000794235,0.001221335,0.000380406,0.020493455,-0.002177137,-0.001489355,0.006791099,-0.003633981,-0.001774024,-0.016374124,-0.000181572,-0.188396990
1609059024582989312,103,1609059024582989312,-0.023244839,-0.026162906,-0.023934841,0.000515073,-0.043235437,-0.000024583,0.999064778,0.001435393,0.002710453,0.000290117,0.022970844,-0.001729296,0.002337462,0.006791109,-0.003634014,-0.001774026,-0.016374709,-0.000181490,-0.188404718
1609059024686077952,104,1609059024686077952,-0.023203156,-0.025897607,-0.023937423,0.000565017,-0.043267763,-0.000009075,0.999063352,0.001054571,0.002872739,0.000055392,0.025149643,-0.003609097,0.000648594,0.006791112,-0.003634012,-0.001774026,-0.016374550,-0.000181512,-0.188402610
1609059024789220608,105,1609059024789220608,-0.024881127,-0.026649089,-0.024257260,0.000578449,-0.043334427,-0.000014546,0.999060455,-0.001165027,0.001983277,0.000193779,0.025939703,-0.003992200,0.003247652,0.006791103,-0.003633986,-0.001774027,-0.016372134,-0.000181847,-0.188370554
1609059024892245504,106,1609059024892245504,-0.024639441,-0.026654879,-0.024729898,0.000581738,-0.043324446,-0.000001797,0.999060886,0.000130792,0.002104036,-0.000960023,0.022622116,-0.001806391,0.002636594,0.006791104,-0.003633992,-0.001774029,-0.016368861,-0.000182298,-0.188327213
1609059024995248640,107,1609059024995248640,-0.024994971,-0.027118261,-0.024855799,0.000596682,-0.043291215,0.000014536,0.999062318,-0.000358464,0.001631172,-0.001791322,0.024609230,-0.000514602,0.004986379,0.006791099,-0.003633987,-0.001774032,-0.016369078,-0.000182269,-0.188330088
1609059025067295744,108,1609059025067295744,-0.024800101,-0.028215808,-0.022872924,0.000416082,-0.043280153,-0.000018561,0.999062888,0.000801462,-0.003465955,0.000818286,0.005910170,-0.003988015,-0.008460848,0.006791087,-0.003633990,-0.001774032,-0.016385396,-0.000180011,-0.188546274
1609059025167143168,109,1609059025167143168,-0.025481476,-0.027749594,-0.022628203,0.000379837,-0.043298183,-0.000030040,0.999062121,0.000465163,-0.002215339,0.000704192,0.007479955,0.001369933,-0.005479411,0.006791103,-0.003633982,-0.001774030,-0.016386793,-0.000179816,-0.188564823
1609059025271132416,110,1609059025271132416,-0.024203744,-0.027584089,-0.021523276,0.000353835,-0.043285603,-0.000033289,0.999062676,0.002461000,-0.001870824,0.002266152,0.011408016,-0.000756160,-0.004810884,0.006791112,-0.003634005,-0.001774030,-0.016394293,-0.000178746,-0.188664352
1609059025375380736,111,1609059025375380736,-0.023022840,-0.028057833,-0.020036685,0.000376451,-0.043258434,-0.000029825,0.999063844,0.004808981,-0.001394692,0.003226195,0.015469682,0.001477074,-0.004084740,0.006791107,-0.003634019,-0.001774031,-0.016403855,-0.000177343,-0.188791372
1609059025477054208,112,1609059025477054208,-0.022605571,-0.028099689,-0.019692656,0.000416889,-0.043233461,-0.000001091,0.999064910,0.004415438,-0.000168329,0.004283324,0.019962054,-0.005320470,0.000762646,0.006791107,-0.003634019,-0.001774031,-0.016403655,-0.000177373,-0.188788708
1609059025581265664,113,1609059025581265664,-0.022314915,-0.028060220,-0.019561032,0.000439480,-0.043188313,0.000009696,0.999066853,0.003958911,0.000968738,0.003713535,0.021497309,-0.001790428,0.001457266,0.006791109,-0.003634017,-0.001774030,-0.016401559,-0.000177697,-0.188760628
1609059025684482560,114,1609059025684482560,-0.022147981,-0.028636676,-0.021562010,0.000475744,-0.043194053,0.000002006,0.999066588,0.003891736,0.000604821,0.001458594,0.025061691,-0.001158694,0.002494707,0.006791101,-0.003634011,-0.001774032,-0.016384657,-0.000180387,-0.188532957
1609059025786085632,115,1609059025786085632,-0.022810818,-0.027530844,-0.022331265,0.000448602,-0.043241468,0.000010043,0.999064549,0.002810004,0.002223694,0.000497152,0.024902686,-0.005685732,0.000383900,0.006791120,-0.003633997,-0.001774032,-0.016378555,-0.000181382,-0.188450388
1609059025889156352,116,1609059025889156352,-0.022829229,-0.027245994,-0.023177665,0.000502015,-0.043252190,0.000023077,0.999064060,0.002542958,0.002524812,-0.000209571,0.024824509,-0.001106572,0.003209103,0.006791122,-0.003633992,-0.001774032,-0.016372445,-0.000182402,-0.188367496
1609059025992651776,117,1609059025992651776,-0.021512484,-0.027988150,-0.024492726,0.000546570,-0.043186248,0.000017930,0.999066889,0.004296725,0.002111470,-0.001578346,0.021678450,-0.000500156,0.004395487,0.006791106,-0.003634006,-0.001774033,-0.016363679,-0.000183907,-0.188248268
1609059026095217408,118,1609059026095217408,-0.021064324,-0.028002613,-0.024632294,0.000540603,-0.043170709,0.000045134,0.999067563,0.004410834,0.002571594,-0.000872775,0.025473654,-0.002728965,0.004452609,0.006791105,-0.003634005,-0.001774033,-0.016363590,-0.000183923,-0.188247046
1609059026166726144,119,1609059026166726144,-0.020864924,-0.027926205,-0.024667386,0.000311402,-0.043218033,-0.000011411,0.999065616,0.005111952,-0.001018664,-0.000385325,0.007672293,-0.004086762,-0.007205097,0.006791106,-0.003634004,-0.001774033,-0.016363597,-0.000183921,-0.188247146
1609059026266840576,120,1609059026266840576,-0.022530142,-0.027082168,-0.023345756,0.000285963,-0.043292972,-0.000035839,0.999062378,0.002494813,0.001212369,0.001277968,0.010323244,-0.002010863,-0.005271655,0.006791121,-0.003633973,-0.001774033,-0.016372769,-0.000182218,-0.188373493
1609059026370183680,121,1609059026370183680,-0.022360874,-0.026764327,-0.023257324,0.000312586,-0.043294579,-0.000025721,0.999062301,0.002937706,0.002550932,0.001498735,0.013777550,-0.003059806,-0.002041506,0.006791122,-0.003633973,-0.001774033,-0.016372639,-0.000182243,-0.188371707
1609059026473718528,122,1609059026473718528,-0.022765459,-0.027385376,-0.023082771,0.000335942,-0.043284110,-0.000032681,0.999062747,0.002172428,0.002183043,0.001660967,0.019210884,-0.002024164,-0.002263502,0.006791108,-0.003633963,-0.001774033,-0.016372866,-0.000182198,-0.188374826
1609059026577076736,123,1609059026577076736,-0.022612695,-0.027085140,-0.022885696,0.000356545,-0.043257989,-0.000034088,0.999063871,0.002115174,0.003108832,0.001494660,0.021005180,-0.000338049,-0.000580731,0.006791108,-0.003633962,-0.001774033,-0.016372965,-0.000182178,-0.188376191
1609059026679737856,124,1609059026679737856,-0.021954642,-0.026269528,-0.023160231,0.000359822,-0.043253863,-0.000005099,0.999064049,0.002665102,0.003852906,0.001987189,0.023300219,-0.005879369,0.000397523,0.006791113,-0.003633971,-0.001774033,-0.016369964,-0.000182806,-0.188334852
1609059026783007488,125,1609059026783007488,-0.022277556,-0.027322345,-0.022428284,0.000433521,-0.043286420,-0.000017403,0.999062609,0.001908465,0.002142124,0.002619801,0.023532443,-0.000473959,0.001519544,0.006791092,-0.003633963,-0.001774035,-0.016373475,-0.000182051,-0.188383230
1609059026886376448,126,1609059026886376448,-0.022250681,-0.027085602,-0.022299552,0.000443194,-0.043296336,-0.000027757,0.999062175,0.001631184,0.003154039,0.002321414,0.024689211,-0.000824019,0.002876602,0.006791093,-0.003633962,-0.001774035,-0.016372561,-0.000182249,-0.188370656
1609059026989350912,127,1609059026989350912,-0.021557302,-0.027164169,-0.022976449,0.000493100,-0.043233856,0.000002698,0.999064858,0.002749702,0.003517696,0.001641237,0.023251042,0.000886794,0.003107021,0.006791086,-0.003633969,-0.001774036,-0.016366735,-0.000183521,-0.188290592
1609059027092364288,128,1609059027092364288,-0.021292303,-0.026266005,-0.023392466,0.000460377,-0.043214435,-0.000000032,0.999065714,0.003096402,0.005260569,0.000521693,0.025351323,-0.003476258,0.003147384,0.006791095,-0.003633968,-0.001774038,-0.016363488,-0.000184239,-0.188245872
1609059027196972032,129,1609059027196972032,-0.020980026,-0.025946180,-0.023322531,0.000458079,-0.043243841,-0.000016566,0.999064442,0.002556810,0.006154183,0.000648512,0.021810424,-0.003015496,0.003393356,0.006791093,-0.003633968,-0.001774038,-0.016363521,-0.000184231,-0.188246329
1609059027267192320,130,1609059027267192320,-0.023982958,-0.025330913,-0.020854186,0.000240741,-0.043370592,-0.000061817,0.999059022,-0.001059459,0.003763385,0.003586692,0.008451760,-0.001069031,-0.005301665,0.006791103,-0.003633925,-0.001774037,-0.016378447,-0.000180773,-0.188452401
1609059027367329024,131,1609059027367329024,-0.024100624,-0.025950459,-0.019732090,0.000295559,-0.043364182,-0.000065342,0.999059286,-0.000591288,0.003791933,0.004046987,0.011955557,0.001294300,-0.004937567,0.006791089,-0.003633930,-0.001774036,-0.016383197,-0.000179647,-0.188517527
1609059027470470400,132,1609059027470470400,-0.024514882,-0.025722693,-0.018917501,0.000295900,-0.043321344,-0.000074442,0.999061143,-0.000938029,0.004565852,0.005004703,0.015794594,-0.001071474,-0.001903149,0.006791089,-0.003633930,-0.001774037,-0.016385565,-0.000179078,-0.188549860
1609059027573250048,133,1609059027573250048,-0.022129911,-0.025890717,-0.019178215,0.000358653,-0.043215988,-0.000051602,0.999065687,0.002103911,0.004422426,0.005389642,0.018717218,-0.002377870,-0.002740354,0.006791075,-0.003633968,-0.001774040,-0.016380496,-0.000180314,-0.188480781
1609059027677865728,134,1609059027677865728,-0.022445407,-0.026783360,-0.019112548,0.000386472,-0.043265309,-0.000068222,0.999063541,0.001256496,0.003199040,0.004642955,0.018112853,-0.002831778,-0.001308254,0.006791059,-0.003633959,-0.001774042,-0.016377749,-0.000180989,-0.188443232
1609059027779898368,135,1609059027779898368,-0.022920425,-0.025403880,-0.019459971,0.000387904,-0.043328627,-0.000080257,0.999060796,0.001385201,0.005108065,0.003983430,0.020885557,-0.004373049,0.000004354,0.006791074,-0.003633953,-0.001774043,-0.016372826,-0.000182194,-0.188376031
1609059027883015936,136,1609059027883015936,-0.023912570,-0.026691964,-0.020556482,0.000482291,-0.043364818,-0.000054736,0.999059186,0.000353311,0.003635452,0.001662653,0.023472143,-0.000730708,0.001221377,0.006791051,-0.003633938,-0.001774046,-0.016364289,-0.000184275,-0.188260008
1609059027986250240,137,1609059027986250240,-0.023296096,-0.027209678,-0.021831072,0.000540605,-0.043284104,-0.000024348,0.999062657,0.000932565,0.003434012,0.000397892,0.023079835,-0.002763495,0.002977226,0.006791039,-0.003633948,-0.001774048,-0.016355736,-0.000186317,-0.188144292
1609059028089236992,138,1609059028089236992,-0.023391153,-0.026977682,-0.022096262,0.000561185,-0.043260342,-0.000018844,0.999063675,0.000459444,0.004236193,-0.000418077,0.024978511,-0.002400710,0.004192814,0.006791039,-0.003633946,-0.001774049,-0.016354282,-0.000186658,-0.188124626
1609059028192186368,139,1609059028192186368,-0.022274911,-0.026953230,-0.022587301,0.000618596,-0.043274747,-0.000000853,0.999063018,0.001698940,0.004212471,-0.001132090,0.024477441,-0.004607784,0.004398945,0.006791035,-0.003633962,-0.001774052,-0.016351789,-0.000187233,-0.188090919
1609059028295219200,140,1609059028295219200,-0.023913632,-0.026368227,-0.023994253,0.000635214,-0.043328981,0.000005054,0.999060657,-0.001061239,0.005293492,-0.003166149,0.021859298,-0.002252282,0.005840057,0.006791042,-0.003633935,-0.001774053,-0.016344626,-0.000188845,-0.187994142
1609059028366970112,141,1609059028366970112,-0.024363339,-0.026284378,-0.022996905,0.000435257,-0.043327602,-0.000031087,0.999060823,-0.000975082,0.001941279,-0.001680835,0.010989801,0.002039512,-0.005063484,0.006791045,-0.003633933,-0.001774052,-0.016351821,-0.000187265,-0.188091099
1609059028467363072,142,1609059028467363072,-0.023521556,-0.025553602,-0.021749246,0.000418751,-0.043243082,-0.000010509,0.999064493,-0.000053442,0.002539771,-0.000042131,0.009657408,0.001597220,-0.004992785,0.006791056,-0.003633951,-0.001774050,-0.016359996,-0.000185517,-0.188201209
1609059028570141696,143,1609059028570141696,-0.021271243,-0.027062114,-0.022678013,0.000474858,-0.043155036,-0.000002118,0.999068275,0.003007299,0.001470990,-0.000289623,0.015094493,-0.004609106,-0.002628384,0.006791031,-0.003633985,-0.001774051,-0.016354433,-0.000186690,-0.188126015
1609059028673265920,144,1609059028673265920,-0.021056425,-0.026821892,-0.022834853,0.000487018,-0.043185344,-0.000011993,0.999066959,0.003016136,0.001536332,-0.001090770,0.015360306,-0.002353609,-0.002251432,0.006791031,-0.003633984,-0.001774051,-0.016354049,-0.000186769,-0.188120777
1609059028777006848,145,1609059028777006848,-0.021476498,-0.026800814,-0.023039346,0.000502860,-0.043249328,-0.000017957,0.999064183,0.002268267,0.001764460,-0.000557795,0.020857673,-0.005740493,-0.002139599,0.006791032,-0.003633973,-0.001774051,-0.016353402,-0.000186899,-0.188111918
1609059028880224000,146,1609059028880224000,-0.021787545,-0.027126198,-0.023959180,0.000510099,-0.043253448,-0.000010215,0.999064001,0.002410186,0.000973052,-0.002208390,0.021299848,-0.002838559,0.000833666,0.006791028,-0.003633965,-0.001774053,-0.016349066,-0.000187745,-0.188052481
1609059028982651904,147,1609059028982651904,-0.023387371,-0.027123881,-0.023660191,0.000461682,-0.043281092,-0.000028639,0.999062827,0.000544236,0.000551165,-0.002232553,0.021971282,0.000665651,0.000241947,0.006791033,-0.003633937,-0.001774053,-0.016352231,-0.000187135,-0.188095916
1609059029085549312,148,1609059029085549312,-0.023364486,-0.027127370,-0.023899891,0.000492901,-0.043271341,-0.000008089,0.999063235,-0.000060678,0.001277105,-0.000940052,0.026109071,-0.003648917,0.003033543,0.006791032,-0.003633937,-0.001774053,-0.016351967,-0.000187186,-0.188092305
1609059029188636160,149,1609059029188636160,-0.022651231,-0.027698193,-0.023809585,0.000500962,-0.043272307,-0.000012615,0.999063189,0.001057241,0.000867915,0.000438135,0.023944765,-0.005172654,0.001917228,0.006791023,-0.003633948,-0.001774055,-0.016352802,-0.000187024,-0.188103733
1609059029291811584,150,1609059029291811584,-0.021772237,-0.026527921,-0.024125978,0.000519704,-0.043268320,-0.000009065,0.999063352,0.002237718,0.003960458,-0.000347729,0.028454948,-0.001779475,0.004396373,0.006791039,-0.003633960,-0.001774057,-0.016351090,-0.000187355,-0.188080320
1609059029394959104,151,1609059029394959104,-0.021462086,-0.026289163,-0.024821633,0.000594913,-0.043238085,0.000039218,0.999064619,0.001706499,0.004895176,-0.000898902,0.021548431,-0.004671622,0.005601065,0.006791039,-0.003633959,-0.001774061,-0.016347467,-0.000188055,-0.188030742
1609059029466882304,152,1609059029466882304,-0.021398125,-0.026412734,-0.025050771,0.000404475,-0.043212663,0.000015263,0.999065815,0.002414833,0.001422259,-0.001200734,0.011514441,-0.000170749,-0.004895130,0.006791034,-0.003633958,-0.001774061,-0.016346798,-0.000188183,-0.188021567
1609059029568681728,153,1609059029568681728,-0.021361678,-0.026316495,-0.025162845,0.000382017,-0.043206675,-0.000002083,0.999066083,0.002224014,0.001799724,-0.000701223,0.012371493,-0.001319042,-0.005398475,0.006791033,-0.003633955,-0.001774061,-0.016346661,-0.000188210,-0.188019678
1609059029671488000,154,1609059029671488000,-0.021259966,-0.025930130,-0.025220561,0.000403455,-0.043231561,0.000012318,0.999064998,0.001628410,0.002243963,-0.000543391,0.010216897,-0.001939348,-0.004888757,0.006791033,-0.003633955,-0.001774061,-0.016346656,-0.000188211,-0.188019602
1609059029780179456,155,1609059029780179456,-0.021160333,-0.025642385,-0.025333834,0.000461484,-0.043238531,0.000010880,0.999064671,0.001887859,0.003976598,-0.001030183,0.022781912,-0.001444769,-0.000531429,0.006791032,-0.003633954,-0.001774061,-0.016346632,-0.000188216,-0.188019266
1609059029883426816,156,1609059029883426816,-0.022371699,-0.027226409,-0.025443047,0.000529180,-0.043241501,0.000008977,0.999064509,0.000656772,0.002224135,-0.001473803,0.023512643,-0.000386043,0.000903978,0.006791005,-0.003633931,-0.001774061,-0.016346731,-0.000188196,-0.188020656
1609059029986491136,157,1609059029986491136,-0.022421401,-0.027138881,-0.025655173,0.000546716,-0.043202678,0.000019591,0.999066179,0.000753678,0.002042356,-0.001200120,0.023826124,-0.002747427,0.001507114,0.006791005,-0.003633928,-0.001774061,-0.016346493,-0.000188242,-0.188017327
1609059030090519040,158,1609059030090519040,-0.022350530,-0.027048999,-0.025823853,0.000599515,-0.043197631,0.000037524,0.999066366,0.000202899,0.003338269,-0.001652503,0.024394568,-0.004127006,0.004926808,0.006791004,-0.003633929,-0.001774061,-0.016346487,-0.000188243,-0.188017250
1609059030192771584,159,1609059030192771584,-0.022643741,-0.027051081,-0.025473248,0.000591218,-0.043250572,0.000026481,0.999064081,-0.000092594,0.003034803,-0.001018354,0.023248931,-0.003450612,0.004499273,0.006791002,-0.003633923,-0.001774062,-0.016349044,-0.000187767,-0.188053116
1609059030295773184,160,1609059030295773184,-0.022542070,-0.026846988,-0.025607718,0.000624881,-0.043255780,0.000042046,0.999063834,0.000359770,0.003754089,-0.001882911,0.024932455,-0.001271571,0.003859203,0.006791002,-0.003633924,-0.001774062,-0.016349262,-0.000187727,-0.188056169
1609059030369461760,161,1609059030369461760,-0.022332320,-0.027437095,-0.025460426,0.000436434,-0.043242453,-0.000010044,0.999064512,0.001938785,0.000435504,-0.001586110,0.014053023,0.000111412,-0.003532246,0.006790995,-0.003633926,-0.001774060,-0.016350794,-0.000187451,-0.188077643
1609059030472465408,162,1609059030472465408,-0.021841748,-0.027441298,-0.025574308,0.000448875,-0.043180256,-0.000001603,0.999067197,0.002190333,0.000169133,-0.001769008,0.016694445,-0.003117113,-0.004319252,0.006790993,-0.003633930,-0.001774060,-0.016351143,-0.000187389,-0.188082543
1609059030575567616,163,1609059030575567616,-0.020710376,-0.027064823,-0.025217838,0.000445687,-0.043146538,-0.000008884,0.999068655,0.003382826,0.001686078,-0.001153007,0.017502163,-0.003872646,-0.001774123,0.006790996,-0.003633944,-0.001774060,-0.016353790,-0.000186923,-0.188120001
1609059030679651328,164,1609059030679651328,-0.020441208,-0.026887409,-0.025343235,0.000461258,-0.043187491,-0.000005618,0.999066879,0.003165095,0.001309714,-0.000982364,0.022825778,-0.004553165,0.001846321,0.006790997,-0.003633943,-0.001774060,-0.016353749,-0.000186930,-0.188119419
1609059030781719808,165,1609059030781719808,-0.020169781,-0.026858844,-0.025435521,0.000429353,-0.043218973,-0.000022159,0.999065531,0.004077035,0.001401599,-0.001337155,0.023483464,-0.000794676,0.002110042,0.006790996,-0.003633942,-0.001774060,-0.016353835,-0.000186915,-0.188120649
1609059030884956160,166,1609059030884956160,-0.021552549,-0.027695724,-0.024550921,0.000450358,-0.043229942,-0.000030921,0.999065047,0.002035321,0.000290033,-0.000543121,0.024752952,-0.000388130,0.001301738,0.006790984,-0.003633915,-0.001774062,-0.016358753,-0.000185992,-0.188191042
1609059030988535296,167,1609059030988535296,-0.021761599,-0.027687698,-0.024425906,0.000492473,-0.043185473,-0.000005187,0.999066951,0.001101410,0.001361821,0.000161183,0.026507579,0.001826122,0.002585251,0.006790985,-0.003633910,-0.001774062,-0.016359435,-0.000185862,-0.188200824
1609059031090541568,168,1609059031090541568,-0.022454948,-0.026997317,-0.024653482,0.000469018,-0.043211546,-0.000011272,0.999065835,-0.000720046,0.003051706,0.001529601,0.026067227,-0.002129951,0.004307411,0.006790995,-0.003633897,-0.001774063,-0.016357799,-0.000186182,-0.188177258
1609059031193632000,169,1609059031193632000,-0.021467124,-0.027084627,-0.024301777,0.000515102,-0.043228284,-0.000005904,0.999065088,0.000550752,0.003515475,0.002011421,0.024516491,-0.002811136,0.004533982,0.006790987,-0.003633911,-0.001774067,-0.016358730,-0.000185996,-0.188190650
1609059031297037312,170,1609059031297037312,-0.021394756,-0.026957433,-0.024180428,0.000527328,-0.043254636,0.000017091,0.999063941,0.001094351,0.004487396,0.001372317,0.021478388,-0.002702701,0.004032123,0.006790985,-0.003633911,-0.001774067,-0.016358707,-0.000186000,-0.188190320
1609059031367552512,171,1609059031367552512,-0.022216834,-0.027795424,-0.023373927,0.000349720,-0.043285636,-0.000021012,0.999062676,0.001405109,0.000185695,0.001611428,0.012591333,-0.000878454,-0.004834169,0.006790974,-0.003633898,-0.001774068,-0.016362072,-0.000185304,-0.188238555
1609059031468872704,172,1609059031468872704,-0.022167109,-0.027571734,-0.023260890,0.000348968,-0.043213816,-0.000012794,0.999065786,0.001614925,0.000630277,0.001331738,0.013476480,0.000451976,-0.004037602,0.006790975,-0.003633898,-0.001774068,-0.016362043,-0.000185310,-0.188238147
1609059031573636352,173,1609059031573636352,-0.021776229,-0.027214858,-0.022541756,0.000319809,-0.043207573,-0.000003318,0.999066066,0.000993395,0.001722007,0.002352527,0.015358858,-0.001327803,-0.002998574,0.006790978,-0.003633904,-0.001774068,-0.016364639,-0.000184755,-0.188275376
1609059031675127040,174,1609059031675127040,-0.021709068,-0.026909405,-0.021811087,0.000339836,-0.043285533,-0.000001263,0.999062684,0.001258819,0.002213190,0.002385692,0.019316463,-0.001734775,-0.001581538,0.006790979,-0.003633905,-0.001774068,-0.016366876,-0.000184262,-0.188307429
1609059031779003392,175,1609059031779003392,-0.022442420,-0.028754528,-0.022441341,0.000400079,-0.043325782,-0.000040785,0.999060916,0.000947278,0.000083254,0.000875789,0.023362912,-0.001063819,-0.001107753,0.006790949,-0.003633892,-0.001774069,-0.016363193,-0.000185101,-0.188254981
1609059031881477888,176,1609059031881477888,-0.021445610,-0.029430429,-0.022221202,0.000406810,-0.043234666,0.000008014,0.999064862,0.002303609,-0.000529605,0.000586346,0.022371858,0.000618922,0.000488885,0.006790938,-0.003633905,-0.001774070,-0.016364001,-0.000184916,-0.188266408
1609059031984583424,177,1609059031984583424,-0.021257378,-0.029478112,-0.022171370,0.000436744,-0.043167387,0.000025049,0.999067758,0.002169194,-0.000507661,0.001218126,0.025012765,-0.002911499,0.000990326,0.006790938,-0.003633905,-0.001774070,-0.016363895,-0.000184940,-0.188264911
1609059032089373952,178,1609059032089373952,-0.020769315,-0.028188576,-0.022513875,0.000421748,-0.043170691,-0.000010073,0.999067622,0.002124798,0.002840173,0.001690623,0.025682380,-0.004768878,0.002068083,0.006790955,-0.003633908,-0.001774071,-0.016361735,-0.000185452,-0.188234036
1609059032190745088,179,1609059032190745088,-0.022048034,-0.027237040,-0.022614273,0.000466922,-0.043281348,0.000013170,0.999062814,0.000245691,0.005237524,0.001229066,0.027145676,-0.003537167,0.003101225,0.006790966,-0.003633886,-0.001774072,-0.016360648,-0.000185715,-0.188218482
1609059032295057920,180,1609059032295057920,-0.021995848,-0.026925601,-0.022489436,0.000487713,-0.043274631,-0.000017088,0.999063095,0.001063624,0.005944968,0.001238183,0.024163714,-0.002647963,0.003609001,0.006790964,-0.003633886,-0.001774072,-0.016360646,-0.000185715,-0.188218463
1609059032397250304,181,1609059032397250304,-0.022734070,-0.027961456,-0.023393772,0.000547617,-0.043239738,-0.000002623,0.999064575,0.000622728,0.005213299,-0.000031445,0.025410881,0.000082146,0.004370910,0.006790941,-0.003633869,-0.001774077,-0.016356455,-0.000186764,-0.188158985
1609059032467259392,182,1609059032467259392,-0.021004848,-0.028237073,-0.021878037,0.000411594,-0.043185596,0.000020400,0.999066982,0.003311562,0.000950419,0.001819396,-0.004870364,-0.003074209,-0.008126662,0.006790935,-0.003633894,-0.001774078,-0.016363109,-0.000185125,-0.188253414
1609059032568936704,183,1609059032568936704,-0.021092298,-0.028081960,-0.023294796,0.000409049,-0.043207704,-0.000004938,0.999066027,0.002366128,0.001513826,0.001066562,0.013321355,-0.002799360,-0.005375607,0.006790938,-0.003633888,-0.001774076,-0.016355849,-0.000186891,-0.188149819
1609059032672092672,184,1609059032672092672,-0.021220880,-0.027111845,-0.023161725,0.000371241,-0.043276329,-0.000032414,0.999063071,0.001946445,0.003624646,0.001614048,0.014436716,-0.001070573,-0.002887245,0.006790950,-0.003633885,-0.001774077,-0.016355862,-0.000186888,-0.188150017
1609059032775384576,185,1609059032775384576,-0.022522214,-0.027085832,-0.020960780,0.000435106,-0.043336644,0.000014324,0.999060432,0.000078670,0.003807783,0.002804482,0.018737560,-0.002320178,-0.001211670,0.006790949,-0.003633866,-0.001774076,-0.016364904,-0.000184752,-0.188278201
1609059032879107072,186,1609059032879107072,-0.022437540,-0.027497129,-0.020735453,0.000426690,-0.043273879,-0.000011987,0.999063156,0.000729872,0.003639615,0.002808811,0.023775244,-0.000536102,0.001104933,0.006790940,-0.003633868,-0.001774076,-0.016364683,-0.000184805,-0.188275085
1609059032981785856,187,1609059032981785856,-0.022427042,-0.027168081,-0.020459665,0.000461743,-0.043227960,0.000012333,0.999065128,0.000179319,0.003934748,0.003221293,0.024331234,-0.005142294,0.001816377,0.006790939,-0.003633868,-0.001774076,-0.016364621,-0.000184819,-0.188274215
1609059033084571904,188,1609059033084571904,-0.022040862,-0.027315628,-0.021054040,0.000546318,-0.043259687,0.000053807,0.999063711,0.000003482,0.004257903,0.002148923,0.025602400,-0.003479068,0.002570680,0.006790933,-0.003633875,-0.001774075,-0.016360853,-0.000185693,-0.188221244
1609059033187373312,189,1609059033187373312,-0.022502757,-0.027764830,-0.022653227,0.000549633,-0.043323231,0.000010181,0.999060957,-0.000538049,0.003866959,0.000426174,0.024750236,-0.002139484,0.001600425,0.006790923,-0.003633868,-0.001774076,-0.016353106,-0.000187441,-0.188112807
1609059033290332416,190,1609059033290332416,-0.023661321,-0.027945164,-0.023749759,0.000555696,-0.043364531,0.000022263,0.999059161,-0.001140411,0.003807904,-0.000705214,0.024969820,-0.001913289,0.003863866,0.006790919,-0.003633853,-0.001774078,-0.016348215,-0.000188516,-0.188044978
1609059033393647872,191,1609059033393647872,-0.021972020,-0.029033842,-0.025354018,0.000652305,-0.043219031,0.000058848,0.999065406,0.001216909,0.002522043,-0.003320114,0.021987446,0.000219146,0.004103022,0.006790898,-0.003633878,-0.001774078,-0.016342014,-0.000189834,-0.187959663
1609059033496685824,192,1609059033496685824,-0.021349230,-0.027108042,-0.025938934,0.000583140,-0.043170966,0.000037853,0.999067528,0.001857152,0.006113756,-0.003053346,0.024393396,-0.004124781,0.005390947,0.006790924,-0.003633884,-0.001774078,-0.016340813,-0.000190086,-0.187943084
1609059033566900992,193,1609059033566900992,-0.021277341,-0.026849352,-0.026114779,0.000339500,-0.043222156,-0.000021139,0.999065428,0.002029940,0.003338493,-0.002533770,0.011339726,-0.002516207,-0.005616723,0.006790923,-0.003633883,-0.001774078,-0.016340945,-0.000190058,-0.187944910
1609059033668631296,194,1609059033668631296,-0.022366772,-0.027493575,-0.024819018,0.000376737,-0.043339753,-0.000019117,0.999060320,0.000322013,0.002313866,-0.000680777,0.013402733,-0.002195726,-0.004464070,0.006790909,-0.003633866,-0.001774077,-0.016347544,-0.000188662,-0.188036240
1609059033771909120,195,1609059033771909120,-0.023630453,-0.028643714,-0.022994858,0.000427938,-0.043386385,-0.000050641,0.999058275,-0.000917184,0.001096631,0.001445827,0.019350491,-0.003731678,-0.001639288,0.006790893,-0.003633850,-0.001774079,-0.016355638,-0.000186960,-0.188147167
1609059033875321088,196,1609059033875321088,-0.024875464,-0.028102057,-0.023137049,0.000398811,-0.043355957,-0.000029843,0.999059608,-0.002492842,0.002077029,0.001309530,0.018280804,-0.002275139,-0.000949521,0.006790901,-0.003633837,-0.001774078,-0.016354492,-0.000187196,-0.188131616
1609059033978591488,197,1609059033978591488,-0.024196796,-0.026694434,-0.022940367,0.000426420,-0.043278506,0.000000611,0.999062956,-0.001536428,0.003902211,0.001820198,0.024390126,-0.003979599,0.000437664,0.006790919,-0.003633855,-0.001774077,-0.016354715,-0.000187151,-0.188134628
1609059034081394944,198,1609059034081394944,-0.024037079,-0.026862724,-0.022678195,0.000433122,-0.043300595,-0.000019731,0.999061995,-0.001459584,0.003174374,0.002816792,0.023003304,-0.002745101,-0.000444005,0.006790912,-0.003633861,-0.001774078,-0.016354992,-0.000187094,-0.188138358
1609059034184546304,199,1609059034184546304,-0.025612904,-0.027855445,-0.022320189,0.000527165,-0.043365800,0.000001073,0.999059122,-0.003423906,0.002898141,0.002725837,0.023787331,-0.004006290,0.002629060,0.006790897,-0.003633843,-0.001774080,-0.016355459,-0.000187000,-0.188144598
1609059034287946496,200,1609059034287946496,-0.025705326,-0.026633454,-0.022324480,0.000521090,-0.043337633,-0.000005047,0.999060348,-0.002326866,0.004592173,0.002000189,0.025288526,0.000259580,0.003567779,0.006790912,-0.003633849,-0.001774079,-0.016354411,-0.000187205,-0.188130722
1609059034390798848,201,1609059034390798848,-0.023547093,-0.026197160,-0.022772593,0.000516424,-0.043201343,-0.000000647,0.999066253,0.001248092,0.005622384,0.002059902,0.026123956,-0.001982275,0.005424546,0.006790912,-0.003633885,-0.001774081,-0.016351509,-0.000187769,-0.188092481
1609059034493906432,202,1609059034493906432,-0.022916493,-0.027145555,-0.021883538,0.000610400,-0.043164971,0.000069202,0.999067769,0.001221228,0.004170587,0.002993652,0.025270555,-0.004426863,0.004429327,0.006790895,-0.003633889,-0.001774082,-0.016354418,-0.000187205,-0.188131137
1609059034597388032,203,1609059034597388032,-0.021737921,-0.027380852,-0.022670303,0.000709585,-0.043182403,0.000089324,0.999066949,0.002658395,0.003717705,0.001094454,0.022662107,-0.007335307,0.004297658,0.006790890,-0.003633901,-0.001774081,-0.016350096,-0.000188008,-0.188073253
1609059034668192512,204,1609059034668192512,-0.023178186,-0.027540523,-0.021381608,0.000466238,-0.043281308,-0.000000592,0.999062816,0.002280985,0.000776873,0.001607855,0.015253851,-0.002716998,-0.004356417,0.006790893,-0.003633876,-0.001774080,-0.016355288,-0.000187083,-0.188143034
1609059034768651264,205,1609059034768651264,-0.023953795,-0.028613845,-0.021089294,0.000475715,-0.043326027,0.000030249,0.999060873,0.002402920,-0.001356046,0.000924880,0.009531099,0.000760014,-0.005090881,0.006790883,-0.003633862,-0.001774079,-0.016356015,-0.000186960,-0.188152791
1609059034871648768,206,1609059034871648768,-0.023220219,-0.030204681,-0.023314640,0.000539957,-0.043216557,0.000042679,0.999065581,0.003710921,-0.003004432,-0.001933706,0.014959916,-0.000425734,-0.004006955,0.006790867,-0.003633869,-0.001774077,-0.016346569,-0.000188471,-0.188026142
1609059034974968576,207,1609059034974968576,-0.021912924,-0.029810290,-0.024001289,0.000477407,-0.043144006,0.000008697,0.999068750,0.004857215,-0.001704021,-0.002552622,0.018468726,-0.002199555,-0.001940954,0.006790880,-0.003633883,-0.001774077,-0.016344708,-0.000188754,-0.188000978
1609059035078006016,208,1609059035078006016,-0.020383100,-0.028804606,-0.024917016,0.000446450,-0.043163753,0.000025010,0.999067911,0.006440130,0.000624403,-0.001647451,0.018617194,-0.003971979,-0.001258785,0.006790897,-0.003633898,-0.001774078,-0.016341680,-0.000189208,-0.187959632
